%time,field.header.seq,field.header.stamp,field.header.frame_id,field.status.status,field.status.service,field.latitude,field.longitude,field.altitude,field.position_covariance0,field.position_covariance1,field.position_covariance2,field.position_covariance3,field.position_covariance4,field.position_covariance5,field.position_covariance6,field.position_covariance7,field.position_covariance8,field.position_covariance_type
1658644055848221910,13007,1658644055800146081,gps,2,0,37.2390757,126.7730607,29.538,0.000196,0.0,0.0,0.0,0.000196,0.0,0.0,0.0,0.0001,2
1658644055949998215,13008,1658644055900146071,gps,2,0,37.2390757,126.7730607,29.529,0.000196,0.0,0.0,0.0,0.000196,0.0,0.0,0.0,0.0001,2
1658644056061108956,13009,1658644056000146060,gps,2,0,37.2390757,126.7730607,29.529,0.000196,0.0,0.0,0.0,0.000196,0.0,0.0,0.0,0.0001,2
1658644056158251074,13010,1658644056100146049,gps,2,0,37.2390757,126.7730607,29.53,0.000196,0.0,0.0,0.0,0.000196,0.0,0.0,0.0,0.0001,2
1658644056256287541,13011,1658644056200146038,gps,2,0,37.2390757,126.7730607,29.524,0.000196,0.0,0.0,0.0,0.000196,0.0,0.0,0.0,0.0001,2
1658644056362708105,13012,1658644056300146027,gps,2,0,37.2390757,126.7730607,29.53,0.000196,0.0,0.0,0.0,0.000196,0.0,0.0,0.0,0.0001,2
1658644056457361934,13013,1658644056400146016,gps,2,0,37.2390757,126.7730607,29.533,0.000196,0.0,0.0,0.0,0.000196,0.0,0.0,0.0,0.0001,2
1658644056551414238,13014,1658644056500146005,gps,2,0,37.2390757,126.7730607,29.534,0.000196,0.0,0.0,0.0,0.000196,0.0,0.0,0.0,0.0001,2
1658644056651550900,13015,1658644056600145994,gps,2,0,37.2390757,126.7730607,29.532,0.000196,0.0,0.0,0.0,0.000196,0.0,0.0,0.0,0.0001,2
1658644056748608029,13016,1658644056700145983,gps,2,0,37.2390757,126.7730607,29.532,0.000196,0.0,0.0,0.0,0.000196,0.0,0.0,0.0,0.0001,2
1658644056846953921,13017,1658644056800145972,gps,2,0,37.2390757,126.7730607,29.533,0.000196,0.0,0.0,0.0,0.000196,0.0,0.0,0.0,0.0001,2
1658644056948490811,13018,1658644056900145961,gps,2,0,37.2390757,126.7730607,29.53,0.000196,0.0,0.0,0.0,0.000196,0.0,0.0,0.0,0.0001,2
1658644057056469717,13019,1658644057000145951,gps,2,0,37.2390757,126.7730607,29.529,0.000196,0.0,0.0,0.0,0.000196,0.0,0.0,0.0,0.0001,2
1658644057156097063,13020,1658644057100145940,gps,2,0,37.2390757,126.7730607,29.53,0.000196,0.0,0.0,0.0,0.000196,0.0,0.0,0.0,0.0001,2
1658644057256532576,13021,1658644057200145929,gps,2,0,37.2390757,126.7730607,29.527,0.000196,0.0,0.0,0.0,0.000196,0.0,0.0,0.0,0.0001,2
1658644057363821252,13022,1658644057300145918,gps,2,0,37.2390757,126.7730607,29.53,0.000196,0.0,0.0,0.0,0.000196,0.0,0.0,0.0,0.0001,2
1658644057452344023,13023,1658644057400145907,gps,2,0,37.2390757,126.7730607,29.539,0.000196,0.0,0.0,0.0,0.000196,0.0,0.0,0.0,0.0001,2
1658644057549198319,13024,1658644057500145896,gps,2,0,37.2390758,126.7730607,29.542,0.000196,0.0,0.0,0.0,0.000196,0.0,0.0,0.0,0.0001,2
1658644057646769498,13025,1658644057600145885,gps,2,0,37.2390757,126.7730607,29.538,0.000196,0.0,0.0,0.0,0.000196,0.0,0.0,0.0,0.0001,2
1658644057747110303,13026,1658644057700145874,gps,2,0,37.2390757,126.7730607,29.535,0.000196,0.0,0.0,0.0,0.000196,0.0,0.0,0.0,0.0001,2
1658644057848683157,13027,1658644057800145863,gps,2,0,37.2390757,126.7730607,29.534,0.000196,0.0,0.0,0.0,0.000196,0.0,0.0,0.0,0.0001,2
1658644057950567123,13028,1658644057900145852,gps,2,0,37.2390757,126.7730607,29.536,0.000196,0.0,0.0,0.0,0.000196,0.0,0.0,0.0,0.0001,2
1658644058056262911,13029,1658644058000145842,gps,2,0,37.2390757,126.7730607,29.53,0.000196,0.0,0.0,0.0,0.000196,0.0,0.0,0.0,0.0001,2
1658644058162687484,13030,1658644058100145831,gps,2,0,37.2390757,126.7730607,29.531,0.000196,0.0,0.0,0.0,0.000196,0.0,0.0,0.0,0.0001,2
1658644058268083473,13031,1658644058200145820,gps,2,0,37.2390757,126.7730607,29.53,0.000196,0.0,0.0,0.0,0.000196,0.0,0.0,0.0,0.0001,2
1658644058357300812,13032,1658644058300145809,gps,2,0,37.2390757,126.7730607,29.531,0.000196,0.0,0.0,0.0,0.000196,0.0,0.0,0.0,0.0001,2
1658644058452136034,13033,1658644058400145798,gps,2,0,37.2390757,126.7730607,29.534,0.000196,0.0,0.0,0.0,0.000196,0.0,0.0,0.0,0.0001,2
1658644058547376855,13034,1658644058500145787,gps,2,0,37.2390758,126.7730607,29.533,0.000196,0.0,0.0,0.0,0.000196,0.0,0.0,0.0,0.0001,2
1658644058647653119,13035,1658644058600145776,gps,2,0,37.2390758,126.7730607,29.535,0.000196,0.0,0.0,0.0,0.000196,0.0,0.0,0.0,0.0001,2
1658644058750142412,13036,1658644058700145765,gps,2,0,37.2390758,126.7730607,29.532,0.000196,0.0,0.0,0.0,0.000196,0.0,0.0,0.0,0.0001,2
1658644058851253480,13037,1658644058800145754,gps,2,0,37.2390758,126.7730607,29.533,0.000196,0.0,0.0,0.0,0.000196,0.0,0.0,0.0,0.0001,2
1658644058949267741,13038,1658644058900145743,gps,2,0,37.2390758,126.7730607,29.531,0.000196,0.0,0.0,0.0,0.000196,0.0,0.0,0.0,0.0001,2
1658644059056691690,13039,1658644059000145733,gps,2,0,37.2390758,126.7730607,29.528,0.000196,0.0,0.0,0.0,0.000196,0.0,0.0,0.0,0.0001,2
1658644059153335141,13040,1658644059100145722,gps,2,0,37.2390758,126.7730607,29.534,0.000196,0.0,0.0,0.0,0.000196,0.0,0.0,0.0,0.0001,2
1658644059261537575,13041,1658644059200145711,gps,2,0,37.2390758,126.7730607,29.533,0.000196,0.0,0.0,0.0,0.000196,0.0,0.0,0.0,0.0001,2
1658644059352828039,13042,1658644059300145700,gps,2,0,37.2390758,126.7730607,29.54,0.000196,0.0,0.0,0.0,0.000196,0.0,0.0,0.0,0.0001,2
1658644059452229226,13043,1658644059400145689,gps,2,0,37.2390758,126.7730607,29.54,0.000196,0.0,0.0,0.0,0.000196,0.0,0.0,0.0,0.0001,2
1658644059551400989,13044,1658644059500145678,gps,2,0,37.2390758,126.7730607,29.531,0.000196,0.0,0.0,0.0,0.000196,0.0,0.0,0.0,0.0001,2
1658644059652667913,13045,1658644059600145667,gps,2,0,37.2390758,126.7730607,29.533,0.000196,0.0,0.0,0.0,0.000196,0.0,0.0,0.0,0.0001,2
1658644059753079100,13046,1658644059700145657,gps,2,0,37.2390758,126.7730607,29.537,0.000196,0.0,0.0,0.0,0.000196,0.0,0.0,0.0,0.0001,2
1658644059850427200,13047,1658644059800145646,gps,2,0,37.2390758,126.7730607,29.534,0.000196,0.0,0.0,0.0,0.000196,0.0,0.0,0.0,0.0001,2
1658644059954576910,13048,1658644059900145635,gps,2,0,37.2390758,126.7730607,29.536,0.000196,0.0,0.0,0.0,0.000196,0.0,0.0,0.0,0.0001,2
1658644060062263402,13049,1658644060000145624,gps,2,0,37.2390758,126.7730607,29.54,0.000196,0.0,0.0,0.0,0.000196,0.0,0.0,0.0,0.0001,2
1658644060155560830,13050,1658644060100145613,gps,2,0,37.2390758,126.7730607,29.541,0.000196,0.0,0.0,0.0,0.000196,0.0,0.0,0.0,0.0001,2
1658644060264474330,13051,1658644060200145602,gps,2,0,37.2390758,126.7730607,29.54,0.000196,0.0,0.0,0.0,0.000196,0.0,0.0,0.0,0.0001,2
1658644060353316292,13052,1658644060300145591,gps,2,0,37.2390758,126.7730607,29.54,0.000196,0.0,0.0,0.0,0.000196,0.0,0.0,0.0,0.0001,2
1658644060456519438,13053,1658644060400145580,gps,2,0,37.2390758,126.7730607,29.538,0.000196,0.0,0.0,0.0,0.000196,0.0,0.0,0.0,0.0001,2
1658644060552702244,13054,1658644060500145569,gps,2,0,37.2390758,126.7730607,29.537,0.000196,0.0,0.0,0.0,0.000196,0.0,0.0,0.0,0.0001,2
1658644060654253467,13055,1658644060600145559,gps,2,0,37.2390758,126.7730607,29.537,0.000196,0.0,0.0,0.0,0.000196,0.0,0.0,0.0,0.0001,2
1658644060753116085,13056,1658644060700145548,gps,2,0,37.2390758,126.7730607,29.537,0.000196,0.0,0.0,0.0,0.000196,0.0,0.0,0.0,0.0001,2
1658644060856062403,13057,1658644060800145537,gps,2,0,37.2390758,126.7730607,29.542,0.000196,0.0,0.0,0.0,0.000196,0.0,0.0,0.0,0.0001,2
1658644060958659123,13058,1658644060900145526,gps,2,0,37.2390758,126.7730607,29.543,0.000196,0.0,0.0,0.0,0.000196,0.0,0.0,0.0,0.0001,2
1658644061060371270,13059,1658644061000145515,gps,2,0,37.2390758,126.7730607,29.54,0.000196,0.0,0.0,0.0,0.000196,0.0,0.0,0.0,0.0001,2
1658644061158347829,13060,1658644061100145504,gps,2,0,37.2390758,126.7730607,29.544,0.000196,0.0,0.0,0.0,0.000196,0.0,0.0,0.0,0.0001,2
1658644061253372942,13061,1658644061200145493,gps,2,0,37.2390758,126.7730607,29.545,0.000196,0.0,0.0,0.0,0.000196,0.0,0.0,0.0,0.0001,2
1658644061353310705,13062,1658644061300145482,gps,2,0,37.2390758,126.7730607,29.546,0.000196,0.0,0.0,0.0,0.000196,0.0,0.0,0.0,0.0001,2
1658644061461274242,13063,1658644061400145472,gps,2,0,37.2390758,126.7730607,29.548,0.000196,0.0,0.0,0.0,0.000196,0.0,0.0,0.0,0.0001,2
1658644061553338007,13064,1658644061500145461,gps,2,0,37.2390758,126.7730606,29.545,0.000196,0.0,0.0,0.0,0.000196,0.0,0.0,0.0,0.0001,2
1658644061652554212,13065,1658644061600145450,gps,2,0,37.2390757,126.7730606,29.543,0.000196,0.0,0.0,0.0,0.000196,0.0,0.0,0.0,0.0001,2
1658644061752556856,13066,1658644061700145439,gps,2,0,37.2390757,126.7730606,29.551,0.000196,0.0,0.0,0.0,0.000196,0.0,0.0,0.0,0.0001,2
1658644061852418164,13067,1658644061800145429,gps,2,0,37.2390758,126.7730606,29.551,0.000196,0.0,0.0,0.0,0.000196,0.0,0.0,0.0,0.0001,2
1658644061952038171,13068,1658644061900145418,gps,2,0,37.2390757,126.7730606,29.548,0.000196,0.0,0.0,0.0,0.000196,0.0,0.0,0.0,0.0001,2
1658644062061911116,13069,1658644062000145407,gps,2,0,37.2390757,126.7730606,29.554,0.000196,0.0,0.0,0.0,0.000196,0.0,0.0,0.0,0.0001,2
1658644062155991727,13070,1658644062100145396,gps,2,0,37.2390757,126.7730606,29.553,0.000196,0.0,0.0,0.0,0.000196,0.0,0.0,0.0,0.0001,2
1658644062253496488,13071,1658644062200145385,gps,2,0,37.2390758,126.7730606,29.553,0.000196,0.0,0.0,0.0,0.000196,0.0,0.0,0.0,0.0001,2
1658644062358678751,13072,1658644062300145374,gps,2,0,37.2390757,126.7730606,29.557,0.000196,0.0,0.0,0.0,0.000196,0.0,0.0,0.0,0.0001,2
1658644062463088941,13073,1658644062400145364,gps,2,0,37.2390757,126.7730606,29.551,0.000196,0.0,0.0,0.0,0.000196,0.0,0.0,0.0,0.0001,2
1658644062551990195,13074,1658644062500145353,gps,2,0,37.2390757,126.7730606,29.55,0.000196,0.0,0.0,0.0,0.000196,0.0,0.0,0.0,0.0001,2
1658644062652452876,13075,1658644062600145342,gps,2,0,37.2390757,126.7730606,29.549,0.000196,0.0,0.0,0.0,0.000196,0.0,0.0,0.0,0.0001,2
1658644062752960949,13076,1658644062700145331,gps,2,0,37.2390757,126.7730606,29.546,0.000196,0.0,0.0,0.0,0.000196,0.0,0.0,0.0,0.0001,2
1658644062852112236,13077,1658644062800145320,gps,2,0,37.2390757,126.7730606,29.549,0.000196,0.0,0.0,0.0,0.000196,0.0,0.0,0.0,0.0001,2
1658644062951781108,13078,1658644062900145309,gps,2,0,37.2390757,126.7730606,29.549,0.000196,0.0,0.0,0.0,0.000196,0.0,0.0,0.0,0.0001,2
1658644063056089699,13079,1658644063000145298,gps,2,0,37.2390757,126.7730606,29.548,0.000196,0.0,0.0,0.0,0.000196,0.0,0.0,0.0,0.0001,2
1658644063156630138,13080,1658644063100145287,gps,2,0,37.2390757,126.7730606,29.549,0.000196,0.0,0.0,0.0,0.000196,0.0,0.0,0.0,0.0001,2
1658644063264434487,13081,1658644063200145277,gps,2,0,37.2390757,126.7730606,29.55,0.000196,0.0,0.0,0.0,0.000196,0.0,0.0,0.0,0.0001,2
1658644063367949262,13082,1658644063300145265,gps,2,0,37.2390757,126.7730606,29.542,0.000196,0.0,0.0,0.0,0.000196,0.0,0.0,0.0,0.0001,2
1658644063456332415,13083,1658644063400145254,gps,2,0,37.2390757,126.7730606,29.543,0.000196,0.0,0.0,0.0,0.000196,0.0,0.0,0.0,0.0001,2
1658644063552856432,13084,1658644063500145243,gps,2,0,37.2390758,126.7730607,29.543,0.000196,0.0,0.0,0.0,0.000196,0.0,0.0,0.0,0.0001,2
1658644063654460229,13085,1658644063600145232,gps,2,0,37.2390758,126.7730607,29.535,0.000196,0.0,0.0,0.0,0.000196,0.0,0.0,0.0,0.0001,2
1658644063752834331,13086,1658644063700145222,gps,2,0,37.2390758,126.7730607,29.533,0.000196,0.0,0.0,0.0,0.000196,0.0,0.0,0.0,0.0001,2
1658644063852755843,13087,1658644063800145211,gps,2,0,37.2390757,126.7730607,29.539,0.000196,0.0,0.0,0.0,0.000196,0.0,0.0,0.0,0.0001,2
1658644063950491665,13088,1658644063900145200,gps,2,0,37.2390758,126.7730607,29.538,0.000196,0.0,0.0,0.0,0.000196,0.0,0.0,0.0,0.0001,2
1658644064058586518,13089,1658644064000145189,gps,2,0,37.2390758,126.7730607,29.54,0.000196,0.0,0.0,0.0,0.000196,0.0,0.0,0.0,0.0001,2
1658644064162253937,13090,1658644064100145178,gps,2,0,37.2390757,126.7730607,29.54,0.000196,0.0,0.0,0.0,0.000196,0.0,0.0,0.0,0.0001,2
1658644064260169465,13091,1658644064200145167,gps,2,0,37.2390757,126.7730607,29.539,0.000196,0.0,0.0,0.0,0.000196,0.0,0.0,0.0,0.0001,2
1658644064366795400,13092,1658644064300145156,gps,2,0,37.2390757,126.7730607,29.54,0.000196,0.0,0.0,0.0,0.000196,0.0,0.0,0.0,0.0001,2
1658644064454351066,13093,1658644064400145146,gps,2,0,37.2390757,126.7730607,29.535,0.000196,0.0,0.0,0.0,0.000196,0.0,0.0,0.0,0.0001,2
1658644064551979705,13094,1658644064500145135,gps,2,0,37.2390758,126.7730607,29.532,0.000196,0.0,0.0,0.0,0.000196,0.0,0.0,0.0,0.0001,2
1658644064650388710,13095,1658644064600145124,gps,2,0,37.2390758,126.7730607,29.534,0.000196,0.0,0.0,0.0,0.000196,0.0,0.0,0.0,0.0001,2
1658644064750293783,13096,1658644064700145113,gps,2,0,37.2390758,126.7730607,29.535,0.000196,0.0,0.0,0.0,0.000196,0.0,0.0,0.0,0.0001,2
1658644064847083832,13097,1658644064800145102,gps,2,0,37.2390757,126.7730607,29.534,0.000196,0.0,0.0,0.0,0.000196,0.0,0.0,0.0,0.0001,2
1658644064946914667,13098,1658644064900145091,gps,2,0,37.2390758,126.7730607,29.534,0.000196,0.0,0.0,0.0,0.000196,0.0,0.0,0.0,0.0001,2
1658644065055929893,13099,1658644065000145081,gps,2,0,37.2390757,126.7730607,29.534,0.000196,0.0,0.0,0.0,0.000196,0.0,0.0,0.0,0.0001,2
1658644065158844275,13100,1658644065100145070,gps,2,0,37.2390758,126.7730607,29.532,0.000196,0.0,0.0,0.0,0.000196,0.0,0.0,0.0,0.0001,2
1658644065256677597,13101,1658644065200145059,gps,2,0,37.2390758,126.7730607,29.526,0.000196,0.0,0.0,0.0,0.000196,0.0,0.0,0.0,0.0001,2
1658644065363771826,13102,1658644065300145049,gps,2,0,37.2390758,126.7730607,29.528,0.000196,0.0,0.0,0.0,0.000196,0.0,0.0,0.0,0.0001,2
1658644065456109104,13103,1658644065400145038,gps,2,0,37.2390758,126.7730607,29.537,0.000196,0.0,0.0,0.0,0.000196,0.0,0.0,0.0,0.0001,2
1658644065552263790,13104,1658644065500145027,gps,2,0,37.2390758,126.7730607,29.537,0.000196,0.0,0.0,0.0,0.000196,0.0,0.0,0.0,0.0001,2
1658644065648983324,13105,1658644065600145016,gps,2,0,37.2390758,126.7730607,29.536,0.000196,0.0,0.0,0.0,0.000196,0.0,0.0,0.0,0.0001,2
1658644065746588500,13106,1658644065700145006,gps,2,0,37.2390758,126.7730607,29.539,0.000196,0.0,0.0,0.0,0.000196,0.0,0.0,0.0,0.0001,2
1658644065846295525,13107,1658644065800144995,gps,2,0,37.2390757,126.7730607,29.538,0.000196,0.0,0.0,0.0,0.000196,0.0,0.0,0.0,0.0001,2
1658644065948340387,13108,1658644065900144984,gps,2,0,37.2390757,126.7730607,29.541,0.000196,0.0,0.0,0.0,0.000196,0.0,0.0,0.0,0.0001,2
1658644066056729340,13109,1658644066000144973,gps,2,0,37.2390757,126.7730607,29.537,0.000196,0.0,0.0,0.0,0.000196,0.0,0.0,0.0,0.0001,2
1658644066162285277,13110,1658644066100144962,gps,2,0,37.2390757,126.7730607,29.538,0.000196,0.0,0.0,0.0,0.000196,0.0,0.0,0.0,0.0001,2
1658644066264922002,13111,1658644066200144951,gps,2,0,37.2390758,126.7730607,29.54,0.000196,0.0,0.0,0.0,0.000196,0.0,0.0,0.0,0.0001,2
1658644066353334505,13112,1658644066300144940,gps,2,0,37.2390757,126.7730606,29.544,0.000196,0.0,0.0,0.0,0.000196,0.0,0.0,0.0,0.0001,2
1658644066454453666,13113,1658644066400144930,gps,2,0,37.2390757,126.7730607,29.542,0.000196,0.0,0.0,0.0,0.000196,0.0,0.0,0.0,0.0001,2
1658644066549839889,13114,1658644066500144919,gps,2,0,37.2390757,126.7730607,29.543,0.000196,0.0,0.0,0.0,0.000196,0.0,0.0,0.0,0.0001,2
1658644066647039483,13115,1658644066600144908,gps,2,0,37.2390757,126.7730606,29.541,0.000196,0.0,0.0,0.0,0.000196,0.0,0.0,0.0,0.0001,2
1658644066747406325,13116,1658644066700144897,gps,2,0,37.2390757,126.7730607,29.546,0.000196,0.0,0.0,0.0,0.000196,0.0,0.0,0.0,0.0001,2
1658644066849396900,13117,1658644066800144886,gps,2,0,37.2390757,126.7730606,29.542,0.000196,0.0,0.0,0.0,0.000196,0.0,0.0,0.0,0.0001,2
1658644066950029263,13118,1658644066900144875,gps,2,0,37.2390757,126.7730607,29.544,0.000196,0.0,0.0,0.0,0.000196,0.0,0.0,0.0,0.0001,2
1658644067055337850,13119,1658644067000144865,gps,2,0,37.2390757,126.7730606,29.542,0.000196,0.0,0.0,0.0,0.000196,0.0,0.0,0.0,0.0001,2
1658644067158073471,13120,1658644067100144854,gps,2,0,37.2390757,126.7730607,29.546,0.000196,0.0,0.0,0.0,0.000196,0.0,0.0,0.0,0.0001,2
1658644067262680996,13121,1658644067200144843,gps,2,0,37.2390757,126.7730607,29.545,0.000196,0.0,0.0,0.0,0.000196,0.0,0.0,0.0,0.0001,2
1658644067354239271,13122,1658644067300144832,gps,2,0,37.2390758,126.7730607,29.55,0.000196,0.0,0.0,0.0,0.000196,0.0,0.0,0.0,0.0001,2
1658644067456915014,13123,1658644067400144821,gps,2,0,37.2390758,126.7730607,29.548,0.000196,0.0,0.0,0.0,0.000196,0.0,0.0,0.0,0.0001,2
1658644067551141751,13124,1658644067500144810,gps,2,0,37.2390757,126.7730607,29.55,0.000196,0.0,0.0,0.0,0.000196,0.0,0.0,0.0,0.0001,2
1658644067648883938,13125,1658644067600144800,gps,2,0,37.2390757,126.7730607,29.546,0.000196,0.0,0.0,0.0,0.000196,0.0,0.0,0.0,0.0001,2
1658644067749198371,13126,1658644067700144789,gps,2,0,37.2390758,126.7730607,29.545,0.000196,0.0,0.0,0.0,0.000196,0.0,0.0,0.0,0.0001,2
1658644067848012172,13127,1658644067800144778,gps,2,0,37.2390757,126.7730607,29.544,0.000196,0.0,0.0,0.0,0.000196,0.0,0.0,0.0,0.0001,2
1658644067947124026,13128,1658644067900144767,gps,2,0,37.2390757,126.7730607,29.545,0.000196,0.0,0.0,0.0,0.000196,0.0,0.0,0.0,0.0001,2
1658644068056127349,13129,1658644068000144756,gps,2,0,37.2390757,126.7730607,29.543,0.000196,0.0,0.0,0.0,0.000196,0.0,0.0,0.0,0.0001,2
1658644068157584281,13130,1658644068100144746,gps,2,0,37.2390757,126.7730607,29.545,0.000196,0.0,0.0,0.0,0.000196,0.0,0.0,0.0,0.0001,2
1658644068259284965,13131,1658644068200144735,gps,2,0,37.2390757,126.7730607,29.544,0.000196,0.0,0.0,0.0,0.000196,0.0,0.0,0.0,0.0001,2
1658644068352568908,13132,1658644068300144724,gps,2,0,37.2390757,126.7730606,29.541,0.000196,0.0,0.0,0.0,0.000196,0.0,0.0,0.0,0.0001,2
1658644068452174036,13133,1658644068400144713,gps,2,0,37.2390757,126.7730606,29.539,0.000196,0.0,0.0,0.0,0.000196,0.0,0.0,0.0,0.0001,2
1658644068547753786,13134,1658644068500144702,gps,2,0,37.2390758,126.7730607,29.54,0.000196,0.0,0.0,0.0,0.000196,0.0,0.0,0.0,0.0001,2
1658644068649732815,13135,1658644068600144691,gps,2,0,37.2390758,126.7730607,29.536,0.000196,0.0,0.0,0.0,0.000196,0.0,0.0,0.0,0.0001,2
1658644068750815904,13136,1658644068700144681,gps,2,0,37.2390758,126.7730607,29.539,0.000196,0.0,0.0,0.0,0.000196,0.0,0.0,0.0,0.0001,2
1658644068848216916,13137,1658644068800144670,gps,2,0,37.2390758,126.7730606,29.536,0.000196,0.0,0.0,0.0,0.000196,0.0,0.0,0.0,0.0001,2
1658644068949014995,13138,1658644068900144659,gps,2,0,37.2390758,126.7730607,29.537,0.000196,0.0,0.0,0.0,0.000196,0.0,0.0,0.0,0.0001,2
1658644069057262895,13139,1658644069000144648,gps,2,0,37.2390758,126.7730607,29.535,0.000196,0.0,0.0,0.0,0.000196,0.0,0.0,0.0,0.0001,2
1658644069156518839,13140,1658644069100144637,gps,2,0,37.2390758,126.7730607,29.533,0.000196,0.0,0.0,0.0,0.000196,0.0,0.0,0.0,0.0001,2
1658644069252471393,13141,1658644069200144627,gps,2,0,37.2390758,126.7730607,29.533,0.000196,0.0,0.0,0.0,0.000196,0.0,0.0,0.0,0.0001,2
1658644069352063484,13142,1658644069300144616,gps,2,0,37.2390758,126.7730607,29.53,0.000196,0.0,0.0,0.0,0.000196,0.0,0.0,0.0,0.0001,2
1658644069459973059,13143,1658644069400144605,gps,2,0,37.2390758,126.7730607,29.534,0.000196,0.0,0.0,0.0,0.000196,0.0,0.0,0.0,0.0001,2
1658644069552291706,13144,1658644069500144594,gps,2,0,37.2390758,126.7730607,29.537,0.000196,0.0,0.0,0.0,0.000196,0.0,0.0,0.0,0.0001,2
1658644069748241788,13145,1658644069700144573,gps,2,0,37.2390758,126.7730607,29.532,0.000196,0.0,0.0,0.0,0.000196,0.0,0.0,0.0,0.0001,2
1658644069849237160,13146,1658644069800144562,gps,2,0,37.2390758,126.7730607,29.534,0.000196,0.0,0.0,0.0,0.000196,0.0,0.0,0.0,0.0001,2
1658644069952037161,13147,1658644069900144551,gps,2,0,37.2390758,126.7730607,29.528,0.000196,0.0,0.0,0.0,0.000196,0.0,0.0,0.0,0.0001,2
1658644070060901080,13148,1658644070000144540,gps,2,0,37.2390758,126.7730607,29.526,0.000196,0.0,0.0,0.0,0.000196,0.0,0.0,0.0,0.0001,2
1658644070157012001,13149,1658644070100144530,gps,2,0,37.2390758,126.7730607,29.525,0.000196,0.0,0.0,0.0,0.000196,0.0,0.0,0.0,0.0001,2
1658644070252276885,13150,1658644070200144519,gps,2,0,37.2390758,126.7730607,29.527,0.000196,0.0,0.0,0.0,0.000196,0.0,0.0,0.0,0.0001,2
1658644070359071095,13151,1658644070300144508,gps,2,0,37.2390758,126.7730607,29.52,0.000196,0.0,0.0,0.0,0.000196,0.0,0.0,0.0,0.0001,2
1658644070464210957,13152,1658644070400144496,gps,2,0,37.2390758,126.7730607,29.532,0.000196,0.0,0.0,0.0,0.000196,0.0,0.0,0.0,0.0001,2
1658644070557564460,13153,1658644070500144486,gps,2,0,37.2390758,126.7730607,29.539,0.000196,0.0,0.0,0.0,0.000196,0.0,0.0,0.0,0.0001,2
1658644070655914917,13154,1658644070600144475,gps,2,0,37.2390758,126.7730607,29.536,0.000196,0.0,0.0,0.0,0.000196,0.0,0.0,0.0,0.0001,2
1658644070756108859,13155,1658644070700144464,gps,2,0,37.2390758,126.7730607,29.533,0.000196,0.0,0.0,0.0,0.000196,0.0,0.0,0.0,0.0001,2
1658644070852280903,13156,1658644070800144453,gps,2,0,37.2390758,126.7730607,29.531,0.000196,0.0,0.0,0.0,0.000196,0.0,0.0,0.0,0.0001,2
1658644070951245153,13157,1658644070900144442,gps,2,0,37.2390758,126.7730607,29.534,0.000196,0.0,0.0,0.0,0.000196,0.0,0.0,0.0,0.0001,2
1658644071060935057,13158,1658644071000144432,gps,2,0,37.2390758,126.7730607,29.533,0.000196,0.0,0.0,0.0,0.000196,0.0,0.0,0.0,0.0001,2
1658644071155166894,13159,1658644071100144421,gps,2,0,37.2390758,126.7730607,29.53,0.000196,0.0,0.0,0.0,0.000196,0.0,0.0,0.0,0.0001,2
1658644071254069844,13160,1658644071200144410,gps,2,0,37.2390758,126.7730607,29.529,0.000196,0.0,0.0,0.0,0.000196,0.0,0.0,0.0,0.0001,2
1658644071362965552,13161,1658644071300144400,gps,2,0,37.2390758,126.7730607,29.535,0.000196,0.0,0.0,0.0,0.000196,0.0,0.0,0.0,0.0001,2
1658644071458023682,13162,1658644071400144389,gps,2,0,37.2390758,126.7730607,29.536,0.000196,0.0,0.0,0.0,0.000196,0.0,0.0,0.0,0.0001,2
1658644071555171347,13163,1658644071500144378,gps,2,0,37.2390758,126.7730607,29.536,0.000196,0.0,0.0,0.0,0.000196,0.0,0.0,0.0,0.0001,2
1658644071653148282,13164,1658644071600144367,gps,2,0,37.2390758,126.7730607,29.537,0.000196,0.0,0.0,0.0,0.000196,0.0,0.0,0.0,0.0001,2
1658644071752132464,13165,1658644071700144357,gps,2,0,37.2390758,126.7730607,29.534,0.000196,0.0,0.0,0.0,0.000196,0.0,0.0,0.0,0.0001,2
1658644071850999883,13166,1658644071800144346,gps,2,0,37.2390758,126.7730607,29.534,0.000196,0.0,0.0,0.0,0.000196,0.0,0.0,0.0,0.0001,2
1658644071951260474,13167,1658644071900144335,gps,2,0,37.2390758,126.7730607,29.533,0.000196,0.0,0.0,0.0,0.000196,0.0,0.0,0.0,0.0001,2
1658644072055989303,13168,1658644072000144324,gps,2,0,37.2390758,126.7730607,29.53,0.000196,0.0,0.0,0.0,0.000196,0.0,0.0,0.0,0.0001,2
1658644072157343229,13169,1658644072100144313,gps,2,0,37.2390758,126.7730608,29.529,0.000196,0.0,0.0,0.0,0.000196,0.0,0.0,0.0,0.0001,2
1658644072258220144,13170,1658644072200144303,gps,2,0,37.2390758,126.7730608,29.526,0.000196,0.0,0.0,0.0,0.000196,0.0,0.0,0.0,0.0001,2
1658644072364147376,13171,1658644072300144292,gps,2,0,37.2390758,126.7730607,29.523,0.000196,0.0,0.0,0.0,0.000196,0.0,0.0,0.0,0.0001,2
1658644072460020833,13172,1658644072400144281,gps,2,0,37.2390758,126.7730607,29.525,0.000196,0.0,0.0,0.0,0.000196,0.0,0.0,0.0,0.0001,2
1658644072552774069,13173,1658644072500144270,gps,2,0,37.2390758,126.7730608,29.53,0.000196,0.0,0.0,0.0,0.000196,0.0,0.0,0.0,0.0001,2
1658644072653941199,13174,1658644072600144259,gps,2,0,37.2390759,126.773061,29.53,0.000196,0.0,0.0,0.0,0.000196,0.0,0.0,0.0,0.0001,2
1658644072752760812,13175,1658644072700144249,gps,2,0,37.239076,126.7730612,29.532,0.000196,0.0,0.0,0.0,0.000196,0.0,0.0,0.0,0.0001,2
1658644072852843267,13176,1658644072800144238,gps,2,0,37.2390761,126.7730614,29.53,0.000196,0.0,0.0,0.0,0.000196,0.0,0.0,0.0,0.0001,2
1658644072950045087,13177,1658644072900144227,gps,2,0,37.2390763,126.7730617,29.529,0.000196,0.0,0.0,0.0,0.000196,0.0,0.0,0.0,0.0001,2
1658644073057780173,13178,1658644073000144216,gps,2,0,37.2390765,126.7730621,29.527,0.000196,0.0,0.0,0.0,0.000196,0.0,0.0,0.0,0.0001,2
1658644073161210621,13179,1658644073100144206,gps,2,0,37.2390767,126.7730626,29.527,0.000196,0.0,0.0,0.0,0.000196,0.0,0.0,0.0,0.0001,2
1658644073256887510,13180,1658644073200144195,gps,2,0,37.239077,126.773063,29.535,0.000196,0.0,0.0,0.0,0.000196,0.0,0.0,0.0,0.0001,2
1658644073362929829,13181,1658644073300144184,gps,2,0,37.2390774,126.7730636,29.548,0.000196,0.0,0.0,0.0,0.000196,0.0,0.0,0.0,0.0001,2
1658644073460908329,13182,1658644073400144173,gps,2,0,37.2390777,126.7730643,29.55,0.000196,0.0,0.0,0.0,0.000196,0.0,0.0,0.0,0.0001,2
1658644073556762487,13183,1658644073500144163,gps,2,0,37.239078,126.773065,29.548,0.000196,0.0,0.0,0.0,0.000196,0.0,0.0,0.0,0.0001,2
1658644073656028660,13184,1658644073600144152,gps,2,0,37.2390785,126.7730657,29.537,0.000196,0.0,0.0,0.0,0.000196,0.0,0.0,0.0,0.0001,2
1658644073752705918,13185,1658644073700144141,gps,2,0,37.2390789,126.7730665,29.535,0.000196,0.0,0.0,0.0,0.000196,0.0,0.0,0.0,0.0001,2
1658644073850828408,13186,1658644073800144130,gps,2,0,37.2390794,126.7730674,29.533,0.000196,0.0,0.0,0.0,0.000196,0.0,0.0,0.0,0.0001,2
1658644073949272906,13187,1658644073900144120,gps,2,0,37.23908,126.7730683,29.527,0.000196,0.0,0.0,0.0,0.000196,0.0,0.0,0.0,0.0001,2
1658644074060089200,13188,1658644074000144109,gps,2,0,37.2390806,126.7730693,29.526,0.000196,0.0,0.0,0.0,0.000196,0.0,0.0,0.0,0.0001,2
1658644074158506672,13189,1658644074100144098,gps,2,0,37.2390813,126.7730703,29.523,0.000196,0.0,0.0,0.0,0.000196,0.0,0.0,0.0,0.0001,2
1658644074262590375,13190,1658644074200144087,gps,2,0,37.2390819,126.7730713,29.523,0.000196,0.0,0.0,0.0,0.000196,0.0,0.0,0.0,0.0001,2
1658644074355565127,13191,1658644074300144076,gps,2,0,37.2390827,126.7730724,29.523,0.000196,0.0,0.0,0.0,0.000196,0.0,0.0,0.0,0.0001,2
1658644074457886009,13192,1658644074400144066,gps,2,0,37.2390835,126.7730735,29.529,0.000196,0.0,0.0,0.0,0.000196,0.0,0.0,0.0,0.0001,2
1658644074548918495,13193,1658644074500144055,gps,2,0,37.2390843,126.7730747,29.524,0.000196,0.0,0.0,0.0,0.000196,0.0,0.0,0.0,0.0001,2
1658644074650222761,13194,1658644074600144044,gps,2,0,37.2390851,126.7730759,29.526,0.000196,0.0,0.0,0.0,0.000196,0.0,0.0,0.0,0.0001,2
1658644074747923052,13195,1658644074700144033,gps,2,0,37.2390861,126.7730772,29.527,0.000196,0.0,0.0,0.0,0.000196,0.0,0.0,0.0,0.0001,2
1658644074850952465,13196,1658644074800144022,gps,2,0,37.239087,126.7730784,29.527,0.000196,0.0,0.0,0.0,0.000196,0.0,0.0,0.0,0.0001,2
1658644074952572415,13197,1658644074900144012,gps,2,0,37.2390881,126.7730797,29.522,0.000196,0.0,0.0,0.0,0.000196,0.0,0.0,0.0,0.0001,2
1658644075059989718,13198,1658644075000144001,gps,2,0,37.2390891,126.773081,29.521,0.000196,0.0,0.0,0.0,0.000196,0.0,0.0,0.0,0.0001,2
1658644075155448141,13199,1658644075100143990,gps,2,0,37.2390902,126.7730824,29.524,0.000196,0.0,0.0,0.0,0.000196,0.0,0.0,0.0,0.0001,2
1658644075257768735,13200,1658644075200143980,gps,2,0,37.2390914,126.7730838,29.527,0.000196,0.0,0.0,0.0,0.000196,0.0,0.0,0.0,0.0001,2
1658644075351623195,13201,1658644075300143969,gps,2,0,37.2390926,126.7730851,29.528,0.000196,0.0,0.0,0.0,0.000196,0.0,0.0,0.0,0.0001,2
1658644075451694298,13202,1658644075400143958,gps,2,0,37.2390939,126.7730865,29.525,0.000196,0.0,0.0,0.0,0.000196,0.0,0.0,0.0,0.0001,2
1658644075552252708,13203,1658644075500143947,gps,2,0,37.2390952,126.7730879,29.527,0.000196,0.0,0.0,0.0,0.000196,0.0,0.0,0.0,0.0001,2
1658644075648983516,13204,1658644075600143937,gps,2,0,37.2390965,126.7730893,29.525,0.000196,0.0,0.0,0.0,0.000196,0.0,0.0,0.0,0.0001,2
1658644075750091501,13205,1658644075700143926,gps,2,0,37.2390979,126.7730907,29.526,0.000196,0.0,0.0,0.0,0.000196,0.0,0.0,0.0,0.0001,2
1658644075850660646,13206,1658644075800143915,gps,2,0,37.2390993,126.7730922,29.526,0.000196,0.0,0.0,0.0,0.000196,0.0,0.0,0.0,0.0001,2
1658644075951394692,13207,1658644075900143904,gps,2,0,37.2391009,126.7730936,29.526,0.000196,0.0,0.0,0.0,0.000196,0.0,0.0,0.0,0.0001,2
1658644076055469544,13208,1658644076000143894,gps,2,0,37.2391024,126.7730949,29.526,0.000196,0.0,0.0,0.0,0.000196,0.0,0.0,0.0,0.0001,2
1658644076158186423,13209,1658644076100143883,gps,2,0,37.2391039,126.7730963,29.524,0.000196,0.0,0.0,0.0,0.000196,0.0,0.0,0.0,0.0001,2
1658644076257614807,13210,1658644076200143872,gps,2,0,37.2391056,126.7730977,29.52,0.000196,0.0,0.0,0.0,0.000196,0.0,0.0,0.0,0.0001,2
1658644076352789732,13211,1658644076300143861,gps,2,0,37.2391072,126.7730991,29.511,0.000196,0.0,0.0,0.0,0.000196,0.0,0.0,0.0,0.0001,2
1658644076451880052,13212,1658644076400143850,gps,2,0,37.239109,126.7731005,29.517,0.000196,0.0,0.0,0.0,0.000196,0.0,0.0,0.0,0.0001,2
1658644076546841535,13213,1658644076500143840,gps,2,0,37.2391107,126.7731019,29.511,0.000196,0.0,0.0,0.0,0.000196,0.0,0.0,0.0,0.0001,2
1658644076647220840,13214,1658644076600143829,gps,2,0,37.2391125,126.7731033,29.504,0.000196,0.0,0.0,0.0,0.000196,0.0,0.0,0.0,0.0001,2
1658644076749837110,13215,1658644076700143818,gps,2,0,37.2391143,126.7731045,29.51,0.000196,0.0,0.0,0.0,0.000196,0.0,0.0,0.0,0.0001,2
1658644076850381733,13216,1658644076800143807,gps,2,0,37.2391162,126.7731059,29.508,0.000196,0.0,0.0,0.0,0.000196,0.0,0.0,0.0,0.0001,2
1658644076948052189,13217,1658644076900143797,gps,2,0,37.2391181,126.7731072,29.501,0.000196,0.0,0.0,0.0,0.000196,0.0,0.0,0.0,0.0001,2
1658644077055947696,13218,1658644077000143786,gps,2,0,37.23912,126.7731085,29.501,0.000196,0.0,0.0,0.0,0.000196,0.0,0.0,0.0,0.0001,2
1658644077155860205,13219,1658644077100143775,gps,2,0,37.239122,126.7731097,29.498,0.000196,0.0,0.0,0.0,0.000196,0.0,0.0,0.0,0.0001,2
1658644077252798543,13220,1658644077200143764,gps,2,0,37.239124,126.7731109,29.495,0.000196,0.0,0.0,0.0,0.000196,0.0,0.0,0.0,0.0001,2
1658644077354927672,13221,1658644077300143754,gps,2,0,37.239126,126.7731122,29.494,0.000196,0.0,0.0,0.0,0.000196,0.0,0.0,0.0,0.0001,2
1658644077456882996,13222,1658644077400143743,gps,2,0,37.2391281,126.7731133,29.501,0.000196,0.0,0.0,0.0,0.000196,0.0,0.0,0.0,0.0001,2
1658644077549036932,13223,1658644077500143732,gps,2,0,37.2391302,126.7731144,29.507,0.000196,0.0,0.0,0.0,0.000196,0.0,0.0,0.0,0.0001,2
1658644077649631427,13224,1658644077600143722,gps,2,0,37.2391323,126.7731156,29.519,0.000196,0.0,0.0,0.0,0.000196,0.0,0.0,0.0,0.0001,2
1658644077750225727,13225,1658644077700143711,gps,2,0,37.2391344,126.7731166,29.524,0.000196,0.0,0.0,0.0,0.000196,0.0,0.0,0.0,0.0001,2
1658644077848942615,13226,1658644077800143700,gps,2,0,37.2391367,126.7731176,29.519,0.000196,0.0,0.0,0.0,0.000196,0.0,0.0,0.0,0.0001,2
1658644077949714572,13227,1658644077900143690,gps,2,0,37.2391389,126.7731187,29.519,0.000196,0.0,0.0,0.0,0.000196,0.0,0.0,0.0,0.0001,2
1658644078057031753,13228,1658644078000143679,gps,2,0,37.2391411,126.7731197,29.519,0.000196,0.0,0.0,0.0,0.000196,0.0,0.0,0.0,0.0001,2
1658644078150813207,13229,1658644078100143668,gps,2,0,37.2391434,126.7731206,29.524,0.000196,0.0,0.0,0.0,0.000196,0.0,0.0,0.0,0.0001,2
1658644078252830120,13230,1658644078200143657,gps,2,0,37.2391457,126.7731215,29.522,0.000196,0.0,0.0,0.0,0.000196,0.0,0.0,0.0,0.0001,2
1658644078355012550,13231,1658644078300143647,gps,2,0,37.2391481,126.7731225,29.526,0.000196,0.0,0.0,0.0,0.000196,0.0,0.0,0.0,0.0001,2
1658644078457968633,13232,1658644078400143636,gps,2,0,37.2391504,126.7731234,29.525,0.000196,0.0,0.0,0.0,0.000196,0.0,0.0,0.0,0.0001,2
1658644078552760564,13233,1658644078500143625,gps,2,0,37.2391528,126.7731243,29.522,0.000196,0.0,0.0,0.0,0.000196,0.0,0.0,0.0,0.0001,2
1658644078652112940,13234,1658644078600143615,gps,2,0,37.2391552,126.7731251,29.526,0.000196,0.0,0.0,0.0,0.000196,0.0,0.0,0.0,0.0001,2
1658644078751219453,13235,1658644078700143604,gps,2,0,37.2391576,126.7731259,29.532,0.000196,0.0,0.0,0.0,0.000196,0.0,0.0,0.0,0.0001,2
1658644078850630071,13236,1658644078800143593,gps,2,0,37.23916,126.7731267,29.528,0.000196,0.0,0.0,0.0,0.000196,0.0,0.0,0.0,0.0001,2
1658644078950549153,13237,1658644078900143583,gps,2,0,37.2391625,126.7731275,29.53,0.000196,0.0,0.0,0.0,0.000196,0.0,0.0,0.0,0.0001,2
1658644079055937416,13238,1658644079000143572,gps,2,0,37.239165,126.7731283,29.535,0.000196,0.0,0.0,0.0,0.000196,0.0,0.0,0.0,0.0001,2
1658644079153948043,13239,1658644079100143562,gps,2,0,37.2391675,126.7731291,29.534,0.000196,0.0,0.0,0.0,0.000196,0.0,0.0,0.0,0.0001,2
1658644079247471928,13240,1658644079200143551,gps,2,0,37.23917,126.7731299,29.537,0.000196,0.0,0.0,0.0,0.000196,0.0,0.0,0.0,0.0001,2
1658644079355494132,13241,1658644079300143541,gps,2,0,37.2391725,126.7731306,29.534,0.000196,0.0,0.0,0.0,0.000196,0.0,0.0,0.0,0.0001,2
1658644079451594298,13242,1658644079400143530,gps,2,0,37.239175,126.7731314,29.533,0.000196,0.0,0.0,0.0,0.000196,0.0,0.0,0.0,0.0001,2
1658644079550457851,13243,1658644079500143520,gps,2,0,37.2391776,126.7731321,29.539,0.000196,0.0,0.0,0.0,0.000196,0.0,0.0,0.0,0.0001,2
1658644079648934233,13244,1658644079600143509,gps,2,0,37.2391802,126.7731329,29.533,0.000196,0.0,0.0,0.0,0.000196,0.0,0.0,0.0,0.0001,2
1658644079749739184,13245,1658644079700143498,gps,2,0,37.2391828,126.7731337,29.535,0.000196,0.0,0.0,0.0,0.000196,0.0,0.0,0.0,0.0001,2
1658644079850515327,13246,1658644079800143488,gps,2,0,37.2391853,126.7731345,29.537,0.000196,0.0,0.0,0.0,0.000196,0.0,0.0,0.0,0.0001,2
1658644079948898072,13247,1658644079900143477,gps,2,0,37.2391879,126.7731353,29.534,0.000196,0.0,0.0,0.0,0.000196,0.0,0.0,0.0,0.0001,2
1658644080057689079,13248,1658644080000143467,gps,2,0,37.2391905,126.7731362,29.538,0.000196,0.0,0.0,0.0,0.000196,0.0,0.0,0.0,0.0001,2
1658644080154757701,13249,1658644080100143456,gps,2,0,37.239193,126.773137,29.538,0.000196,0.0,0.0,0.0,0.000196,0.0,0.0,0.0,0.0001,2
1658644080260504802,13250,1658644080200143445,gps,2,0,37.2391957,126.773138,29.536,0.000196,0.0,0.0,0.0,0.000196,0.0,0.0,0.0,0.0001,2
1658644080364471510,13251,1658644080300143435,gps,2,0,37.2391983,126.7731389,29.54,0.000196,0.0,0.0,0.0,0.000196,0.0,0.0,0.0,0.0001,2
1658644080461836417,13252,1658644080400143424,gps,2,0,37.2392008,126.7731399,29.541,0.000196,0.0,0.0,0.0,0.000196,0.0,0.0,0.0,0.0001,2
1658644080554860091,13253,1658644080500143413,gps,2,0,37.2392034,126.773141,29.536,0.000196,0.0,0.0,0.0,0.000196,0.0,0.0,0.0,0.0001,2
1658644080655861363,13254,1658644080600143403,gps,2,0,37.239206,126.773142,29.537,0.000196,0.0,0.0,0.0,0.000196,0.0,0.0,0.0,0.0001,2
1658644080755266710,13255,1658644080700143392,gps,2,0,37.2392086,126.7731432,29.536,0.000196,0.0,0.0,0.0,0.000196,0.0,0.0,0.0,0.0001,2
1658644080852443958,13256,1658644080800143381,gps,2,0,37.2392112,126.7731443,29.537,0.000196,0.0,0.0,0.0,0.000196,0.0,0.0,0.0,0.0001,2
1658644080953819089,13257,1658644080900143371,gps,2,0,37.2392137,126.7731455,29.537,0.000196,0.0,0.0,0.0,0.000196,0.0,0.0,0.0,0.0001,2
1658644081054810457,13258,1658644081000143360,gps,2,0,37.2392163,126.7731467,29.533,0.000196,0.0,0.0,0.0,0.000196,0.0,0.0,0.0,0.0001,2
1658644081151518860,13259,1658644081100143349,gps,2,0,37.2392189,126.773148,29.535,0.000196,0.0,0.0,0.0,0.000196,0.0,0.0,0.0,0.0001,2
1658644081262555651,13260,1658644081200143339,gps,2,0,37.2392215,126.7731492,29.528,0.000196,0.0,0.0,0.0,0.000196,0.0,0.0,0.0,0.0001,2
1658644081356969541,13261,1658644081300143328,gps,2,0,37.239224,126.7731506,29.533,0.000196,0.0,0.0,0.0,0.000196,0.0,0.0,0.0,0.0001,2
1658644081450947692,13262,1658644081400143317,gps,2,0,37.2392266,126.7731519,29.532,0.000196,0.0,0.0,0.0,0.000196,0.0,0.0,0.0,0.0001,2
1658644081548970971,13263,1658644081500143306,gps,2,0,37.2392291,126.7731533,29.533,0.000196,0.0,0.0,0.0,0.000196,0.0,0.0,0.0,0.0001,2
1658644081649750821,13264,1658644081600143296,gps,2,0,37.2392317,126.7731547,29.532,0.000196,0.0,0.0,0.0,0.000196,0.0,0.0,0.0,0.0001,2
1658644081747359237,13265,1658644081700143285,gps,2,0,37.2392342,126.7731562,29.532,0.000196,0.0,0.0,0.0,0.000196,0.0,0.0,0.0,0.0001,2
1658644081847475580,13266,1658644081800143274,gps,2,0,37.2392368,126.7731577,29.53,0.000196,0.0,0.0,0.0,0.000196,0.0,0.0,0.0,0.0001,2
1658644081945740655,13267,1658644081900143263,gps,2,0,37.2392393,126.7731593,29.533,0.000196,0.0,0.0,0.0,0.000196,0.0,0.0,0.0,0.0001,2
1658644082052766934,13268,1658644082000143253,gps,2,0,37.2392419,126.7731608,29.536,0.000196,0.0,0.0,0.0,0.000196,0.0,0.0,0.0,0.0001,2
1658644082154837538,13269,1658644082100143242,gps,2,0,37.2392444,126.7731624,29.541,0.000196,0.0,0.0,0.0,0.000196,0.0,0.0,0.0,0.0001,2
1658644082258549276,13270,1658644082200143231,gps,2,0,37.2392469,126.773164,29.539,0.000196,0.0,0.0,0.0,0.000196,0.0,0.0,0.0,0.0001,2
1658644082354559951,13271,1658644082300143220,gps,2,0,37.2392494,126.7731656,29.533,0.000196,0.0,0.0,0.0,0.000196,0.0,0.0,0.0,0.0001,2
1658644082452781226,13272,1658644082400143210,gps,2,0,37.2392519,126.7731673,29.539,0.000196,0.0,0.0,0.0,0.000196,0.0,0.0,0.0,0.0001,2
1658644082552528169,13273,1658644082500143199,gps,2,0,37.2392544,126.773169,29.533,0.000196,0.0,0.0,0.0,0.000196,0.0,0.0,0.0,0.0001,2
1658644082651861726,13274,1658644082600143188,gps,2,0,37.2392569,126.7731708,29.537,0.000196,0.0,0.0,0.0,0.000196,0.0,0.0,0.0,0.0001,2
1658644082749560149,13275,1658644082700143177,gps,2,0,37.2392594,126.7731725,29.537,0.000196,0.0,0.0,0.0,0.000196,0.0,0.0,0.0,0.0001,2
1658644082846882907,13276,1658644082800143167,gps,2,0,37.2392619,126.7731742,29.537,0.000196,0.0,0.0,0.0,0.000196,0.0,0.0,0.0,0.0001,2
1658644082947150758,13277,1658644082900143156,gps,2,0,37.2392644,126.773176,29.536,0.000196,0.0,0.0,0.0,0.000196,0.0,0.0,0.0,0.0001,2
1658644083056406419,13278,1658644083000143145,gps,2,0,37.2392669,126.7731778,29.538,0.000196,0.0,0.0,0.0,0.000196,0.0,0.0,0.0,0.0001,2
1658644083157332851,13279,1658644083100143134,gps,2,0,37.2392694,126.7731796,29.54,0.000196,0.0,0.0,0.0,0.000196,0.0,0.0,0.0,0.0001,2
1658644083262592678,13280,1658644083200143124,gps,2,0,37.2392719,126.7731814,29.538,0.000196,0.0,0.0,0.0,0.000196,0.0,0.0,0.0,0.0001,2
1658644083356802095,13281,1658644083300143113,gps,2,0,37.2392744,126.7731833,29.53,0.000196,0.0,0.0,0.0,0.000196,0.0,0.0,0.0,0.0001,2
1658644083454888281,13282,1658644083400143102,gps,2,0,37.2392769,126.7731852,29.534,0.000196,0.0,0.0,0.0,0.000196,0.0,0.0,0.0,0.0001,2
1658644083547625608,13283,1658644083500143091,gps,2,0,37.2392794,126.7731871,29.53,0.000196,0.0,0.0,0.0,0.000196,0.0,0.0,0.0,0.0001,2
1658644083649374819,13284,1658644083600143081,gps,2,0,37.2392819,126.7731889,29.526,0.000196,0.0,0.0,0.0,0.000196,0.0,0.0,0.0,0.0001,2
1658644083746394075,13285,1658644083700143070,gps,2,0,37.2392844,126.7731909,29.529,0.000196,0.0,0.0,0.0,0.000196,0.0,0.0,0.0,0.0001,2
1658644083846605466,13286,1658644083800143059,gps,2,0,37.2392869,126.7731928,29.527,0.000196,0.0,0.0,0.0,0.000196,0.0,0.0,0.0,0.0001,2
1658644083949466785,13287,1658644083900143049,gps,2,0,37.2392894,126.7731947,29.528,0.000196,0.0,0.0,0.0,0.000196,0.0,0.0,0.0,0.0001,2
1658644084057351020,13288,1658644084000143038,gps,2,0,37.2392919,126.7731967,29.524,0.000196,0.0,0.0,0.0,0.000196,0.0,0.0,0.0,0.0001,2
1658644084152729496,13289,1658644084100143027,gps,2,0,37.2392944,126.7731986,29.527,0.000196,0.0,0.0,0.0,0.000196,0.0,0.0,0.0,0.0001,2
1658644084265789490,13290,1658644084200143016,gps,2,0,37.2392969,126.7732006,29.53,0.000196,0.0,0.0,0.0,0.000196,0.0,0.0,0.0,0.0001,2
1658644084360958042,13291,1658644084300143006,gps,2,0,37.2392994,126.7732024,29.527,0.000196,0.0,0.0,0.0,0.000196,0.0,0.0,0.0,0.0001,2
1658644084455785971,13292,1658644084400142995,gps,2,0,37.239302,126.7732044,29.529,0.000196,0.0,0.0,0.0,0.000196,0.0,0.0,0.0,0.0001,2
1658644084554413577,13293,1658644084500142984,gps,2,0,37.2393045,126.7732064,29.527,0.000196,0.0,0.0,0.0,0.000196,0.0,0.0,0.0,0.0001,2
1658644084647554776,13294,1658644084600142974,gps,2,0,37.239307,126.7732083,29.523,0.000196,0.0,0.0,0.0,0.000196,0.0,0.0,0.0,0.0001,2
1658644084748822879,13295,1658644084700142963,gps,2,0,37.2393096,126.7732102,29.518,0.000196,0.0,0.0,0.0,0.000196,0.0,0.0,0.0,0.0001,2
1658644084850769649,13296,1658644084800142952,gps,2,0,37.2393122,126.7732122,29.511,0.000196,0.0,0.0,0.0,0.000196,0.0,0.0,0.0,0.0001,2
1658644084951868534,13297,1658644084900142942,gps,2,0,37.2393147,126.773214,29.512,0.000196,0.0,0.0,0.0,0.000196,0.0,0.0,0.0,0.0001,2
1658644085057816777,13298,1658644085000142931,gps,2,0,37.2393173,126.7732159,29.51,0.000196,0.0,0.0,0.0,0.000196,0.0,0.0,0.0,0.0001,2
1658644085156254941,13299,1658644085100142920,gps,2,0,37.2393199,126.7732178,29.508,0.000196,0.0,0.0,0.0,0.000196,0.0,0.0,0.0,0.0001,2
1658644085256802621,13300,1658644085200142910,gps,2,0,37.2393226,126.7732196,29.505,0.000196,0.0,0.0,0.0,0.000196,0.0,0.0,0.0,0.0001,2
1658644085357655115,13301,1658644085300142899,gps,2,0,37.2393252,126.7732213,29.505,0.000196,0.0,0.0,0.0,0.000196,0.0,0.0,0.0,0.0001,2
1658644085466779474,13302,1658644085400142889,gps,2,0,37.2393279,126.7732231,29.515,0.000196,0.0,0.0,0.0,0.000196,0.0,0.0,0.0,0.0001,2
1658644085550451253,13303,1658644085500142878,gps,2,0,37.2393306,126.7732247,29.516,0.000196,0.0,0.0,0.0,0.000196,0.0,0.0,0.0,0.0001,2
1658644085652182869,13304,1658644085600142867,gps,2,0,37.2393333,126.7732264,29.518,0.000196,0.0,0.0,0.0,0.000196,0.0,0.0,0.0,0.0001,2
1658644085749580498,13305,1658644085700142857,gps,2,0,37.239336,126.773228,29.517,0.000196,0.0,0.0,0.0,0.000196,0.0,0.0,0.0,0.0001,2
1658644085849561184,13306,1658644085800142846,gps,2,0,37.2393388,126.7732296,29.516,0.000196,0.0,0.0,0.0,0.000196,0.0,0.0,0.0,0.0001,2
1658644085947295515,13307,1658644085900142836,gps,2,0,37.2393416,126.7732311,29.513,0.000196,0.0,0.0,0.0,0.000196,0.0,0.0,0.0,0.0001,2
1658644086055479539,13308,1658644086000142825,gps,2,0,37.2393443,126.7732326,29.515,0.000196,0.0,0.0,0.0,0.000196,0.0,0.0,0.0,0.0001,2
1658644086253429952,13309,1658644086200142804,gps,2,0,37.23935,126.7732356,29.512,0.000196,0.0,0.0,0.0,0.000196,0.0,0.0,0.0,0.0001,2
1658644086352729350,13310,1658644086300142793,gps,2,0,37.2393528,126.7732371,29.513,0.000196,0.0,0.0,0.0,0.000196,0.0,0.0,0.0,0.0001,2
1658644086458255789,13311,1658644086400142783,gps,2,0,37.2393555,126.7732385,29.52,0.000196,0.0,0.0,0.0,0.000196,0.0,0.0,0.0,0.0001,2
1658644086549849570,13312,1658644086500142772,gps,2,0,37.2393583,126.77324,29.526,0.000196,0.0,0.0,0.0,0.000196,0.0,0.0,0.0,0.0001,2
1658644086651634776,13313,1658644086600142762,gps,2,0,37.2393611,126.7732415,29.532,0.000196,0.0,0.0,0.0,0.000196,0.0,0.0,0.0,0.0001,2
1658644086748793748,13314,1658644086700142751,gps,2,0,37.2393639,126.773243,29.528,0.000196,0.0,0.0,0.0,0.000196,0.0,0.0,0.0,0.0001,2
1658644086847328238,13315,1658644086800142741,gps,2,0,37.2393667,126.7732445,29.527,0.000196,0.0,0.0,0.0,0.000196,0.0,0.0,0.0,0.0001,2
1658644086948091707,13316,1658644086900142730,gps,2,0,37.2393695,126.7732461,29.523,0.000196,0.0,0.0,0.0,0.000196,0.0,0.0,0.0,0.0001,2
1658644087055381325,13317,1658644087000142719,gps,2,0,37.2393722,126.7732478,29.524,0.000196,0.0,0.0,0.0,0.000196,0.0,0.0,0.0,0.0001,2
1658644087151447654,13318,1658644087100142709,gps,2,0,37.239375,126.7732494,29.523,0.000196,0.0,0.0,0.0,0.000196,0.0,0.0,0.0,0.0001,2
1658644087252080660,13319,1658644087200142698,gps,2,0,37.2393777,126.7732511,29.521,0.000196,0.0,0.0,0.0,0.000196,0.0,0.0,0.0,0.0001,2
1658644087357257702,13320,1658644087300142688,gps,2,0,37.2393804,126.7732527,29.527,0.000196,0.0,0.0,0.0,0.000196,0.0,0.0,0.0,0.0001,2
1658644087451782345,13321,1658644087400142677,gps,2,0,37.2393831,126.7732544,29.528,0.000196,0.0,0.0,0.0,0.000196,0.0,0.0,0.0,0.0001,2
1658644087551169495,13322,1658644087500142667,gps,2,0,37.2393857,126.7732561,29.527,0.000196,0.0,0.0,0.0,0.000196,0.0,0.0,0.0,0.0001,2
1658644087652630518,13323,1658644087600142656,gps,2,0,37.2393885,126.7732578,29.528,0.000196,0.0,0.0,0.0,0.000196,0.0,0.0,0.0,0.0001,2
1658644087749453700,13324,1658644087700142646,gps,2,0,37.2393911,126.7732596,29.528,0.000196,0.0,0.0,0.0,0.000196,0.0,0.0,0.0,0.0001,2
1658644087847636368,13325,1658644087800142635,gps,2,0,37.2393939,126.7732614,29.525,0.000196,0.0,0.0,0.0,0.000196,0.0,0.0,0.0,0.0001,2
1658644087948217879,13326,1658644087900142625,gps,2,0,37.2393966,126.7732632,29.523,0.000196,0.0,0.0,0.0,0.000196,0.0,0.0,0.0,0.0001,2
1658644088054230242,13327,1658644088000142614,gps,2,0,37.2393993,126.773265,29.52,0.000196,0.0,0.0,0.0,0.000196,0.0,0.0,0.0,0.0001,2
1658644088157698652,13328,1658644088100142604,gps,2,0,37.2394019,126.7732669,29.52,0.000196,0.0,0.0,0.0,0.000196,0.0,0.0,0.0,0.0001,2
1658644088250480392,13329,1658644088200142593,gps,2,0,37.2394046,126.7732687,29.513,0.000196,0.0,0.0,0.0,0.000196,0.0,0.0,0.0,0.0001,2
1658644088359741072,13330,1658644088300142583,gps,2,0,37.2394071,126.7732705,29.513,0.000196,0.0,0.0,0.0,0.000196,0.0,0.0,0.0,0.0001,2
1658644088452239158,13331,1658644088400142572,gps,2,0,37.2394098,126.7732724,29.512,0.000196,0.0,0.0,0.0,0.000196,0.0,0.0,0.0,0.0001,2
1658644088552412312,13332,1658644088500142562,gps,2,0,37.2394123,126.7732743,29.517,0.000196,0.0,0.0,0.0,0.000196,0.0,0.0,0.0,0.0001,2
1658644088652562771,13333,1658644088600142551,gps,2,0,37.239415,126.7732762,29.521,0.000196,0.0,0.0,0.0,0.000196,0.0,0.0,0.0,0.0001,2
1658644088751081232,13334,1658644088700142541,gps,2,0,37.2394176,126.7732781,29.52,0.000196,0.0,0.0,0.0,0.000196,0.0,0.0,0.0,0.0001,2
1658644088849665487,13335,1658644088800142530,gps,2,0,37.2394202,126.7732801,29.523,0.000196,0.0,0.0,0.0,0.000196,0.0,0.0,0.0,0.0001,2
1658644088948520795,13336,1658644088900142520,gps,2,0,37.2394228,126.773282,29.522,0.000196,0.0,0.0,0.0,0.000196,0.0,0.0,0.0,0.0001,2
1658644089055602150,13337,1658644089000142509,gps,2,0,37.2394254,126.7732839,29.521,0.000196,0.0,0.0,0.0,0.000196,0.0,0.0,0.0,0.0001,2
1658644089150525090,13338,1658644089100142499,gps,2,0,37.239428,126.7732859,29.523,0.000196,0.0,0.0,0.0,0.000196,0.0,0.0,0.0,0.0001,2
1658644089252308881,13339,1658644089200142488,gps,2,0,37.2394306,126.7732879,29.528,0.000196,0.0,0.0,0.0,0.000196,0.0,0.0,0.0,0.0001,2
1658644089360446981,13340,1658644089300142478,gps,2,0,37.2394331,126.7732898,29.527,0.000196,0.0,0.0,0.0,0.000196,0.0,0.0,0.0,0.0001,2
1658644089456382746,13341,1658644089400142467,gps,2,0,37.2394357,126.7732918,29.523,0.000196,0.0,0.0,0.0,0.000196,0.0,0.0,0.0,0.0001,2
1658644089551733610,13342,1658644089500142457,gps,2,0,37.2394383,126.7732937,29.526,0.000196,0.0,0.0,0.0,0.000196,0.0,0.0,0.0,0.0001,2
1658644089653474145,13343,1658644089600142446,gps,2,0,37.2394409,126.7732956,29.528,0.000196,0.0,0.0,0.0,0.000196,0.0,0.0,0.0,0.0001,2
1658644089755312681,13344,1658644089700142436,gps,2,0,37.2394434,126.7732976,29.525,0.000196,0.0,0.0,0.0,0.000196,0.0,0.0,0.0,0.0001,2
1658644089850674181,13345,1658644089800142426,gps,2,0,37.2394461,126.7732996,29.527,0.000196,0.0,0.0,0.0,0.000196,0.0,0.0,0.0,0.0001,2
1658644089948255838,13346,1658644089900142415,gps,2,0,37.2394486,126.7733015,29.527,0.000196,0.0,0.0,0.0,0.000196,0.0,0.0,0.0,0.0001,2
1658644090052235415,13347,1658644090000142405,gps,2,0,37.2394512,126.7733034,29.529,0.000196,0.0,0.0,0.0,0.000196,0.0,0.0,0.0,0.0001,2
1658644090150555796,13348,1658644090100142394,gps,2,0,37.2394539,126.7733054,29.524,0.000196,0.0,0.0,0.0,0.000196,0.0,0.0,0.0,0.0001,2
1658644090255229493,13349,1658644090200142384,gps,2,0,37.2394564,126.7733072,29.524,0.000196,0.0,0.0,0.0,0.000196,0.0,0.0,0.0,0.0001,2
1658644090351131607,13350,1658644090300142374,gps,2,0,37.2394591,126.7733091,29.526,0.000196,0.0,0.0,0.0,0.000196,0.0,0.0,0.0,0.0001,2
1658644090450389618,13351,1658644090400142363,gps,2,0,37.2394616,126.773311,29.529,0.000196,0.0,0.0,0.0,0.000196,0.0,0.0,0.0,0.0001,2
1658644090549282499,13352,1658644090500142353,gps,2,0,37.2394643,126.7733128,29.532,0.000196,0.0,0.0,0.0,0.000196,0.0,0.0,0.0,0.0001,2
1658644090649608605,13353,1658644090600142342,gps,2,0,37.2394669,126.7733146,29.534,0.000196,0.0,0.0,0.0,0.000196,0.0,0.0,0.0,0.0001,2
1658644090748481030,13354,1658644090700142332,gps,2,0,37.2394696,126.7733164,29.528,0.000196,0.0,0.0,0.0,0.000196,0.0,0.0,0.0,0.0001,2
1658644090848482747,13355,1658644090800142322,gps,2,0,37.2394722,126.7733182,29.525,0.000196,0.0,0.0,0.0,0.000196,0.0,0.0,0.0,0.0001,2
1658644090946041203,13356,1658644090900142311,gps,2,0,37.239475,126.7733199,29.524,0.000196,0.0,0.0,0.0,0.000196,0.0,0.0,0.0,0.0001,2
1658644091053057834,13357,1658644091000142301,gps,2,0,37.2394776,126.7733216,29.526,0.000196,0.0,0.0,0.0,0.000196,0.0,0.0,0.0,0.0001,2
1658644091160279102,13358,1658644091100142291,gps,2,0,37.2394804,126.7733233,29.527,0.000196,0.0,0.0,0.0,0.000196,0.0,0.0,0.0,0.0001,2
1658644091263466819,13359,1658644091200142280,gps,2,0,37.239483,126.7733248,29.534,0.000196,0.0,0.0,0.0,0.000196,0.0,0.0,0.0,0.0001,2
1658644091354158056,13360,1658644091300142270,gps,2,0,37.2394858,126.7733264,29.538,0.000196,0.0,0.0,0.0,0.000196,0.0,0.0,0.0,0.0001,2
1658644091452357399,13361,1658644091400142260,gps,2,0,37.2394885,126.773328,29.541,0.000196,0.0,0.0,0.0,0.000196,0.0,0.0,0.0,0.0001,2
1658644091551087005,13362,1658644091500142249,gps,2,0,37.2394912,126.7733296,29.535,0.000196,0.0,0.0,0.0,0.000196,0.0,0.0,0.0,0.0001,2
1658644091651313107,13363,1658644091600142239,gps,2,0,37.239494,126.7733311,29.54,0.000196,0.0,0.0,0.0,0.000196,0.0,0.0,0.0,0.0001,2
1658644091749909900,13364,1658644091700142229,gps,2,0,37.2394968,126.7733326,29.538,0.000196,0.0,0.0,0.0,0.000196,0.0,0.0,0.0,0.0001,2
1658644091849423222,13365,1658644091800142218,gps,2,0,37.2394995,126.7733341,29.536,0.000196,0.0,0.0,0.0,0.000196,0.0,0.0,0.0,0.0001,2
1658644091946755646,13366,1658644091900142208,gps,2,0,37.2395023,126.7733357,29.541,0.000196,0.0,0.0,0.0,0.000196,0.0,0.0,0.0,0.0001,2
1658644092055376681,13367,1658644092000142198,gps,2,0,37.239505,126.7733372,29.537,0.000196,0.0,0.0,0.0,0.000196,0.0,0.0,0.0,0.0001,2
1658644092158682127,13368,1658644092100142187,gps,2,0,37.2395078,126.7733387,29.536,0.000196,0.0,0.0,0.0,0.000196,0.0,0.0,0.0,0.0001,2
1658644092260548980,13369,1658644092200142177,gps,2,0,37.2395106,126.7733403,29.536,0.000196,0.0,0.0,0.0,0.000196,0.0,0.0,0.0,0.0001,2
1658644092352114052,13370,1658644092300142167,gps,2,0,37.2395133,126.7733418,29.533,0.000196,0.0,0.0,0.0,0.000196,0.0,0.0,0.0,0.0001,2
1658644092452146829,13371,1658644092400142156,gps,2,0,37.2395161,126.7733434,29.536,0.000196,0.0,0.0,0.0,0.000196,0.0,0.0,0.0,0.0001,2
1658644092548329622,13372,1658644092500142146,gps,2,0,37.2395189,126.7733449,29.533,0.000196,0.0,0.0,0.0,0.000196,0.0,0.0,0.0,0.0001,2
1658644092651393772,13373,1658644092600142136,gps,2,0,37.2395216,126.7733466,29.534,0.000196,0.0,0.0,0.0,0.000196,0.0,0.0,0.0,0.0001,2
1658644092748357949,13374,1658644092700142125,gps,2,0,37.2395243,126.7733482,29.539,0.000196,0.0,0.0,0.0,0.000196,0.0,0.0,0.0,0.0001,2
1658644092849067615,13375,1658644092800142115,gps,2,0,37.239527,126.7733498,29.534,0.000196,0.0,0.0,0.0,0.000196,0.0,0.0,0.0,0.0001,2
1658644092946922136,13376,1658644092900142105,gps,2,0,37.2395297,126.7733515,29.527,0.000196,0.0,0.0,0.0,0.000196,0.0,0.0,0.0,0.0001,2
1658644093053624899,13377,1658644093000142095,gps,2,0,37.2395324,126.7733532,29.529,0.000196,0.0,0.0,0.0,0.000196,0.0,0.0,0.0,0.0001,2
1658644093149872468,13378,1658644093100142084,gps,2,0,37.2395351,126.7733549,29.524,0.000196,0.0,0.0,0.0,0.000196,0.0,0.0,0.0,0.0001,2
1658644093247305314,13379,1658644093200142074,gps,2,0,37.2395378,126.7733567,29.523,0.000196,0.0,0.0,0.0,0.000196,0.0,0.0,0.0,0.0001,2
1658644093350482382,13380,1658644093300142064,gps,2,0,37.2395405,126.7733584,29.527,0.000196,0.0,0.0,0.0,0.000196,0.0,0.0,0.0,0.0001,2
1658644093454207299,13381,1658644093400142054,gps,2,0,37.2395431,126.7733602,29.525,0.000196,0.0,0.0,0.0,0.000196,0.0,0.0,0.0,0.0001,2
1658644093547442497,13382,1658644093500142043,gps,2,0,37.2395457,126.7733619,29.525,0.000196,0.0,0.0,0.0,0.000196,0.0,0.0,0.0,0.0001,2
1658644093645292623,13383,1658644093600142033,gps,2,0,37.2395485,126.7733637,29.516,0.000196,0.0,0.0,0.0,0.000196,0.0,0.0,0.0,0.0001,2
1658644093745765501,13384,1658644093700142023,gps,2,0,37.239551,126.7733655,29.517,0.000196,0.0,0.0,0.0,0.000196,0.0,0.0,0.0,0.0001,2
1658644093848288926,13385,1658644093800142013,gps,2,0,37.2395537,126.7733673,29.515,0.000196,0.0,0.0,0.0,0.000196,0.0,0.0,0.0,0.0001,2
1658644093947177578,13386,1658644093900142002,gps,2,0,37.2395563,126.7733692,29.514,0.000196,0.0,0.0,0.0,0.000196,0.0,0.0,0.0,0.0001,2
1658644094052996404,13387,1658644094000141992,gps,2,0,37.2395589,126.773371,29.516,0.000196,0.0,0.0,0.0,0.000196,0.0,0.0,0.0,0.0001,2
1658644094156099406,13388,1658644094100141982,gps,2,0,37.2395615,126.7733729,29.517,0.000196,0.0,0.0,0.0,0.000196,0.0,0.0,0.0,0.0001,2
1658644094255553985,13389,1658644094200141972,gps,2,0,37.239564,126.7733748,29.515,0.000196,0.0,0.0,0.0,0.000196,0.0,0.0,0.0,0.0001,2
1658644094355363501,13390,1658644094300141962,gps,2,0,37.2395666,126.7733767,29.517,0.000196,0.0,0.0,0.0,0.000196,0.0,0.0,0.0,0.0001,2
1658644094456998979,13391,1658644094400141951,gps,2,0,37.2395692,126.7733786,29.521,0.000196,0.0,0.0,0.0,0.000196,0.0,0.0,0.0,0.0001,2
1658644094546749447,13392,1658644094500141941,gps,2,0,37.2395717,126.7733805,29.517,0.000196,0.0,0.0,0.0,0.000196,0.0,0.0,0.0,0.0001,2
1658644094646672694,13393,1658644094600141931,gps,2,0,37.2395742,126.7733825,29.526,0.000196,0.0,0.0,0.0,0.000196,0.0,0.0,0.0,0.0001,2
1658644094750009398,13394,1658644094700141921,gps,2,0,37.2395767,126.7733844,29.524,0.000196,0.0,0.0,0.0,0.000196,0.0,0.0,0.0,0.0001,2
1658644094849210285,13395,1658644094800141911,gps,2,0,37.2395792,126.7733864,29.53,0.000196,0.0,0.0,0.0,0.000196,0.0,0.0,0.0,0.0001,2
1658644094947421171,13396,1658644094900141900,gps,2,0,37.2395818,126.7733884,29.524,0.000196,0.0,0.0,0.0,0.000196,0.0,0.0,0.0,0.0001,2
1658644095055265310,13397,1658644095000141890,gps,2,0,37.2395843,126.7733905,29.524,0.000196,0.0,0.0,0.0,0.000196,0.0,0.0,0.0,0.0001,2
1658644095158367788,13398,1658644095100141880,gps,2,0,37.2395868,126.7733925,29.527,0.000196,0.0,0.0,0.0,0.000196,0.0,0.0,0.0,0.0001,2
1658644095251312041,13399,1658644095200141870,gps,2,0,37.2395893,126.7733944,29.53,0.000196,0.0,0.0,0.0,0.000196,0.0,0.0,0.0,0.0001,2
1658644095356006774,13400,1658644095300141860,gps,2,0,37.2395918,126.7733964,29.529,0.000196,0.0,0.0,0.0,0.000196,0.0,0.0,0.0,0.0001,2
1658644095446842897,13401,1658644095400141850,gps,2,0,37.2395943,126.7733983,29.531,0.000196,0.0,0.0,0.0,0.000196,0.0,0.0,0.0,0.0001,2
1658644095545885821,13402,1658644095500141840,gps,2,0,37.2395968,126.7734003,29.536,0.000196,0.0,0.0,0.0,0.000196,0.0,0.0,0.0,0.0001,2
1658644095648265607,13403,1658644095600141829,gps,2,0,37.2395993,126.7734022,29.536,0.000196,0.0,0.0,0.0,0.000196,0.0,0.0,0.0,0.0001,2
1658644095748194250,13404,1658644095700141819,gps,2,0,37.2396018,126.7734041,29.534,0.000196,0.0,0.0,0.0,0.000196,0.0,0.0,0.0,0.0001,2
1658644095846218664,13405,1658644095800141809,gps,2,0,37.2396044,126.7734059,29.531,0.000196,0.0,0.0,0.0,0.000196,0.0,0.0,0.0,0.0001,2
1658644095947225835,13406,1658644095900141799,gps,2,0,37.2396069,126.7734078,29.527,0.000196,0.0,0.0,0.0,0.000196,0.0,0.0,0.0,0.0001,2
1658644096056123409,13407,1658644096000141789,gps,2,0,37.2396094,126.7734096,29.527,0.000196,0.0,0.0,0.0,0.000196,0.0,0.0,0.0,0.0001,2
1658644096153538278,13408,1658644096100141779,gps,2,0,37.239612,126.7734114,29.53,0.000196,0.0,0.0,0.0,0.000196,0.0,0.0,0.0,0.0001,2
1658644096254874979,13409,1658644096200141769,gps,2,0,37.2396147,126.7734131,29.531,0.000196,0.0,0.0,0.0,0.000196,0.0,0.0,0.0,0.0001,2
1658644096360450948,13410,1658644096300141759,gps,2,0,37.2396173,126.7734148,29.53,0.000196,0.0,0.0,0.0,0.000196,0.0,0.0,0.0,0.0001,2
1658644096453303259,13411,1658644096400141749,gps,2,0,37.23962,126.7734164,29.53,0.000196,0.0,0.0,0.0,0.000196,0.0,0.0,0.0,0.0001,2
1658644096551186513,13412,1658644096500141738,gps,2,0,37.2396226,126.773418,29.527,0.000196,0.0,0.0,0.0,0.000196,0.0,0.0,0.0,0.0001,2
1658644096651853205,13413,1658644096600141728,gps,2,0,37.2396252,126.7734195,29.531,0.000196,0.0,0.0,0.0,0.000196,0.0,0.0,0.0,0.0001,2
1658644096750246931,13414,1658644096700141718,gps,2,0,37.2396279,126.773421,29.539,0.000196,0.0,0.0,0.0,0.000196,0.0,0.0,0.0,0.0001,2
1658644096851372783,13415,1658644096800141708,gps,2,0,37.2396307,126.7734225,29.546,0.000196,0.0,0.0,0.0,0.000196,0.0,0.0,0.0,0.0001,2
1658644096954538949,13416,1658644096900141698,gps,2,0,37.2396334,126.7734239,29.543,0.000196,0.0,0.0,0.0,0.000196,0.0,0.0,0.0,0.0001,2
1658644097055223298,13417,1658644097000141688,gps,2,0,37.2396361,126.7734253,29.549,0.000196,0.0,0.0,0.0,0.000196,0.0,0.0,0.0,0.0001,2
1658644097151912654,13418,1658644097100141678,gps,2,0,37.2396389,126.7734266,29.548,0.000196,0.0,0.0,0.0,0.000196,0.0,0.0,0.0,0.0001,2
1658644097246816671,13419,1658644097200141668,gps,2,0,37.2396416,126.7734279,29.545,0.000196,0.0,0.0,0.0,0.000196,0.0,0.0,0.0,0.0001,2
1658644097354167059,13420,1658644097300141658,gps,2,0,37.2396444,126.7734293,29.546,0.000196,0.0,0.0,0.0,0.000196,0.0,0.0,0.0,0.0001,2
1658644097451339465,13421,1658644097400141647,gps,2,0,37.2396472,126.7734307,29.553,0.000196,0.0,0.0,0.0,0.000196,0.0,0.0,0.0,0.0001,2
1658644097550184427,13422,1658644097500141637,gps,2,0,37.23965,126.7734321,29.556,0.000196,0.0,0.0,0.0,0.000196,0.0,0.0,0.0,0.0001,2
1658644097647059979,13423,1658644097600141627,gps,2,0,37.2396527,126.7734335,29.555,0.000196,0.0,0.0,0.0,0.000196,0.0,0.0,0.0,0.0001,2
1658644097749016505,13424,1658644097700141617,gps,2,0,37.2396555,126.7734349,29.553,0.000196,0.0,0.0,0.0,0.000196,0.0,0.0,0.0,0.0001,2
1658644097848142042,13425,1658644097800141607,gps,2,0,37.2396582,126.7734363,29.553,0.000196,0.0,0.0,0.0,0.000196,0.0,0.0,0.0,0.0001,2
1658644097946904307,13426,1658644097900141597,gps,2,0,37.2396609,126.7734378,29.55,0.000196,0.0,0.0,0.0,0.000196,0.0,0.0,0.0,0.0001,2
1658644098056377499,13427,1658644098000141587,gps,2,0,37.2396636,126.7734393,29.552,0.000196,0.0,0.0,0.0,0.000196,0.0,0.0,0.0,0.0001,2
1658644098151075520,13428,1658644098100141577,gps,2,0,37.2396663,126.7734408,29.546,0.000196,0.0,0.0,0.0,0.000196,0.0,0.0,0.0,0.0001,2
1658644098260916408,13429,1658644098200141567,gps,2,0,37.239669,126.7734424,29.55,0.000196,0.0,0.0,0.0,0.000196,0.0,0.0,0.0,0.0001,2
1658644098351798776,13430,1658644098300141557,gps,2,0,37.2396717,126.773444,29.553,0.000196,0.0,0.0,0.0,0.000196,0.0,0.0,0.0,0.0001,2
1658644098455114356,13431,1658644098400141547,gps,2,0,37.2396744,126.7734455,29.554,0.000196,0.0,0.0,0.0,0.000196,0.0,0.0,0.0,0.0001,2
1658644098547037324,13432,1658644098500141537,gps,2,0,37.239677,126.7734471,29.553,0.000196,0.0,0.0,0.0,0.000196,0.0,0.0,0.0,0.0001,2
1658644098648183386,13433,1658644098600141527,gps,2,0,37.2396797,126.7734488,29.558,0.000196,0.0,0.0,0.0,0.000196,0.0,0.0,0.0,0.0001,2
1658644098748235875,13434,1658644098700141517,gps,2,0,37.2396823,126.7734504,29.557,0.000196,0.0,0.0,0.0,0.000196,0.0,0.0,0.0,0.0001,2
1658644098846956898,13435,1658644098800141507,gps,2,0,37.2396849,126.773452,29.556,0.000196,0.0,0.0,0.0,0.000196,0.0,0.0,0.0,0.0001,2
1658644098946871103,13436,1658644098900141497,gps,2,0,37.2396875,126.7734537,29.558,0.000196,0.0,0.0,0.0,0.000196,0.0,0.0,0.0,0.0001,2
1658644099053487803,13437,1658644099000141487,gps,2,0,37.2396901,126.7734554,29.565,0.000196,0.0,0.0,0.0,0.000196,0.0,0.0,0.0,0.0001,2
1658644099150660224,13438,1658644099100141477,gps,2,0,37.2396927,126.7734571,29.568,0.000196,0.0,0.0,0.0,0.000196,0.0,0.0,0.0,0.0001,2
1658644099264029004,13439,1658644099200141466,gps,2,0,37.2396953,126.7734588,29.564,0.000196,0.0,0.0,0.0,0.000196,0.0,0.0,0.0,0.0001,2
1658644099353034831,13440,1658644099300141456,gps,2,0,37.2396979,126.7734606,29.57,0.000196,0.0,0.0,0.0,0.000196,0.0,0.0,0.0,0.0001,2
1658644099455430763,13441,1658644099400141446,gps,2,0,37.2397004,126.7734624,29.566,0.000196,0.0,0.0,0.0,0.000196,0.0,0.0,0.0,0.0001,2
1658644099547226720,13442,1658644099500141436,gps,2,0,37.239703,126.7734641,29.567,0.000196,0.0,0.0,0.0,0.000196,0.0,0.0,0.0,0.0001,2
1658644099648150748,13443,1658644099600141426,gps,2,0,37.2397055,126.7734659,29.569,0.000196,0.0,0.0,0.0,0.000196,0.0,0.0,0.0,0.0001,2
1658644099746637298,13444,1658644099700141416,gps,2,0,37.239708,126.7734677,29.571,0.000196,0.0,0.0,0.0,0.000196,0.0,0.0,0.0,0.0001,2
1658644099848016456,13445,1658644099800141406,gps,2,0,37.2397105,126.7734696,29.571,0.000196,0.0,0.0,0.0,0.000196,0.0,0.0,0.0,0.0001,2
1658644099945205713,13446,1658644099900141396,gps,2,0,37.239713,126.7734714,29.571,0.000196,0.0,0.0,0.0,0.000196,0.0,0.0,0.0,0.0001,2
1658644100053128487,13447,1658644100000141386,gps,2,0,37.2397155,126.7734732,29.569,0.000196,0.0,0.0,0.0,0.000196,0.0,0.0,0.0,0.0001,2
1658644100162084920,13448,1658644100100141376,gps,2,0,37.239718,126.773475,29.572,0.000196,0.0,0.0,0.0,0.000196,0.0,0.0,0.0,0.0001,2
