%time,field.header.seq,field.header.stamp,field.header.frame_id,field.status.status,field.status.service,field.latitude,field.longitude,field.altitude,field.position_covariance0,field.position_covariance1,field.position_covariance2,field.position_covariance3,field.position_covariance4,field.position_covariance5,field.position_covariance6,field.position_covariance7,field.position_covariance8,field.position_covariance_type
1658627654878202940,16817,1658627654699703042,gps,2,0,37.2405683,126.7740339,28.769,0.000196,0.0,0.0,0.0,0.000196,0.0,0.0,0.0,0.000361,2
1658627654878429369,16818,1658627654799703028,gps,2,0,37.2405683,126.7740339,28.783,0.000196,0.0,0.0,0.0,0.000196,0.0,0.0,0.0,0.000361,2
1658627654931643646,16819,1658627654899703014,gps,2,0,37.2405683,126.7740339,28.782,0.000196,0.0,0.0,0.0,0.000196,0.0,0.0,0.0,0.000324,2
1658627655069478416,16820,1658627654999703001,gps,2,0,37.2405683,126.7740339,28.776,0.000196,0.0,0.0,0.0,0.000196,0.0,0.0,0.0,0.000324,2
1658627655235714706,16821,1658627655199702972,gps,2,0,37.2405683,126.7740339,28.808,0.000196,0.0,0.0,0.0,0.000196,0.0,0.0,0.0,0.000441,2
1658627655345983613,16822,1658627655299702958,gps,2,0,37.2405682,126.7740339,28.786,0.000196,0.0,0.0,0.0,0.000196,0.0,0.0,0.0,0.0004,2
1658627655537263751,16823,1658627655499702930,gps,2,0,37.2405683,126.7740339,28.802,0.000196,0.0,0.0,0.0,0.000196,0.0,0.0,0.0,0.000484,2
1658627655632044593,16824,1658627655599702916,gps,2,0,37.2405683,126.7740339,28.801,0.000196,0.0,0.0,0.0,0.000196,0.0,0.0,0.0,0.0004,2
1658627655732274534,16825,1658627655699702902,gps,2,0,37.2405683,126.7740339,28.794,0.000196,0.0,0.0,0.0,0.000196,0.0,0.0,0.0,0.000361,2
1658627655835047072,16826,1658627655799702888,gps,2,0,37.2405683,126.774034,28.784,0.000196,0.0,0.0,0.0,0.000196,0.0,0.0,0.0,0.000324,2
1658627655933853427,16827,1658627655899702874,gps,2,0,37.2405683,126.7740339,28.775,0.000196,0.0,0.0,0.0,0.000196,0.0,0.0,0.0,0.000324,2
1658627656076099713,16828,1658627655999702861,gps,2,0,37.2405683,126.774034,28.775,0.000196,0.0,0.0,0.0,0.000196,0.0,0.0,0.0,0.000324,2
1658627656238251054,16829,1658627656199702832,gps,2,0,37.2405683,126.7740338,28.785,0.000196,0.0,0.0,0.0,0.000196,0.0,0.0,0.0,0.000441,2
1658627656348335423,16830,1658627656299702817,gps,2,0,37.2405683,126.7740339,28.794,0.000196,0.0,0.0,0.0,0.000196,0.0,0.0,0.0,0.0004,2
1658627656532004282,16831,1658627656499702789,gps,2,0,37.2405684,126.7740339,28.796,0.000196,0.0,0.0,0.0,0.000196,0.0,0.0,0.0,0.000484,2
1658627656635883231,16832,1658627656599702775,gps,2,0,37.2405683,126.774034,28.786,0.000196,0.0,0.0,0.0,0.000196,0.0,0.0,0.0,0.0004,2
1658627656735570422,16833,1658627656699702761,gps,2,0,37.2405684,126.774034,28.785,0.000196,0.0,0.0,0.0,0.000196,0.0,0.0,0.0,0.000361,2
1658627656840559210,16834,1658627656799702747,gps,2,0,37.2405684,126.7740341,28.782,0.000196,0.0,0.0,0.0,0.000196,0.0,0.0,0.0,0.000324,2
1658627656936869066,16835,1658627656899702733,gps,2,0,37.2405685,126.7740342,28.79,0.000196,0.0,0.0,0.0,0.000196,0.0,0.0,0.0,0.000324,2
1658627657071198988,16836,1658627656999702720,gps,2,0,37.2405686,126.7740342,28.788,0.000196,0.0,0.0,0.0,0.000196,0.0,0.0,0.0,0.000324,2
1658627657263106037,16837,1658627657199702691,gps,2,0,37.2405687,126.7740344,28.794,0.000196,0.0,0.0,0.0,0.000196,0.0,0.0,0.0,0.000441,2
1658627657435463433,16838,1658627657399702663,gps,2,0,37.2405689,126.7740347,28.805,0.000196,0.0,0.0,0.0,0.000196,0.0,0.0,0.0,0.000484,2
1658627657538309845,16839,1658627657499702649,gps,2,0,37.2405691,126.7740349,28.804,0.000196,0.0,0.0,0.0,0.000196,0.0,0.0,0.0,0.000361,2
1658627657640664282,16840,1658627657599702635,gps,2,0,37.2405692,126.7740351,28.81,0.000196,0.0,0.0,0.0,0.000196,0.0,0.0,0.0,0.000324,2
1658627657838281456,16841,1658627657799702607,gps,2,0,37.2405696,126.7740355,28.795,0.000196,0.0,0.0,0.0,0.000196,0.0,0.0,0.0,0.000441,2
1658627657937347680,16842,1658627657899702593,gps,2,0,37.2405698,126.7740358,28.798,0.000196,0.0,0.0,0.0,0.000196,0.0,0.0,0.0,0.000361,2
1658627658084319786,16843,1658627657999702579,gps,2,0,37.2405701,126.7740361,28.797,0.000196,0.0,0.0,0.0,0.000196,0.0,0.0,0.0,0.000324,2
1658627658248784138,16844,1658627658199702550,gps,2,0,37.2405706,126.7740367,28.794,0.000196,0.0,0.0,0.0,0.000196,0.0,0.0,0.0,0.000441,2
1658627658437244137,16845,1658627658399702522,gps,2,0,37.2405711,126.7740373,28.801,0.000196,0.0,0.0,0.0,0.000196,0.0,0.0,0.0,0.000441,2
1658627658537446636,16846,1658627658499702508,gps,2,0,37.2405715,126.7740377,28.809,0.000196,0.0,0.0,0.0,0.000196,0.0,0.0,0.0,0.000361,2
1658627658643035353,16847,1658627658599702494,gps,2,0,37.2405718,126.7740381,28.809,0.000196,0.0,0.0,0.0,0.000196,0.0,0.0,0.0,0.000324,2
1658627658835152870,16848,1658627658799702466,gps,2,0,37.2405725,126.7740388,28.809,0.000196,0.0,0.0,0.0,0.000196,0.0,0.0,0.0,0.000441,2
1658627658938131056,16849,1658627658899702452,gps,2,0,37.2405729,126.7740393,28.79,0.000196,0.0,0.0,0.0,0.000196,0.0,0.0,0.0,0.000361,2
1658627659077590797,16850,1658627658999702439,gps,2,0,37.2405734,126.7740397,28.786,0.000196,0.0,0.0,0.0,0.000196,0.0,0.0,0.0,0.000324,2
1658627659241174815,16851,1658627659199702411,gps,2,0,37.2405743,126.7740406,28.793,0.000196,0.0,0.0,0.0,0.000196,0.0,0.0,0.0,0.000441,2
1658627659337006628,16852,1658627659299702397,gps,2,0,37.2405746,126.774041,28.803,0.000196,0.0,0.0,0.0,0.000196,0.0,0.0,0.0,0.000361,2
1658627659438173496,16853,1658627659399702383,gps,2,0,37.2405751,126.7740414,28.79,0.000196,0.0,0.0,0.0,0.000196,0.0,0.0,0.0,0.000324,2
1658627659538358897,16854,1658627659499702369,gps,2,0,37.2405757,126.7740419,28.796,0.000196,0.0,0.0,0.0,0.000196,0.0,0.0,0.0,0.000324,2
1658627659638429142,16855,1658627659599702355,gps,2,0,37.2405762,126.7740424,28.805,0.000196,0.0,0.0,0.0,0.000196,0.0,0.0,0.0,0.000324,2
1658627659736033195,16856,1658627659699702341,gps,2,0,37.2405767,126.7740429,28.804,0.000196,0.0,0.0,0.0,0.000196,0.0,0.0,0.0,0.000324,2
1658627659840419285,16857,1658627659799702327,gps,2,0,37.2405773,126.7740435,28.802,0.000196,0.0,0.0,0.0,0.000196,0.0,0.0,0.0,0.000324,2
1658627659935983485,16858,1658627659899702313,gps,2,0,37.2405779,126.7740441,28.811,0.000196,0.0,0.0,0.0,0.000196,0.0,0.0,0.0,0.000324,2
1658627660079084280,16859,1658627659999702300,gps,2,0,37.2405785,126.7740447,28.814,0.000196,0.0,0.0,0.0,0.000196,0.0,0.0,0.0,0.000324,2
1658627660241014455,16860,1658627660199702271,gps,2,0,37.2405798,126.7740457,28.828,0.000196,0.0,0.0,0.0,0.000196,0.0,0.0,0.0,0.000441,2
1658627660444233581,16861,1658627660399702243,gps,2,0,37.2405812,126.774047,28.814,0.000196,0.0,0.0,0.0,0.000196,0.0,0.0,0.0,0.000484,2
1658627660634993278,16862,1658627660599702215,gps,2,0,37.2405827,126.7740483,28.795,0.000196,0.0,0.0,0.0,0.000196,0.0,0.0,0.0,0.000529,2
1658627660734591667,16863,1658627660699702201,gps,2,0,37.2405834,126.774049,28.79,0.000196,0.0,0.0,0.0,0.000196,0.0,0.0,0.0,0.0004,2
1658627660838500778,16864,1658627660799702187,gps,2,0,37.2405841,126.7740496,28.781,0.000196,0.0,0.0,0.0,0.000196,0.0,0.0,0.0,0.000361,2
1658627660932396431,16865,1658627660899702172,gps,2,0,37.2405851,126.7740502,28.793,0.000196,0.0,0.0,0.0,0.000196,0.0,0.0,0.0,0.000361,2
1658627661066310653,16866,1658627660999702159,gps,2,0,37.2405859,126.7740508,28.785,0.000196,0.0,0.0,0.0,0.000196,0.0,0.0,0.0,0.000361,2
1658627661231695483,16867,1658627661199702130,gps,2,0,37.2405875,126.7740522,28.808,0.000196,0.0,0.0,0.0,0.000196,0.0,0.0,0.0,0.000441,2
1658627661334448985,16868,1658627661299702116,gps,2,0,37.2405884,126.7740529,28.805,0.000196,0.0,0.0,0.0,0.000196,0.0,0.0,0.0,0.0004,2
1658627661439059785,16869,1658627661399702102,gps,2,0,37.2405893,126.7740535,28.783,0.000196,0.0,0.0,0.0,0.000196,0.0,0.0,0.0,0.000361,2
1658627661532226796,16870,1658627661499702088,gps,2,0,37.2405903,126.7740542,28.789,0.000196,0.0,0.0,0.0,0.000196,0.0,0.0,0.0,0.000324,2
1658627661631988578,16871,1658627661599702074,gps,2,0,37.2405911,126.7740548,28.782,0.000196,0.0,0.0,0.0,0.000196,0.0,0.0,0.0,0.000324,2
1658627661732322166,16872,1658627661699702060,gps,2,0,37.240592,126.7740555,28.779,0.000196,0.0,0.0,0.0,0.000196,0.0,0.0,0.0,0.000324,2
1658627661832372501,16873,1658627661799702046,gps,2,0,37.240593,126.7740562,28.775,0.000196,0.0,0.0,0.0,0.000196,0.0,0.0,0.0,0.000324,2
1658627661929275895,16874,1658627661899702032,gps,2,0,37.2405939,126.774057,28.781,0.000196,0.0,0.0,0.0,0.000196,0.0,0.0,0.0,0.000324,2
1658627662073887458,16875,1658627661999702019,gps,2,0,37.240595,126.7740577,28.771,0.000196,0.0,0.0,0.0,0.000196,0.0,0.0,0.0,0.000324,2
1658627662237486459,16876,1658627662199701989,gps,2,0,37.240597,126.774059,28.772,0.000196,0.0,0.0,0.0,0.000196,0.0,0.0,0.0,0.000441,2
1658627662341819600,16877,1658627662299701975,gps,2,0,37.2405981,126.7740596,28.771,0.000196,0.0,0.0,0.0,0.000196,0.0,0.0,0.0,0.000361,2
1658627662532743575,16878,1658627662499701947,gps,2,0,37.2406003,126.7740608,28.805,0.000196,0.0,0.0,0.0,0.000196,0.0,0.0,0.0,0.000441,2
1658627662632793871,16879,1658627662599701933,gps,2,0,37.2406013,126.7740615,28.793,0.000196,0.0,0.0,0.0,0.000196,0.0,0.0,0.0,0.000361,2
1658627662733085402,16880,1658627662699701919,gps,2,0,37.2406025,126.7740622,28.784,0.000196,0.0,0.0,0.0,0.000196,0.0,0.0,0.0,0.000361,2
1658627662829101515,16881,1658627662799701905,gps,2,0,37.2406036,126.774063,28.789,0.000196,0.0,0.0,0.0,0.000196,0.0,0.0,0.0,0.000324,2
1658627662928695120,16882,1658627662899701891,gps,2,0,37.2406048,126.7740637,28.79,0.000196,0.0,0.0,0.0,0.000196,0.0,0.0,0.0,0.000324,2
1658627663070030863,16883,1658627662999701878,gps,2,0,37.240606,126.7740645,28.781,0.000196,0.0,0.0,0.0,0.000196,0.0,0.0,0.0,0.000324,2
1658627663240635707,16884,1658627663199701849,gps,2,0,37.2406083,126.774066,28.778,0.000196,0.0,0.0,0.0,0.000196,0.0,0.0,0.0,0.000441,2
1658627663344699967,16885,1658627663299701835,gps,2,0,37.2406095,126.7740668,28.783,0.000196,0.0,0.0,0.0,0.000196,0.0,0.0,0.0,0.000361,2
1658627663538976017,16886,1658627663499701807,gps,2,0,37.240612,126.7740683,28.767,0.000196,0.0,0.0,0.0,0.000196,0.0,0.0,0.0,0.000441,2
1658627663637984252,16887,1658627663599701793,gps,2,0,37.2406132,126.7740691,28.781,0.000196,0.0,0.0,0.0,0.000196,0.0,0.0,0.0,0.000361,2
1658627663734467117,16888,1658627663699701779,gps,2,0,37.2406144,126.7740698,28.793,0.000196,0.0,0.0,0.0,0.000196,0.0,0.0,0.0,0.000324,2
1658627663830841954,16889,1658627663799701765,gps,2,0,37.2406157,126.7740706,28.792,0.000196,0.0,0.0,0.0,0.000196,0.0,0.0,0.0,0.000324,2
1658627663932701324,16890,1658627663899701751,gps,2,0,37.2406169,126.7740714,28.793,0.000196,0.0,0.0,0.0,0.000196,0.0,0.0,0.0,0.000324,2
1658627664079592759,16891,1658627663999701738,gps,2,0,37.2406182,126.7740722,28.794,0.000196,0.0,0.0,0.0,0.000196,0.0,0.0,0.0,0.000324,2
1658627664233777702,16892,1658627664199701709,gps,2,0,37.2406209,126.7740739,28.776,0.000196,0.0,0.0,0.0,0.000196,0.0,0.0,0.0,0.0004,2
1658627664342546063,16893,1658627664299701695,gps,2,0,37.2406222,126.7740748,28.78,0.000196,0.0,0.0,0.0,0.000196,0.0,0.0,0.0,0.000361,2
1658627664533907841,16894,1658627664499701667,gps,2,0,37.2406248,126.7740764,28.783,0.000196,0.0,0.0,0.0,0.000196,0.0,0.0,0.0,0.000441,2
1658627664630020362,16895,1658627664599701653,gps,2,0,37.2406262,126.7740773,28.783,0.000196,0.0,0.0,0.0,0.000196,0.0,0.0,0.0,0.000361,2
1658627664730851980,16896,1658627664699701639,gps,2,0,37.2406275,126.7740782,28.771,0.000196,0.0,0.0,0.0,0.000196,0.0,0.0,0.0,0.000324,2
1658627664831918159,16897,1658627664799701624,gps,2,0,37.2406289,126.774079,28.782,0.000196,0.0,0.0,0.0,0.000196,0.0,0.0,0.0,0.000324,2
1658627664934986408,16898,1658627664899701610,gps,2,0,37.2406302,126.7740798,28.766,0.000196,0.0,0.0,0.0,0.000196,0.0,0.0,0.0,0.000324,2
1658627665074058790,16899,1658627664999701597,gps,2,0,37.2406316,126.7740807,28.76,0.000196,0.0,0.0,0.0,0.000196,0.0,0.0,0.0,0.000324,2
1658627665245368462,16900,1658627665199701568,gps,2,0,37.2406343,126.7740826,28.769,0.000196,0.0,0.0,0.0,0.000196,0.0,0.0,0.0,0.000441,2
1658627665432730449,16901,1658627665399701540,gps,2,0,37.2406372,126.7740843,28.776,0.000196,0.0,0.0,0.0,0.000196,0.0,0.0,0.0,0.000484,2
1658627665529203799,16902,1658627665499701526,gps,2,0,37.2406386,126.7740852,28.769,0.000196,0.0,0.0,0.0,0.000196,0.0,0.0,0.0,0.0004,2
1658627665633987860,16903,1658627665599701512,gps,2,0,37.24064,126.7740862,28.77,0.000196,0.0,0.0,0.0,0.000196,0.0,0.0,0.0,0.000361,2
1658627665733536534,16904,1658627665699701498,gps,2,0,37.2406415,126.7740871,28.764,0.000196,0.0,0.0,0.0,0.000196,0.0,0.0,0.0,0.000324,2
1658627665831887126,16905,1658627665799701484,gps,2,0,37.2406429,126.7740881,28.76,0.000196,0.0,0.0,0.0,0.000196,0.0,0.0,0.0,0.000324,2
1658627665936740369,16906,1658627665899701470,gps,2,0,37.2406444,126.774089,28.762,0.000196,0.0,0.0,0.0,0.000196,0.0,0.0,0.0,0.000324,2
1658627666075868787,16907,1658627665999701456,gps,2,0,37.2406458,126.7740899,28.764,0.000196,0.0,0.0,0.0,0.000196,0.0,0.0,0.0,0.000324,2
1658627666246199889,16908,1658627666199701427,gps,2,0,37.2406488,126.7740919,28.775,0.000196,0.0,0.0,0.0,0.000196,0.0,0.0,0.0,0.000441,2
1658627666430663336,16909,1658627666399701399,gps,2,0,37.2406518,126.7740938,28.78,0.000196,0.0,0.0,0.0,0.000196,0.0,0.0,0.0,0.000484,2
1658627666533500616,16910,1658627666499701385,gps,2,0,37.2406533,126.7740948,28.776,0.000196,0.0,0.0,0.0,0.000196,0.0,0.0,0.0,0.0004,2
1658627666634426841,16911,1658627666599701371,gps,2,0,37.2406548,126.7740958,28.758,0.000196,0.0,0.0,0.0,0.000196,0.0,0.0,0.0,0.000361,2
1658627666732593133,16912,1658627666699701357,gps,2,0,37.2406563,126.7740968,28.75,0.000196,0.0,0.0,0.0,0.000196,0.0,0.0,0.0,0.000324,2
1658627666837194491,16913,1658627666799701343,gps,2,0,37.2406578,126.7740978,28.756,0.000196,0.0,0.0,0.0,0.000196,0.0,0.0,0.0,0.000324,2
1658627666933653281,16914,1658627666899701329,gps,2,0,37.2406594,126.7740989,28.762,0.000196,0.0,0.0,0.0,0.000196,0.0,0.0,0.0,0.000324,2
1658627667078510108,16915,1658627666999701316,gps,2,0,37.240661,126.7740999,28.763,0.000196,0.0,0.0,0.0,0.000196,0.0,0.0,0.0,0.000324,2
1658627667238649209,16916,1658627667199701287,gps,2,0,37.2406641,126.774102,28.78,0.000196,0.0,0.0,0.0,0.000196,0.0,0.0,0.0,0.0004,2
1658627667331905953,16917,1658627667299701273,gps,2,0,37.2406656,126.7741031,28.779,0.000196,0.0,0.0,0.0,0.000196,0.0,0.0,0.0,0.000361,2
1658627667436270637,16918,1658627667399701259,gps,2,0,37.2406672,126.7741041,28.769,0.000196,0.0,0.0,0.0,0.000196,0.0,0.0,0.0,0.000324,2
1658627667543103592,16919,1658627667499701245,gps,2,0,37.2406687,126.7741051,28.769,0.000196,0.0,0.0,0.0,0.000196,0.0,0.0,0.0,0.000324,2
1658627667736415507,16920,1658627667699701216,gps,2,0,37.2406719,126.7741073,28.777,0.000196,0.0,0.0,0.0,0.000196,0.0,0.0,0.0,0.0004,2
1658627667834279710,16921,1658627667799701202,gps,2,0,37.2406735,126.7741083,28.767,0.000196,0.0,0.0,0.0,0.000196,0.0,0.0,0.0,0.000361,2
1658627667934139684,16922,1658627667899701188,gps,2,0,37.2406752,126.7741094,28.784,0.000196,0.0,0.0,0.0,0.000196,0.0,0.0,0.0,0.000324,2
1658627668075807410,16923,1658627667999701175,gps,2,0,37.2406767,126.7741105,28.787,0.000196,0.0,0.0,0.0,0.000196,0.0,0.0,0.0,0.000324,2
1658627668233708202,16924,1658627668199701146,gps,2,0,37.2406799,126.7741127,28.789,0.000196,0.0,0.0,0.0,0.000196,0.0,0.0,0.0,0.0004,2
1658627668335559768,16925,1658627668299701132,gps,2,0,37.2406815,126.7741138,28.782,0.000196,0.0,0.0,0.0,0.000196,0.0,0.0,0.0,0.000361,2
1658627668465017853,16926,1658627668399701118,gps,2,0,37.2406831,126.7741149,28.793,0.000196,0.0,0.0,0.0,0.000196,0.0,0.0,0.0,0.000324,2
1658627668638115851,16927,1658627668599701090,gps,2,0,37.2406863,126.7741172,28.777,0.000196,0.0,0.0,0.0,0.000196,0.0,0.0,0.0,0.000441,2
1658627668737458063,16928,1658627668699701076,gps,2,0,37.2406879,126.7741184,28.775,0.000196,0.0,0.0,0.0,0.000196,0.0,0.0,0.0,0.0004,2
1658627668839584307,16929,1658627668799701062,gps,2,0,37.2406896,126.7741196,28.774,0.000196,0.0,0.0,0.0,0.000196,0.0,0.0,0.0,0.000361,2
1658627668935635696,16930,1658627668899701048,gps,2,0,37.2406911,126.7741207,28.764,0.000196,0.0,0.0,0.0,0.000196,0.0,0.0,0.0,0.000324,2
1658627669081314664,16931,1658627668999701035,gps,2,0,37.2406927,126.7741219,28.769,0.000196,0.0,0.0,0.0,0.000196,0.0,0.0,0.0,0.000324,2
1658627669234256839,16932,1658627669199701006,gps,2,0,37.2406958,126.774124,28.759,0.000196,0.0,0.0,0.0,0.000196,0.0,0.0,0.0,0.000441,2
1658627669337107952,16933,1658627669299700992,gps,2,0,37.2406974,126.7741253,28.745,0.000196,0.0,0.0,0.0,0.000196,0.0,0.0,0.0,0.0004,2
1658627669441733974,16934,1658627669399700978,gps,2,0,37.2406991,126.7741264,28.754,0.000196,0.0,0.0,0.0,0.000196,0.0,0.0,0.0,0.000361,2
1658627669637158832,16935,1658627669599700950,gps,2,0,37.2407022,126.7741287,28.748,0.000196,0.0,0.0,0.0,0.000196,0.0,0.0,0.0,0.000441,2
1658627669734852850,16936,1658627669699700936,gps,2,0,37.240704,126.7741298,28.756,0.000196,0.0,0.0,0.0,0.000196,0.0,0.0,0.0,0.0004,2
1658627669835161397,16937,1658627669799700922,gps,2,0,37.2407055,126.7741308,28.759,0.000196,0.0,0.0,0.0,0.000196,0.0,0.0,0.0,0.000361,2
1658627669933406351,16938,1658627669899700908,gps,2,0,37.2407071,126.774132,28.769,0.000196,0.0,0.0,0.0,0.000196,0.0,0.0,0.0,0.000324,2
1658627670070594992,16939,1658627669999700895,gps,2,0,37.2407088,126.7741331,28.755,0.000196,0.0,0.0,0.0,0.000196,0.0,0.0,0.0,0.000324,2
1658627670245182901,16940,1658627670199700866,gps,2,0,37.240712,126.7741351,28.755,0.000196,0.0,0.0,0.0,0.000196,0.0,0.0,0.0,0.000441,2
1658627670345411325,16941,1658627670299700852,gps,2,0,37.2407137,126.7741362,28.769,0.000196,0.0,0.0,0.0,0.000196,0.0,0.0,0.0,0.000361,2
1658627670534544409,16942,1658627670499700824,gps,2,0,37.240717,126.7741382,28.767,0.000196,0.0,0.0,0.0,0.000196,0.0,0.0,0.0,0.000441,2
1658627670635924488,16943,1658627670599700810,gps,2,0,37.2407186,126.7741391,28.781,0.000196,0.0,0.0,0.0,0.000196,0.0,0.0,0.0,0.000361,2
1658627670733247233,16944,1658627670699700796,gps,2,0,37.2407203,126.7741402,28.766,0.000196,0.0,0.0,0.0,0.000196,0.0,0.0,0.0,0.000324,2
1658627670832987727,16945,1658627670799700782,gps,2,0,37.2407221,126.7741411,28.756,0.000196,0.0,0.0,0.0,0.000196,0.0,0.0,0.0,0.000324,2
1658627670928306049,16946,1658627670899700768,gps,2,0,37.2407238,126.774142,28.765,0.000196,0.0,0.0,0.0,0.000196,0.0,0.0,0.0,0.000324,2
1658627671075859163,16947,1658627670999700755,gps,2,0,37.2407255,126.774143,28.752,0.000196,0.0,0.0,0.0,0.000196,0.0,0.0,0.0,0.000324,2
1658627671235144400,16948,1658627671199700726,gps,2,0,37.240729,126.7741448,28.752,0.000196,0.0,0.0,0.0,0.000196,0.0,0.0,0.0,0.000441,2
1658627671345313360,16949,1658627671299700712,gps,2,0,37.2407307,126.7741458,28.754,0.000196,0.0,0.0,0.0,0.000196,0.0,0.0,0.0,0.000361,2
1658627671533176630,16950,1658627671499700684,gps,2,0,37.2407341,126.7741478,28.757,0.000196,0.0,0.0,0.0,0.000196,0.0,0.0,0.0,0.000441,2
1658627671634357377,16951,1658627671599700670,gps,2,0,37.2407358,126.7741488,28.735,0.000196,0.0,0.0,0.0,0.000196,0.0,0.0,0.0,0.000361,2
1658627671731285674,16952,1658627671699700655,gps,2,0,37.2407376,126.7741497,28.744,0.000196,0.0,0.0,0.0,0.000196,0.0,0.0,0.0,0.000324,2
1658627671829463057,16953,1658627671799700641,gps,2,0,37.2407394,126.7741506,28.749,0.000196,0.0,0.0,0.0,0.000196,0.0,0.0,0.0,0.000324,2
1658627671929293557,16954,1658627671899700627,gps,2,0,37.2407411,126.7741518,28.743,0.000196,0.0,0.0,0.0,0.000196,0.0,0.0,0.0,0.000324,2
1658627672074338835,16955,1658627671999700614,gps,2,0,37.2407428,126.7741528,28.755,0.000196,0.0,0.0,0.0,0.000196,0.0,0.0,0.0,0.000289,2
1658627672238146840,16956,1658627672199700585,gps,2,0,37.2407463,126.774155,28.763,0.000196,0.0,0.0,0.0,0.000196,0.0,0.0,0.0,0.0004,2
1658627672342957103,16957,1658627672299700571,gps,2,0,37.240748,126.774156,28.772,0.000196,0.0,0.0,0.0,0.000196,0.0,0.0,0.0,0.000361,2
1658627672533010069,16958,1658627672499700543,gps,2,0,37.2407514,126.7741581,28.776,0.000196,0.0,0.0,0.0,0.000196,0.0,0.0,0.0,0.000441,2
1658627672632044725,16959,1658627672599700529,gps,2,0,37.2407531,126.7741592,28.772,0.000196,0.0,0.0,0.0,0.000196,0.0,0.0,0.0,0.000361,2
1658627672727637200,16960,1658627672699700515,gps,2,0,37.2407548,126.7741602,28.788,0.000196,0.0,0.0,0.0,0.000196,0.0,0.0,0.0,0.000324,2
1658627672833159458,16961,1658627672799700501,gps,2,0,37.2407565,126.7741614,28.786,0.000196,0.0,0.0,0.0,0.000196,0.0,0.0,0.0,0.000324,2
1658627672933910156,16962,1658627672899700487,gps,2,0,37.2407582,126.7741625,28.781,0.000196,0.0,0.0,0.0,0.000196,0.0,0.0,0.0,0.000289,2
1658627673078190059,16963,1658627672999700474,gps,2,0,37.2407598,126.7741636,28.774,0.000196,0.0,0.0,0.0,0.000196,0.0,0.0,0.0,0.000289,2
1658627673239298310,16964,1658627673199700445,gps,2,0,37.2407633,126.7741659,28.804,0.000196,0.0,0.0,0.0,0.000196,0.0,0.0,0.0,0.0004,2
1658627673434475915,16965,1658627673399700417,gps,2,0,37.2407666,126.7741682,28.802,0.000196,0.0,0.0,0.0,0.000196,0.0,0.0,0.0,0.000441,2
1658627673533732026,16966,1658627673499700403,gps,2,0,37.2407683,126.7741694,28.793,0.000196,0.0,0.0,0.0,0.000196,0.0,0.0,0.0,0.000361,2
1658627673628843106,16967,1658627673599700389,gps,2,0,37.24077,126.7741705,28.8,0.000196,0.0,0.0,0.0,0.000196,0.0,0.0,0.0,0.000324,2
1658627673731422471,16968,1658627673699700375,gps,2,0,37.2407716,126.7741717,28.787,0.000196,0.0,0.0,0.0,0.000196,0.0,0.0,0.0,0.000324,2
1658627673833133850,16969,1658627673799700361,gps,2,0,37.2407733,126.7741729,28.786,0.000196,0.0,0.0,0.0,0.000196,0.0,0.0,0.0,0.000324,2
1658627673931430136,16970,1658627673899700347,gps,2,0,37.2407749,126.7741741,28.775,0.000196,0.0,0.0,0.0,0.000196,0.0,0.0,0.0,0.000324,2
1658627674074262199,16971,1658627673999700334,gps,2,0,37.2407766,126.7741753,28.777,0.000196,0.0,0.0,0.0,0.000196,0.0,0.0,0.0,0.000289,2
1658627674243752672,16972,1658627674199700305,gps,2,0,37.2407799,126.7741778,28.778,0.000196,0.0,0.0,0.0,0.000196,0.0,0.0,0.0,0.0004,2
1658627674434646783,16973,1658627674399700277,gps,2,0,37.2407833,126.7741802,28.789,0.000196,0.0,0.0,0.0,0.000196,0.0,0.0,0.0,0.000484,2
1658627674529974526,16974,1658627674499700263,gps,2,0,37.2407849,126.7741815,28.777,0.000196,0.0,0.0,0.0,0.000196,0.0,0.0,0.0,0.0004,2
1658627674633005346,16975,1658627674599700249,gps,2,0,37.2407866,126.7741827,28.783,0.000196,0.0,0.0,0.0,0.000196,0.0,0.0,0.0,0.000361,2
1658627674731125499,16976,1658627674699700235,gps,2,0,37.2407883,126.7741839,28.792,0.000196,0.0,0.0,0.0,0.000196,0.0,0.0,0.0,0.000324,2
1658627674832097796,16977,1658627674799700221,gps,2,0,37.2407899,126.774185,28.794,0.000196,0.0,0.0,0.0,0.000196,0.0,0.0,0.0,0.000324,2
1658627674932271887,16978,1658627674899700207,gps,2,0,37.2407917,126.7741863,28.79,0.000196,0.0,0.0,0.0,0.000196,0.0,0.0,0.0,0.000324,2
1658627675072152283,16979,1658627674999700194,gps,2,0,37.2407933,126.7741875,28.791,0.000196,0.0,0.0,0.0,0.000196,0.0,0.0,0.0,0.000289,2
1658627675236047464,16980,1658627675199700165,gps,2,0,37.2407966,126.7741898,28.798,0.000196,0.0,0.0,0.0,0.000196,0.0,0.0,0.0,0.0004,2
1658627675333056725,16981,1658627675299700151,gps,2,0,37.2407983,126.7741909,28.785,0.000196,0.0,0.0,0.0,0.000196,0.0,0.0,0.0,0.000361,2
1658627675431589994,16982,1658627675399700137,gps,2,0,37.2408001,126.7741922,28.781,0.000196,0.0,0.0,0.0,0.000196,0.0,0.0,0.0,0.000324,2
1658627675543322185,16983,1658627675499700123,gps,2,0,37.2408018,126.7741933,28.785,0.000196,0.0,0.0,0.0,0.000196,0.0,0.0,0.0,0.000324,2
1658627675736834326,16984,1658627675699700094,gps,2,0,37.2408052,126.7741956,28.776,0.000196,0.0,0.0,0.0,0.000196,0.0,0.0,0.0,0.0004,2
1658627675841603341,16985,1658627675799700080,gps,2,0,37.240807,126.7741966,28.771,0.000196,0.0,0.0,0.0,0.000196,0.0,0.0,0.0,0.000361,2
1658627676082307371,16986,1658627675999700053,gps,2,0,37.2408105,126.7741987,28.773,0.000196,0.0,0.0,0.0,0.000196,0.0,0.0,0.0,0.000441,2
1658627676236495932,16987,1658627676199700024,gps,2,0,37.2408141,126.7742008,28.766,0.000196,0.0,0.0,0.0,0.000196,0.0,0.0,0.0,0.000484,2
1658627676333121630,16988,1658627676299700010,gps,2,0,37.2408158,126.7742018,28.753,0.000196,0.0,0.0,0.0,0.000196,0.0,0.0,0.0,0.0004,2
1658627676435919080,16989,1658627676399699996,gps,2,0,37.2408176,126.7742027,28.773,0.000196,0.0,0.0,0.0,0.000196,0.0,0.0,0.0,0.000361,2
1658627676531921351,16990,1658627676499699982,gps,2,0,37.2408195,126.7742036,28.768,0.000196,0.0,0.0,0.0,0.000196,0.0,0.0,0.0,0.000324,2
1658627676634811614,16991,1658627676599699968,gps,2,0,37.2408213,126.7742045,28.77,0.000196,0.0,0.0,0.0,0.000196,0.0,0.0,0.0,0.000324,2
1658627676734744685,16992,1658627676699699954,gps,2,0,37.2408231,126.7742054,28.768,0.000196,0.0,0.0,0.0,0.000196,0.0,0.0,0.0,0.000324,2
1658627676832871510,16993,1658627676799699940,gps,2,0,37.2408249,126.7742063,28.768,0.000196,0.0,0.0,0.0,0.000196,0.0,0.0,0.0,0.000324,2
1658627676932054874,16994,1658627676899699926,gps,2,0,37.2408267,126.7742072,28.771,0.000196,0.0,0.0,0.0,0.000196,0.0,0.0,0.0,0.000324,2
1658627677079062539,16995,1658627676999699913,gps,2,0,37.2408286,126.774208,28.768,0.000196,0.0,0.0,0.0,0.000196,0.0,0.0,0.0,0.000324,2
1658627677230003381,16996,1658627677199699884,gps,2,0,37.2408322,126.7742097,28.758,0.000196,0.0,0.0,0.0,0.000196,0.0,0.0,0.0,0.0004,2
1658627677333743173,16997,1658627677299699870,gps,2,0,37.240834,126.7742106,28.754,0.000196,0.0,0.0,0.0,0.000196,0.0,0.0,0.0,0.000361,2
1658627677442890878,16998,1658627677399699856,gps,2,0,37.2408358,126.7742114,28.761,0.000196,0.0,0.0,0.0,0.000196,0.0,0.0,0.0,0.000324,2
1658627677634519941,16999,1658627677599699828,gps,2,0,37.2408395,126.7742133,28.768,0.000196,0.0,0.0,0.0,0.000196,0.0,0.0,0.0,0.0004,2
1658627677737209030,17000,1658627677699699814,gps,2,0,37.2408413,126.7742142,28.758,0.000196,0.0,0.0,0.0,0.000196,0.0,0.0,0.0,0.000361,2
1658627677832000019,17001,1658627677799699800,gps,2,0,37.2408432,126.7742151,28.756,0.000196,0.0,0.0,0.0,0.000196,0.0,0.0,0.0,0.000324,2
1658627677930527002,17002,1658627677899699786,gps,2,0,37.240845,126.774216,28.77,0.000196,0.0,0.0,0.0,0.000196,0.0,0.0,0.0,0.000289,2
1658627678073082320,17003,1658627677999699773,gps,2,0,37.2408468,126.7742169,28.752,0.000196,0.0,0.0,0.0,0.000196,0.0,0.0,0.0,0.000289,2
1658627678232774742,17004,1658627678199699744,gps,2,0,37.2408504,126.7742188,28.749,0.000196,0.0,0.0,0.0,0.000196,0.0,0.0,0.0,0.0004,2
1658627678342594042,17005,1658627678299699730,gps,2,0,37.2408522,126.7742199,28.745,0.000196,0.0,0.0,0.0,0.000196,0.0,0.0,0.0,0.000361,2
1658627678533670047,17006,1658627678499699702,gps,2,0,37.2408558,126.7742219,28.752,0.000196,0.0,0.0,0.0,0.000196,0.0,0.0,0.0,0.000441,2
1658627678634216891,17007,1658627678599699688,gps,2,0,37.2408575,126.7742229,28.742,0.000196,0.0,0.0,0.0,0.000196,0.0,0.0,0.0,0.000361,2
1658627678734919471,17008,1658627678699699675,gps,2,0,37.2408593,126.774224,28.745,0.000196,0.0,0.0,0.0,0.000196,0.0,0.0,0.0,0.000324,2
1658627678837781813,17009,1658627678799699661,gps,2,0,37.2408611,126.774225,28.748,0.000196,0.0,0.0,0.0,0.000196,0.0,0.0,0.0,0.000324,2
1658627679067696851,17010,1658627678999699634,gps,2,0,37.2408646,126.7742272,28.76,0.000196,0.0,0.0,0.0,0.000196,0.0,0.0,0.0,0.000441,2
1658627679238650330,17011,1658627679199699604,gps,2,0,37.2408682,126.7742293,28.774,0.000196,0.0,0.0,0.0,0.000196,0.0,0.0,0.0,0.000441,2
1658627679359385132,17012,1658627679299699591,gps,2,0,37.24087,126.7742305,28.782,0.000196,0.0,0.0,0.0,0.000196,0.0,0.0,0.0,0.000361,2
1658627679535604440,17013,1658627679499699563,gps,2,0,37.2408734,126.7742327,28.798,0.000196,0.0,0.0,0.0,0.000196,0.0,0.0,0.0,0.000441,2
1658627679637612712,17014,1658627679599699549,gps,2,0,37.2408752,126.7742339,28.791,0.000196,0.0,0.0,0.0,0.000196,0.0,0.0,0.0,0.000361,2
1658627679737353791,17015,1658627679699699535,gps,2,0,37.2408769,126.7742351,28.79,0.000196,0.0,0.0,0.0,0.000196,0.0,0.0,0.0,0.000324,2
1658627679834272110,17016,1658627679799699521,gps,2,0,37.2408786,126.7742363,28.779,0.000196,0.0,0.0,0.0,0.000196,0.0,0.0,0.0,0.000324,2
1658627679931285480,17017,1658627679899699507,gps,2,0,37.2408804,126.7742376,28.783,0.000196,0.0,0.0,0.0,0.000196,0.0,0.0,0.0,0.000289,2
1658627680085245805,17018,1658627679999699494,gps,2,0,37.2408822,126.7742388,28.782,0.000196,0.0,0.0,0.0,0.000196,0.0,0.0,0.0,0.000289,2
1658627680235939956,17019,1658627680199699465,gps,2,0,37.2408856,126.7742411,28.781,0.000196,0.0,0.0,0.0,0.000196,0.0,0.0,0.0,0.0004,2
1658627680342845716,17020,1658627680299699450,gps,2,0,37.2408873,126.7742423,28.79,0.000196,0.0,0.0,0.0,0.000196,0.0,0.0,0.0,0.000361,2
1658627680534560022,17021,1658627680499699422,gps,2,0,37.2408908,126.7742448,28.8,0.000196,0.0,0.0,0.0,0.000196,0.0,0.0,0.0,0.0004,2
1658627680635917086,17022,1658627680599699408,gps,2,0,37.2408926,126.774246,28.797,0.000196,0.0,0.0,0.0,0.000196,0.0,0.0,0.0,0.000361,2
1658627680733457930,17023,1658627680699699394,gps,2,0,37.2408943,126.7742471,28.793,0.000196,0.0,0.0,0.0,0.000196,0.0,0.0,0.0,0.000324,2
1658627680828961106,17024,1658627680799699380,gps,2,0,37.2408961,126.7742483,28.779,0.000196,0.0,0.0,0.0,0.000196,0.0,0.0,0.0,0.000289,2
1658627680933683308,17025,1658627680899699366,gps,2,0,37.2408978,126.7742495,28.78,0.000196,0.0,0.0,0.0,0.000196,0.0,0.0,0.0,0.000289,2
1658627681081368646,17026,1658627680999699353,gps,2,0,37.2408997,126.7742507,28.77,0.000196,0.0,0.0,0.0,0.000196,0.0,0.0,0.0,0.000289,2
1658627681247697468,17027,1658627681199699324,gps,2,0,37.2409033,126.774253,28.767,0.000196,0.0,0.0,0.0,0.000196,0.0,0.0,0.0,0.0004,2
1658627681435644196,17028,1658627681399699296,gps,2,0,37.2409068,126.7742553,28.759,0.000196,0.0,0.0,0.0,0.000196,0.0,0.0,0.0,0.000441,2
1658627681536564097,17029,1658627681499699282,gps,2,0,37.2409087,126.7742565,28.757,0.000196,0.0,0.0,0.0,0.000196,0.0,0.0,0.0,0.000361,2
1658627681635487290,17030,1658627681599699268,gps,2,0,37.2409104,126.7742575,28.759,0.000196,0.0,0.0,0.0,0.000196,0.0,0.0,0.0,0.000324,2
1658627681731419242,17031,1658627681699699254,gps,2,0,37.2409123,126.7742586,28.764,0.000196,0.0,0.0,0.0,0.000196,0.0,0.0,0.0,0.000324,2
1658627681830608045,17032,1658627681799699241,gps,2,0,37.2409141,126.7742597,28.753,0.000196,0.0,0.0,0.0,0.000196,0.0,0.0,0.0,0.000324,2
1658627681931402693,17033,1658627681899699227,gps,2,0,37.240916,126.7742609,28.755,0.000196,0.0,0.0,0.0,0.000196,0.0,0.0,0.0,0.000289,2
1658627682082600416,17034,1658627681999699214,gps,2,0,37.2409178,126.774262,28.759,0.000196,0.0,0.0,0.0,0.000196,0.0,0.0,0.0,0.000289,2
1658627682245130853,17035,1658627682199699184,gps,2,0,37.2409215,126.7742641,28.772,0.000196,0.0,0.0,0.0,0.000196,0.0,0.0,0.0,0.0004,2
1658627682434058602,17036,1658627682399699156,gps,2,0,37.2409253,126.7742663,28.771,0.000196,0.0,0.0,0.0,0.000196,0.0,0.0,0.0,0.000441,2
1658627682533652307,17037,1658627682499699142,gps,2,0,37.2409271,126.7742674,28.78,0.000196,0.0,0.0,0.0,0.000196,0.0,0.0,0.0,0.000361,2
1658627682631674784,17038,1658627682599699128,gps,2,0,37.2409289,126.7742685,28.782,0.000196,0.0,0.0,0.0,0.000196,0.0,0.0,0.0,0.000324,2
1658627682733675086,17039,1658627682699699115,gps,2,0,37.2409307,126.7742696,28.782,0.000196,0.0,0.0,0.0,0.000196,0.0,0.0,0.0,0.000289,2
1658627682836205439,17040,1658627682799699101,gps,2,0,37.2409325,126.7742707,28.772,0.000196,0.0,0.0,0.0,0.000196,0.0,0.0,0.0,0.000289,2
1658627682933604183,17041,1658627682899699087,gps,2,0,37.2409344,126.7742718,28.768,0.000196,0.0,0.0,0.0,0.000196,0.0,0.0,0.0,0.000289,2
1658627683077048739,17042,1658627682999699074,gps,2,0,37.2409362,126.774273,28.766,0.000196,0.0,0.0,0.0,0.000196,0.0,0.0,0.0,0.000289,2
1658627683234479618,17043,1658627683199699045,gps,2,0,37.2409399,126.7742753,28.751,0.000196,0.0,0.0,0.0,0.000196,0.0,0.0,0.0,0.0004,2
1658627683334530819,17044,1658627683299699031,gps,2,0,37.2409417,126.7742765,28.759,0.000196,0.0,0.0,0.0,0.000196,0.0,0.0,0.0,0.000324,2
1658627683433280485,17045,1658627683399699017,gps,2,0,37.2409435,126.7742776,28.768,0.000196,0.0,0.0,0.0,0.000196,0.0,0.0,0.0,0.000324,2
1658627683534749972,17046,1658627683499699003,gps,2,0,37.2409453,126.7742788,28.765,0.000196,0.0,0.0,0.0,0.000196,0.0,0.0,0.0,0.000289,2
1658627683631769488,17047,1658627683599698989,gps,2,0,37.2409471,126.7742799,28.773,0.000196,0.0,0.0,0.0,0.000196,0.0,0.0,0.0,0.000289,2
1658627683730582679,17048,1658627683699698975,gps,2,0,37.2409489,126.7742811,28.777,0.000196,0.0,0.0,0.0,0.000196,0.0,0.0,0.0,0.000289,2
1658627683832422446,17049,1658627683799698961,gps,2,0,37.2409506,126.7742823,28.772,0.000196,0.0,0.0,0.0,0.000196,0.0,0.0,0.0,0.000289,2
1658627683936252932,17050,1658627683899698947,gps,2,0,37.2409524,126.7742835,28.768,0.000196,0.0,0.0,0.0,0.000196,0.0,0.0,0.0,0.000289,2
1658627684075663677,17051,1658627683999698934,gps,2,0,37.2409542,126.7742848,28.769,0.000196,0.0,0.0,0.0,0.000196,0.0,0.0,0.0,0.000289,2
1658627684239205909,17052,1658627684199698905,gps,2,0,37.2409576,126.7742872,28.779,0.000196,0.0,0.0,0.0,0.000196,0.0,0.0,0.0,0.0004,2
1658627684438844852,17053,1658627684399698877,gps,2,0,37.240961,126.7742896,28.789,0.000196,0.0,0.0,0.0,0.000196,0.0,0.0,0.0,0.000441,2
1658627684533000985,17054,1658627684499698863,gps,2,0,37.2409629,126.7742909,28.785,0.000196,0.0,0.0,0.0,0.000196,0.0,0.0,0.0,0.000361,2
1658627684633455968,17055,1658627684599698849,gps,2,0,37.2409646,126.7742921,28.776,0.000196,0.0,0.0,0.0,0.000196,0.0,0.0,0.0,0.000324,2
1658627684733901778,17056,1658627684699698835,gps,2,0,37.2409663,126.7742933,28.776,0.000196,0.0,0.0,0.0,0.000196,0.0,0.0,0.0,0.000324,2
1658627684830167381,17057,1658627684799698821,gps,2,0,37.2409681,126.7742946,28.775,0.000196,0.0,0.0,0.0,0.000196,0.0,0.0,0.0,0.000324,2
1658627684931494038,17058,1658627684899698807,gps,2,0,37.2409698,126.7742958,28.774,0.000196,0.0,0.0,0.0,0.000196,0.0,0.0,0.0,0.000324,2
1658627685070469507,17059,1658627684999698794,gps,2,0,37.2409716,126.7742968,28.771,0.000196,0.0,0.0,0.0,0.000196,0.0,0.0,0.0,0.000324,2
1658627685231426901,17060,1658627685199698765,gps,2,0,37.240975,126.7742992,28.764,0.000196,0.0,0.0,0.0,0.000196,0.0,0.0,0.0,0.0004,2
1658627685329532627,17061,1658627685299698751,gps,2,0,37.2409768,126.7743004,28.762,0.000196,0.0,0.0,0.0,0.000196,0.0,0.0,0.0,0.000361,2
1658627685438249619,17062,1658627685399698738,gps,2,0,37.2409786,126.7743015,28.769,0.000196,0.0,0.0,0.0,0.000196,0.0,0.0,0.0,0.000324,2
1658627685531690348,17063,1658627685499698724,gps,2,0,37.2409803,126.7743026,28.776,0.000196,0.0,0.0,0.0,0.000196,0.0,0.0,0.0,0.000324,2
1658627685632035437,17064,1658627685599698710,gps,2,0,37.240982,126.7743039,28.768,0.000196,0.0,0.0,0.0,0.000196,0.0,0.0,0.0,0.000289,2
1658627685730443599,17065,1658627685699698696,gps,2,0,37.2409838,126.7743049,28.775,0.000196,0.0,0.0,0.0,0.000196,0.0,0.0,0.0,0.000289,2
1658627685832375094,17066,1658627685799698682,gps,2,0,37.2409856,126.7743062,28.77,0.000196,0.0,0.0,0.0,0.000196,0.0,0.0,0.0,0.000289,2
1658627685930708037,17067,1658627685899698668,gps,2,0,37.2409873,126.7743073,28.771,0.000196,0.0,0.0,0.0,0.000196,0.0,0.0,0.0,0.000289,2
1658627686073086627,17068,1658627685999698655,gps,2,0,37.2409891,126.7743085,28.765,0.000196,0.0,0.0,0.0,0.000196,0.0,0.0,0.0,0.000289,2
1658627686229630421,17069,1658627686199698626,gps,2,0,37.2409925,126.7743109,28.771,0.000196,0.0,0.0,0.0,0.000196,0.0,0.0,0.0,0.0004,2
1658627686339886896,17070,1658627686299698612,gps,2,0,37.2409942,126.7743121,28.773,0.000196,0.0,0.0,0.0,0.000196,0.0,0.0,0.0,0.000361,2
1658627686532799091,17071,1658627686499698584,gps,2,0,37.2409977,126.7743145,28.78,0.000196,0.0,0.0,0.0,0.000196,0.0,0.0,0.0,0.000441,2
1658627686632934955,17072,1658627686599698570,gps,2,0,37.2409994,126.7743158,28.785,0.000196,0.0,0.0,0.0,0.000196,0.0,0.0,0.0,0.000361,2
1658627686734100160,17073,1658627686699698556,gps,2,0,37.2410011,126.774317,28.78,0.000196,0.0,0.0,0.0,0.000196,0.0,0.0,0.0,0.000324,2
1658627686832750100,17074,1658627686799698542,gps,2,0,37.2410028,126.7743182,28.784,0.000196,0.0,0.0,0.0,0.000196,0.0,0.0,0.0,0.000324,2
1658627686932114777,17075,1658627686899698528,gps,2,0,37.2410044,126.7743196,28.79,0.000196,0.0,0.0,0.0,0.000196,0.0,0.0,0.0,0.000289,2
1658627687070768372,17076,1658627686999698515,gps,2,0,37.2410061,126.774321,28.788,0.000196,0.0,0.0,0.0,0.000196,0.0,0.0,0.0,0.000289,2
1658627687234928899,17077,1658627687199698486,gps,2,0,37.2410094,126.7743237,28.799,0.000196,0.0,0.0,0.0,0.000196,0.0,0.0,0.0,0.0004,2
1658627687341863246,17078,1658627687299698473,gps,2,0,37.2410109,126.774325,28.809,0.000196,0.0,0.0,0.0,0.000196,0.0,0.0,0.0,0.000361,2
1658627687536468579,17079,1658627687499698445,gps,2,0,37.2410141,126.7743279,28.805,0.000196,0.0,0.0,0.0,0.000196,0.0,0.0,0.0,0.000441,2
1658627687630899791,17080,1658627687599698431,gps,2,0,37.2410156,126.7743294,28.811,0.000196,0.0,0.0,0.0,0.000196,0.0,0.0,0.0,0.000361,2
1658627687729667216,17081,1658627687699698417,gps,2,0,37.2410171,126.7743308,28.806,0.000196,0.0,0.0,0.0,0.000196,0.0,0.0,0.0,0.000324,2
1658627687835416273,17082,1658627687799698404,gps,2,0,37.2410187,126.7743323,28.802,0.000196,0.0,0.0,0.0,0.000196,0.0,0.0,0.0,0.000324,2
1658627687929241695,17083,1658627687899698390,gps,2,0,37.2410202,126.7743337,28.798,0.000196,0.0,0.0,0.0,0.000196,0.0,0.0,0.0,0.000324,2
1658627688066156292,17084,1658627687999698377,gps,2,0,37.2410218,126.7743352,28.807,0.000196,0.0,0.0,0.0,0.000196,0.0,0.0,0.0,0.000324,2
1658627688257395386,17085,1658627688199698348,gps,0,0,37.2410247,126.7743381,28.819,0.000196,0.0,0.0,0.0,0.000196,0.0,0.0,0.0,0.0004,2
1658627688439923448,17086,1658627688399698320,gps,0,0,37.2410278,126.774341,28.818,0.000196,0.0,0.0,0.0,0.000196,0.0,0.0,0.0,0.000441,2
1658627688535569491,17087,1658627688499698306,gps,0,0,37.2410293,126.7743425,28.835,0.000196,0.0,0.0,0.0,0.000196,0.0,0.0,0.0,0.000361,2
1658627688637725852,17088,1658627688599698292,gps,0,0,37.2410307,126.774344,28.825,0.000196,0.0,0.0,0.0,0.000196,0.0,0.0,0.0,0.000324,2
1658627688735931566,17089,1658627688699698279,gps,0,0,37.2410322,126.7743455,28.824,0.000196,0.0,0.0,0.0,0.000196,0.0,0.0,0.0,0.000324,2
1658627688834037456,17090,1658627688799698265,gps,0,0,37.2410338,126.7743469,28.823,0.000196,0.0,0.0,0.0,0.000196,0.0,0.0,0.0,0.000324,2
1658627688931001847,17091,1658627688899698251,gps,0,0,37.2410353,126.7743484,28.823,0.000196,0.0,0.0,0.0,0.000196,0.0,0.0,0.0,0.000289,2
1658627689076842420,17092,1658627688999698238,gps,0,0,37.2410368,126.7743498,28.825,0.000196,0.0,0.0,0.0,0.000196,0.0,0.0,0.0,0.000289,2
1658627689245425556,17093,1658627689199698209,gps,0,0,37.2410399,126.7743525,28.826,0.000196,0.0,0.0,0.0,0.000196,0.0,0.0,0.0,0.0004,2
1658627689437066594,17094,1658627689399698181,gps,0,0,37.2410431,126.7743553,28.824,0.000196,0.0,0.0,0.0,0.000196,0.0,0.0,0.0,0.000441,2
1658627689537858466,17095,1658627689499698167,gps,0,0,37.2410446,126.7743567,28.823,0.000196,0.0,0.0,0.0,0.000196,0.0,0.0,0.0,0.000361,2
1658627689638031203,17096,1658627689599698153,gps,0,0,37.2410463,126.774358,28.822,0.000196,0.0,0.0,0.0,0.000196,0.0,0.0,0.0,0.000324,2
1658627689742178282,17097,1658627689699698139,gps,0,0,37.2410479,126.7743593,28.81,0.000196,0.0,0.0,0.0,0.000196,0.0,0.0,0.0,0.000324,2
1658627689833364161,17098,1658627689799698125,gps,0,0,37.2410495,126.7743606,28.798,0.000196,0.0,0.0,0.0,0.000196,0.0,0.0,0.0,0.000324,2
1658627689937104966,17099,1658627689899698111,gps,0,0,37.2410512,126.7743619,28.791,0.000196,0.0,0.0,0.0,0.000196,0.0,0.0,0.0,0.000324,2
1658627690080860780,17100,1658627689999698098,gps,0,0,37.2410529,126.774363,28.791,0.000196,0.0,0.0,0.0,0.000196,0.0,0.0,0.0,0.000324,2
1658627690259284330,17101,1658627690199698069,gps,0,0,37.2410561,126.7743656,28.804,0.000196,0.0,0.0,0.0,0.000196,0.0,0.0,0.0,0.0004,2
1658627690439485698,17102,1658627690399698041,gps,0,0,37.2410596,126.7743678,28.806,0.000196,0.0,0.0,0.0,0.000196,0.0,0.0,0.0,0.000441,2
1658627690637677363,17103,1658627690599698013,gps,0,0,37.241063,126.77437,28.792,0.000196,0.0,0.0,0.0,0.000196,0.0,0.0,0.0,0.000441,2
1658627690730444231,17104,1658627690699697999,gps,0,0,37.2410648,126.7743711,28.792,0.000196,0.0,0.0,0.0,0.000196,0.0,0.0,0.0,0.000361,2
1658627690832862322,17105,1658627690799697985,gps,0,0,37.2410665,126.7743723,28.794,0.000196,0.0,0.0,0.0,0.000196,0.0,0.0,0.0,0.000324,2
1658627690933307255,17106,1658627690899697972,gps,0,0,37.2410683,126.7743733,28.79,0.000196,0.0,0.0,0.0,0.000196,0.0,0.0,0.0,0.000289,2
1658627691077639007,17107,1658627690999697959,gps,0,0,37.24107,126.7743744,28.779,0.000196,0.0,0.0,0.0,0.000196,0.0,0.0,0.0,0.000289,2
1658627691237646131,17108,1658627691199697930,gps,0,0,37.2410735,126.7743764,28.775,0.000196,0.0,0.0,0.0,0.000196,0.0,0.0,0.0,0.0004,2
1658627691333286279,17109,1658627691299697916,gps,0,0,37.2410753,126.7743775,28.773,0.000196,0.0,0.0,0.0,0.000196,0.0,0.0,0.0,0.000361,2
1658627691432688483,17110,1658627691399697902,gps,0,0,37.241077,126.7743785,28.773,0.000196,0.0,0.0,0.0,0.000196,0.0,0.0,0.0,0.000324,2
1658627691531861238,17111,1658627691499697888,gps,0,0,37.2410788,126.7743796,28.771,0.000196,0.0,0.0,0.0,0.000196,0.0,0.0,0.0,0.000289,2
1658627691627576023,17112,1658627691599697874,gps,0,0,37.2410805,126.7743806,28.774,0.000196,0.0,0.0,0.0,0.000196,0.0,0.0,0.0,0.000324,2
1658627691730065434,17113,1658627691699697860,gps,0,0,37.2410823,126.7743817,28.778,0.000196,0.0,0.0,0.0,0.000196,0.0,0.0,0.0,0.000324,2
1658627691829883374,17114,1658627691799697846,gps,0,0,37.2410841,126.7743827,28.778,0.000196,0.0,0.0,0.0,0.000196,0.0,0.0,0.0,0.000324,2
1658627691930324345,17115,1658627691899697832,gps,0,0,37.2410858,126.7743838,28.787,0.000196,0.0,0.0,0.0,0.000196,0.0,0.0,0.0,0.000324,2
1658627692074123701,17116,1658627691999697819,gps,0,0,37.2410874,126.7743849,28.802,0.000196,0.0,0.0,0.0,0.000196,0.0,0.0,0.0,0.000324,2
1658627692231820730,17117,1658627692199697790,gps,0,0,37.2410909,126.7743871,28.808,0.000196,0.0,0.0,0.0,0.000196,0.0,0.0,0.0,0.000441,2
1658627692332909123,17118,1658627692299697776,gps,0,0,37.2410926,126.7743882,28.814,0.000196,0.0,0.0,0.0,0.000196,0.0,0.0,0.0,0.0004,2
1658627692436556423,17119,1658627692399697763,gps,0,0,37.2410942,126.7743894,28.821,0.000196,0.0,0.0,0.0,0.000196,0.0,0.0,0.0,0.000361,2
1658627692525795980,17120,1658627692499697749,gps,0,0,37.2410959,126.7743905,28.82,0.000196,0.0,0.0,0.0,0.000196,0.0,0.0,0.0,0.000324,2
1658627692627669247,17121,1658627692599697735,gps,0,0,37.2410977,126.7743917,28.819,0.000196,0.0,0.0,0.0,0.000196,0.0,0.0,0.0,0.000289,2
1658627692733110513,17122,1658627692699697721,gps,0,0,37.2410994,126.7743928,28.825,0.000196,0.0,0.0,0.0,0.000196,0.0,0.0,0.0,0.000289,2
1658627692833262555,17123,1658627692799697708,gps,0,0,37.2411011,126.774394,28.817,0.000196,0.0,0.0,0.0,0.000196,0.0,0.0,0.0,0.000289,2
1658627692929246795,17124,1658627692899697694,gps,0,0,37.2411028,126.7743952,28.81,0.000196,0.0,0.0,0.0,0.000196,0.0,0.0,0.0,0.000289,2
1658627693069778225,17125,1658627692999697681,gps,0,0,37.2411045,126.7743963,28.815,0.000196,0.0,0.0,0.0,0.000196,0.0,0.0,0.0,0.000289,2
1658627693232276452,17126,1658627693199697652,gps,0,0,37.2411079,126.7743986,28.819,0.000196,0.0,0.0,0.0,0.000196,0.0,0.0,0.0,0.0004,2
1658627693331862737,17127,1658627693299697638,gps,0,0,37.2411097,126.7743998,28.794,0.000196,0.0,0.0,0.0,0.000196,0.0,0.0,0.0,0.000361,2
1658627693433665343,17128,1658627693399697624,gps,0,0,37.2411115,126.774401,28.804,0.000196,0.0,0.0,0.0,0.000196,0.0,0.0,0.0,0.000324,2
1658627693529207416,17129,1658627693499697610,gps,0,0,37.2411132,126.7744021,28.809,0.000196,0.0,0.0,0.0,0.000196,0.0,0.0,0.0,0.000324,2
1658627693629848286,17130,1658627693599697596,gps,0,0,37.241115,126.7744033,28.793,0.000196,0.0,0.0,0.0,0.000196,0.0,0.0,0.0,0.000324,2
1658627693728785329,17131,1658627693699697582,gps,0,0,37.2411166,126.7744045,28.79,0.000196,0.0,0.0,0.0,0.000196,0.0,0.0,0.0,0.000324,2
1658627693829278635,17132,1658627693799697568,gps,0,0,37.2411183,126.7744056,28.796,0.000196,0.0,0.0,0.0,0.000196,0.0,0.0,0.0,0.000289,2
1658627693929322297,17133,1658627693899697555,gps,0,0,37.2411201,126.7744068,28.792,0.000196,0.0,0.0,0.0,0.000196,0.0,0.0,0.0,0.000289,2
1658627694077279046,17134,1658627693999697542,gps,0,0,37.2411218,126.774408,28.787,0.000196,0.0,0.0,0.0,0.000196,0.0,0.0,0.0,0.000289,2
1658627694228633086,17135,1658627694199697513,gps,0,0,37.2411252,126.7744103,28.787,0.000196,0.0,0.0,0.0,0.000196,0.0,0.0,0.0,0.0004,2
1658627694333291798,17136,1658627694299697499,gps,0,0,37.2411269,126.7744114,28.794,0.000196,0.0,0.0,0.0,0.000196,0.0,0.0,0.0,0.000361,2
1658627694427541524,17137,1658627694399697485,gps,0,0,37.2411286,126.7744126,28.788,0.000196,0.0,0.0,0.0,0.000196,0.0,0.0,0.0,0.000324,2
1658627694529368860,17138,1658627694499697471,gps,0,0,37.2411304,126.7744137,28.791,0.000196,0.0,0.0,0.0,0.000196,0.0,0.0,0.0,0.000324,2
1658627694629488421,17139,1658627694599697457,gps,0,0,37.2411321,126.7744148,28.792,0.000196,0.0,0.0,0.0,0.000196,0.0,0.0,0.0,0.000289,2
1658627694728894577,17140,1658627694699697443,gps,0,0,37.2411339,126.7744158,28.79,0.000196,0.0,0.0,0.0,0.000196,0.0,0.0,0.0,0.000289,2
1658627694826132919,17141,1658627694799697429,gps,0,0,37.2411357,126.7744169,28.79,0.000196,0.0,0.0,0.0,0.000196,0.0,0.0,0.0,0.000289,2
1658627694927096598,17142,1658627694899697416,gps,0,0,37.2411375,126.7744179,28.788,0.000196,0.0,0.0,0.0,0.000196,0.0,0.0,0.0,0.000289,2
1658627695069859395,17143,1658627694999697403,gps,0,0,37.2411393,126.7744189,28.79,0.000196,0.0,0.0,0.0,0.000196,0.0,0.0,0.0,0.000289,2
1658627695232031742,17144,1658627695199697374,gps,0,0,37.241143,126.7744208,28.783,0.000196,0.0,0.0,0.0,0.000196,0.0,0.0,0.0,0.000441,2
1658627695336823907,17145,1658627695299697360,gps,0,0,37.2411448,126.7744216,28.782,0.000196,0.0,0.0,0.0,0.000196,0.0,0.0,0.0,0.0004,2
1658627695430451797,17146,1658627695399697346,gps,0,0,37.2411465,126.7744224,28.791,0.000196,0.0,0.0,0.0,0.000196,0.0,0.0,0.0,0.000361,2
1658627695531588406,17147,1658627695499697332,gps,0,0,37.2411485,126.7744231,28.779,0.000196,0.0,0.0,0.0,0.000196,0.0,0.0,0.0,0.000324,2
1658627695632206172,17148,1658627695599697318,gps,0,0,37.2411504,126.7744239,28.789,0.000196,0.0,0.0,0.0,0.000196,0.0,0.0,0.0,0.000289,2
1658627695731949350,17149,1658627695699697304,gps,0,0,37.2411523,126.7744246,28.775,0.000196,0.0,0.0,0.0,0.000196,0.0,0.0,0.0,0.000289,2
1658627695835451334,17150,1658627695799697290,gps,0,0,37.2411543,126.7744254,28.775,0.000196,0.0,0.0,0.0,0.000196,0.0,0.0,0.0,0.000289,2
1658627695933621642,17151,1658627695899697276,gps,0,0,37.2411561,126.7744261,28.768,0.000196,0.0,0.0,0.0,0.000196,0.0,0.0,0.0,0.000289,2
1658627696075474020,17152,1658627695999697264,gps,0,0,37.2411581,126.7744267,28.768,0.000196,0.0,0.0,0.0,0.000196,0.0,0.0,0.0,0.000289,2
1658627696234368917,17153,1658627696199697235,gps,0,0,37.2411618,126.7744282,28.764,0.000196,0.0,0.0,0.0,0.000196,0.0,0.0,0.0,0.0004,2
1658627696344332560,17154,1658627696299697221,gps,0,0,37.2411638,126.7744288,28.762,0.000196,0.0,0.0,0.0,0.000196,0.0,0.0,0.0,0.000324,2
1658627696533404516,17155,1658627696499697193,gps,0,0,37.2411677,126.7744301,28.755,0.000196,0.0,0.0,0.0,0.000196,0.0,0.0,0.0,0.0004,2
1658627696633362576,17156,1658627696599697179,gps,0,0,37.2411697,126.7744306,28.746,0.000196,0.0,0.0,0.0,0.000196,0.0,0.0,0.0,0.000361,2
1658627696731089751,17157,1658627696699697166,gps,0,0,37.2411716,126.7744312,28.753,0.000196,0.0,0.0,0.0,0.000196,0.0,0.0,0.0,0.000324,2
1658627696826261125,17158,1658627696799697152,gps,0,0,37.2411735,126.7744317,28.772,0.000196,0.0,0.0,0.0,0.000196,0.0,0.0,0.0,0.000324,2
1658627696927100014,17159,1658627696899697138,gps,0,0,37.2411755,126.7744322,28.768,0.000196,0.0,0.0,0.0,0.000196,0.0,0.0,0.0,0.000324,2
1658627697061509541,17160,1658627696999697125,gps,0,0,37.2411775,126.7744328,28.777,0.000196,0.0,0.0,0.0,0.000196,0.0,0.0,0.0,0.000324,2
1658627697240366606,17161,1658627697199697097,gps,2,0,37.2411814,126.7744341,28.774,0.000196,0.0,0.0,0.0,0.000196,0.0,0.0,0.0,0.000484,2
1658627697431475133,17162,1658627697399697069,gps,2,0,37.2411854,126.7744354,28.789,0.000196,0.0,0.0,0.0,0.000196,0.0,0.0,0.0,0.000529,2
1658627697530321731,17163,1658627697499697055,gps,2,0,37.2411873,126.7744361,28.785,0.000196,0.0,0.0,0.0,0.000196,0.0,0.0,0.0,0.000441,2
1658627697632832178,17164,1658627697599697041,gps,2,0,37.2411893,126.7744368,28.792,0.000196,0.0,0.0,0.0,0.000196,0.0,0.0,0.0,0.0004,2
1658627697736747538,17165,1658627697699697027,gps,2,0,37.2411912,126.7744375,28.795,0.000196,0.0,0.0,0.0,0.000196,0.0,0.0,0.0,0.000361,2
1658627697832389594,17166,1658627697799697013,gps,2,0,37.2411931,126.7744383,28.793,0.000196,0.0,0.0,0.0,0.000196,0.0,0.0,0.0,0.000361,2
1658627697925509427,17167,1658627697899696999,gps,2,0,37.2411951,126.7744391,28.793,0.000196,0.0,0.0,0.0,0.000196,0.0,0.0,0.0,0.000361,2
1658627698070966574,17168,1658627697999696986,gps,2,0,37.241197,126.7744399,28.794,0.000196,0.0,0.0,0.0,0.000196,0.0,0.0,0.0,0.000361,2
1658627698239534397,17169,1658627698199696957,gps,2,0,37.2412008,126.7744416,28.797,0.000196,0.0,0.0,0.0,0.000196,0.0,0.0,0.0,0.000484,2
1658627698428932748,17170,1658627698399696930,gps,2,0,37.2412046,126.7744433,28.799,0.000196,0.0,0.0,0.0,0.000196,0.0,0.0,0.0,0.000529,2
1658627698532248871,17171,1658627698499696916,gps,2,0,37.2412064,126.7744442,28.791,0.000196,0.0,0.0,0.0,0.000196,0.0,0.0,0.0,0.000441,2
1658627698636406321,17172,1658627698599696902,gps,2,0,37.2412083,126.7744451,28.797,0.000196,0.0,0.0,0.0,0.000196,0.0,0.0,0.0,0.0004,2
1658627698732467997,17173,1658627698699696888,gps,2,0,37.2412101,126.774446,28.805,0.000196,0.0,0.0,0.0,0.000196,0.0,0.0,0.0,0.0004,2
1658627698824310346,17174,1658627698799696874,gps,2,0,37.241212,126.7744469,28.804,0.000196,0.0,0.0,0.0,0.000196,0.0,0.0,0.0,0.0004,2
1658627698931533614,17175,1658627698899696860,gps,2,0,37.2412139,126.7744478,28.809,0.000196,0.0,0.0,0.0,0.000196,0.0,0.0,0.0,0.000361,2
1658627699074273572,17176,1658627698999696847,gps,2,0,37.2412157,126.7744488,28.81,0.000196,0.0,0.0,0.0,0.000196,0.0,0.0,0.0,0.000441,2
1658627699237126577,17177,1658627699199696818,gps,2,0,37.2412195,126.7744507,28.814,0.000196,0.0,0.0,0.0,0.000196,0.0,0.0,0.0,0.000576,2
1658627699329357638,17178,1658627699299696804,gps,2,0,37.2412213,126.7744517,28.809,0.000196,0.0,0.0,0.0,0.000196,0.0,0.0,0.0,0.000529,2
1658627699445133786,17179,1658627699399696790,gps,2,0,37.2412231,126.7744528,28.8,0.000196,0.0,0.0,0.0,0.000196,0.0,0.0,0.0,0.000441,2
1658627699634700812,17180,1658627699599696762,gps,2,0,37.2412267,126.7744549,28.784,0.000196,0.0,0.0,0.0,0.000196,0.0,0.0,0.0,0.000576,2
1658627699728456725,17181,1658627699699696748,gps,2,0,37.2412285,126.774456,28.794,0.000196,0.0,0.0,0.0,0.000196,0.0,0.0,0.0,0.000484,2
1658627699830154972,17182,1658627699799696734,gps,2,0,37.2412303,126.774457,28.791,0.000196,0.0,0.0,0.0,0.000196,0.0,0.0,0.0,0.0004,2
1658627699931604309,17183,1658627699899696721,gps,2,0,37.2412321,126.7744581,28.799,0.000196,0.0,0.0,0.0,0.000196,0.0,0.0,0.0,0.0004,2
1658627700080927153,17184,1658627699999696708,gps,2,0,37.2412339,126.7744592,28.798,0.000196,0.0,0.0,0.0,0.000196,0.0,0.0,0.0,0.000441,2
1658627700233400661,17185,1658627700199696679,gps,2,0,37.2412374,126.7744614,28.792,0.000196,0.0,0.0,0.0,0.000196,0.0,0.0,0.0,0.000529,2
1658627700338375247,17186,1658627700299696665,gps,2,0,37.2412391,126.7744625,28.797,0.000196,0.0,0.0,0.0,0.000196,0.0,0.0,0.0,0.000484,2
1658627700437114986,17187,1658627700399696651,gps,2,0,37.241241,126.7744635,28.808,0.000196,0.0,0.0,0.0,0.000196,0.0,0.0,0.0,0.000441,2
1658627700625858327,17188,1658627700599696624,gps,2,0,37.2412446,126.7744654,28.811,0.000196,0.0,0.0,0.0,0.000196,0.0,0.0,0.0,0.000484,2
1658627700731072738,17189,1658627700699696610,gps,2,0,37.2412464,126.7744665,28.818,0.000196,0.0,0.0,0.0,0.000196,0.0,0.0,0.0,0.000361,2
1658627700831656219,17190,1658627700799696596,gps,2,0,37.2412481,126.7744675,28.81,0.000196,0.0,0.0,0.0,0.000196,0.0,0.0,0.0,0.000324,2
1658627700931966452,17191,1658627700899696582,gps,2,0,37.2412499,126.7744686,28.813,0.000196,0.0,0.0,0.0,0.000196,0.0,0.0,0.0,0.000324,2
1658627701077123976,17192,1658627700999696569,gps,2,0,37.2412518,126.7744696,28.82,0.000196,0.0,0.0,0.0,0.000196,0.0,0.0,0.0,0.000289,2
1658627701237561716,17193,1658627701199696541,gps,2,0,37.2412554,126.7744714,28.804,0.000196,0.0,0.0,0.0,0.000196,0.0,0.0,0.0,0.0004,2
1658627701336932521,17194,1658627701299696527,gps,2,0,37.2412573,126.7744725,28.798,0.000196,0.0,0.0,0.0,0.000196,0.0,0.0,0.0,0.000361,2
1658627701439158216,17195,1658627701399696513,gps,2,0,37.2412592,126.7744732,28.795,0.000196,0.0,0.0,0.0,0.000196,0.0,0.0,0.0,0.000324,2
1658627701527400870,17196,1658627701499696499,gps,2,0,37.2412611,126.774474,28.797,0.000196,0.0,0.0,0.0,0.000196,0.0,0.0,0.0,0.000324,2
1658627701630650123,17197,1658627701599696485,gps,2,0,37.241263,126.7744748,28.797,0.000196,0.0,0.0,0.0,0.000196,0.0,0.0,0.0,0.000361,2
1658627701731235553,17198,1658627701699696471,gps,2,0,37.2412649,126.7744754,28.786,0.000196,0.0,0.0,0.0,0.000196,0.0,0.0,0.0,0.0004,2
1658627701834920466,17199,1658627701799696457,gps,2,0,37.2412669,126.7744761,28.787,0.000196,0.0,0.0,0.0,0.000196,0.0,0.0,0.0,0.0004,2
1658627701931470674,17200,1658627701899696444,gps,2,0,37.2412689,126.7744767,28.779,0.000196,0.0,0.0,0.0,0.000196,0.0,0.0,0.0,0.000441,2
1658627702074010663,17201,1658627701999696431,gps,2,0,37.2412708,126.7744773,28.781,0.000196,0.0,0.0,0.0,0.000196,0.0,0.0,0.0,0.000441,2
1658627702235884998,17202,1658627702199696402,gps,2,0,37.2412748,126.7744781,28.78,0.000196,0.0,0.0,0.0,0.000196,0.0,0.0,0.0,0.000625,2
1658627702355805569,17203,1658627702299696388,gps,2,0,37.2412769,126.7744785,28.763,0.000196,0.0,0.0,0.0,0.000196,0.0,0.0,0.0,0.000576,2
1658627702537128302,17204,1658627702499696361,gps,2,0,37.241281,126.7744792,28.756,0.000196,0.0,0.0,0.0,0.000196,0.0,0.0,0.0,0.000625,2
1658627702631367926,17205,1658627702599696347,gps,2,0,37.241283,126.7744795,28.759,0.000196,0.0,0.0,0.0,0.000196,0.0,0.0,0.0,0.000576,2
1658627702733273985,17206,1658627702699696333,gps,2,0,37.2412851,126.7744797,28.762,0.000196,0.0,0.0,0.0,0.000196,0.0,0.0,0.0,0.000484,2
1658627702833657950,17207,1658627702799696320,gps,2,0,37.2412871,126.7744799,28.75,0.000196,0.0,0.0,0.0,0.000196,0.0,0.0,0.0,0.000484,2
1658627702928611720,17208,1658627702899696306,gps,2,0,37.2412892,126.7744801,28.757,0.000196,0.0,0.0,0.0,0.000196,0.0,0.0,0.0,0.000529,2
1658627703066399155,17209,1658627702999696293,gps,2,0,37.2412912,126.7744803,28.75,0.000196,0.0,0.0,0.0,0.000196,0.0,0.0,0.0,0.000484,2
1658627703232081029,17210,1658627703199696264,gps,2,0,37.2412953,126.7744807,28.748,0.000225,0.0,0.0,0.0,0.000225,0.0,0.0,0.0,0.000676,2
1658627703336606223,17211,1658627703299696250,gps,2,0,37.2412974,126.7744808,28.759,0.000196,0.0,0.0,0.0,0.000196,0.0,0.0,0.0,0.000576,2
1658627703433310843,17212,1658627703399696236,gps,2,0,37.2412996,126.7744809,28.76,0.000196,0.0,0.0,0.0,0.000196,0.0,0.0,0.0,0.000484,2
1658627703533194144,17213,1658627703499696223,gps,2,0,37.2413017,126.7744811,28.768,0.000196,0.0,0.0,0.0,0.000196,0.0,0.0,0.0,0.000484,2
1658627703633028592,17214,1658627703599696209,gps,2,0,37.2413037,126.7744813,28.768,0.000196,0.0,0.0,0.0,0.000196,0.0,0.0,0.0,0.000441,2
1658627703739189314,17215,1658627703699696195,gps,2,0,37.2413058,126.7744815,28.768,0.000196,0.0,0.0,0.0,0.000196,0.0,0.0,0.0,0.000441,2
1658627703937189177,17216,1658627703899696167,gps,2,0,37.2413099,126.7744819,28.774,0.000196,0.0,0.0,0.0,0.000196,0.0,0.0,0.0,0.000625,2
1658627704070871999,17217,1658627703999696154,gps,2,0,37.2413119,126.7744821,28.771,0.000196,0.0,0.0,0.0,0.000196,0.0,0.0,0.0,0.000529,2
1658627704230644126,17218,1658627704199696125,gps,2,0,37.241316,126.7744827,28.768,0.000196,0.0,0.0,0.0,0.000196,0.0,0.0,0.0,0.000676,2
1658627704339047802,17219,1658627704299696112,gps,2,0,37.2413181,126.774483,28.764,0.000196,0.0,0.0,0.0,0.000196,0.0,0.0,0.0,0.000529,2
1658627704531973965,17220,1658627704499696084,gps,2,0,37.2413221,126.7744837,28.777,0.000196,0.0,0.0,0.0,0.000196,0.0,0.0,0.0,0.000625,2
1658627704631837321,17221,1658627704599696070,gps,2,0,37.2413241,126.7744842,28.77,0.000196,0.0,0.0,0.0,0.000196,0.0,0.0,0.0,0.000484,2
1658627704731462061,17222,1658627704699696056,gps,2,0,37.2413261,126.7744846,28.771,0.000196,0.0,0.0,0.0,0.000196,0.0,0.0,0.0,0.000441,2
1658627704830768189,17223,1658627704799696043,gps,2,0,37.2413281,126.7744851,28.777,0.000196,0.0,0.0,0.0,0.000196,0.0,0.0,0.0,0.000441,2
1658627704931751780,17224,1658627704899696029,gps,2,0,37.2413301,126.7744856,28.768,0.000196,0.0,0.0,0.0,0.000196,0.0,0.0,0.0,0.0004,2
1658627705063064945,17225,1658627704999696016,gps,2,0,37.2413322,126.7744859,28.777,0.000196,0.0,0.0,0.0,0.000196,0.0,0.0,0.0,0.0004,2
1658627705232753509,17226,1658627705199695987,gps,2,0,37.2413362,126.7744871,28.764,0.000196,0.0,0.0,0.0,0.000196,0.0,0.0,0.0,0.000576,2
1658627705326677150,17227,1658627705299695973,gps,2,0,37.2413381,126.7744875,28.766,0.000196,0.0,0.0,0.0,0.000196,0.0,0.0,0.0,0.000484,2
1658627705433322575,17228,1658627705399695960,gps,2,0,37.2413402,126.7744881,28.772,0.000196,0.0,0.0,0.0,0.000196,0.0,0.0,0.0,0.000441,2
1658627705528321817,17229,1658627705499695946,gps,2,0,37.2413421,126.7744885,28.769,0.000196,0.0,0.0,0.0,0.000196,0.0,0.0,0.0,0.0004,2
1658627705629356278,17230,1658627705599695932,gps,2,0,37.2413441,126.7744891,28.77,0.000196,0.0,0.0,0.0,0.000196,0.0,0.0,0.0,0.0004,2
1658627705726222480,17231,1658627705699695918,gps,2,0,37.2413461,126.7744896,28.764,0.000196,0.0,0.0,0.0,0.000196,0.0,0.0,0.0,0.0004,2
1658627705825525250,17232,1658627705799695904,gps,2,0,37.2413481,126.7744901,28.753,0.000196,0.0,0.0,0.0,0.000196,0.0,0.0,0.0,0.0004,2
1658627705930714605,17233,1658627705899695890,gps,2,0,37.24135,126.7744906,28.746,0.000196,0.0,0.0,0.0,0.000196,0.0,0.0,0.0,0.000361,2
1658627706061678879,17234,1658627705999695878,gps,2,0,37.241352,126.7744912,28.752,0.000196,0.0,0.0,0.0,0.000196,0.0,0.0,0.0,0.000361,2
1658627706238167941,17235,1658627706199695849,gps,2,0,37.2413559,126.7744924,28.753,0.000196,0.0,0.0,0.0,0.000196,0.0,0.0,0.0,0.000529,2
1658627706430478786,17236,1658627706399695821,gps,2,0,37.2413597,126.7744936,28.749,0.000196,0.0,0.0,0.0,0.000196,0.0,0.0,0.0,0.000576,2
1658627706528257311,17237,1658627706499695807,gps,2,0,37.2413616,126.7744942,28.775,0.000196,0.0,0.0,0.0,0.000196,0.0,0.0,0.0,0.000484,2
1658627706630221505,17238,1658627706599695794,gps,2,0,37.2413635,126.7744949,28.769,0.000196,0.0,0.0,0.0,0.000196,0.0,0.0,0.0,0.000441,2
1658627706731591646,17239,1658627706699695780,gps,2,0,37.2413654,126.7744955,28.768,0.000196,0.0,0.0,0.0,0.000196,0.0,0.0,0.0,0.0004,2
1658627706829522284,17240,1658627706799695766,gps,2,0,37.2413673,126.7744962,28.766,0.000196,0.0,0.0,0.0,0.000196,0.0,0.0,0.0,0.0004,2
1658627706926304737,17241,1658627706899695752,gps,2,0,37.2413692,126.7744969,28.76,0.000196,0.0,0.0,0.0,0.000196,0.0,0.0,0.0,0.000361,2
1658627707070521839,17242,1658627706999695739,gps,2,0,37.2413711,126.7744974,28.766,0.000196,0.0,0.0,0.0,0.000196,0.0,0.0,0.0,0.000361,2
1658627707237650676,17243,1658627707199695710,gps,2,0,37.2413748,126.7744987,28.744,0.000196,0.0,0.0,0.0,0.000196,0.0,0.0,0.0,0.000484,2
1658627707337199028,17244,1658627707299695696,gps,2,0,37.2413767,126.7744992,28.768,0.000196,0.0,0.0,0.0,0.000196,0.0,0.0,0.0,0.0004,2
1658627707432652619,17245,1658627707399695683,gps,2,0,37.2413787,126.7744998,28.775,0.000196,0.0,0.0,0.0,0.000196,0.0,0.0,0.0,0.000361,2
1658627707541552671,17246,1658627707499695668,gps,2,0,37.2413805,126.7745004,28.763,0.000196,0.0,0.0,0.0,0.000196,0.0,0.0,0.0,0.000361,2
1658627707735933829,17247,1658627707699695641,gps,2,0,37.2413842,126.7745015,28.766,0.000196,0.0,0.0,0.0,0.000196,0.0,0.0,0.0,0.000484,2
1658627707829102126,17248,1658627707799695627,gps,2,0,37.2413861,126.7745022,28.775,0.000196,0.0,0.0,0.0,0.000196,0.0,0.0,0.0,0.0004,2
1658627707931335881,17249,1658627707899695613,gps,2,0,37.241388,126.7745027,28.784,0.000196,0.0,0.0,0.0,0.000196,0.0,0.0,0.0,0.000324,2
1658627708073939916,17250,1658627707999695600,gps,2,0,37.2413898,126.7745033,28.773,0.000196,0.0,0.0,0.0,0.000196,0.0,0.0,0.0,0.000324,2
1658627708235448667,17251,1658627708199695571,gps,2,0,37.2413936,126.7745045,28.769,0.000196,0.0,0.0,0.0,0.000196,0.0,0.0,0.0,0.0004,2
1658627708331336687,17252,1658627708299695557,gps,2,0,37.2413954,126.7745051,28.761,0.000196,0.0,0.0,0.0,0.000196,0.0,0.0,0.0,0.000361,2
