%time,field.header.seq,field.header.stamp,field.header.frame_id,field.drive.steering_angle,field.drive.steering_angle_velocity,field.drive.speed,field.drive.acceleration,field.drive.jerk
1655121672534550750,1,1655121672528686046,/map,-0.0512529276311,0.0,1.34382903576,0.0774781033397,0.0
1655121672631246580,2,1655121672630696058,/map,-0.051000777632,0.0,1.35123455524,0.0740547925234,0.0
1655121672708564139,3,1655121672707910060,/map,-0.0507651828229,0.0,1.3583073616,0.0707286000252,0.0
1655121672802106759,4,1655121672801491022,/map,-0.0505453646183,0.0,1.36505723,0.0674979835749,0.0
1655121672905555963,5,1655121672905153036,/map,-0.0503405854106,0.0,1.37149333954,0.0643614009023,0.0
1655121673012530214,6,1655121673012012004,/map,-0.0208473522216,0.0,1.37762510777,0.0613172836602,0.0
1655121673108410219,7,1655121673107804059,/map,-0.0207607839257,0.0,1.38346147537,0.0583640597761,0.0
1655121673213624977,8,1655121673212311029,/map,-0.0206802263856,0.0,1.38901150227,0.0555001311004,0.0
1655121673318686487,9,1655121673318207979,/map,-0.0206054002047,0.0,1.39428389072,0.0527238957584,0.0
1655121673403637826,10,1655121673403018951,/map,-0.0205360352993,0.0,1.39928722382,0.0500337518752,0.0
1655121673507030251,11,1655121673506490945,/map,-0.0204718727618,0.0,1.40403008461,0.0474280826747,0.0
1655121673597507076,12,1655121673597073078,/map,-0.0204126723111,0.0,1.40852057934,0.0449052639306,0.0
1655121673704391938,13,1655121673703727960,/map,-0.0203582011163,0.0,1.41276693344,0.0424636863172,0.0
1655121673801957686,14,1655121673801294088,/map,-0.0203082431108,0.0,1.41677713394,0.0401017181575,0.0
1655121673895157537,15,1655121673894572973,/map,-0.0202625859529,0.0,1.42055892944,0.0378177501261,0.0
1655121674004760235,16,1655121674004087924,/map,-0.0202210303396,0.0,1.42411994934,0.0356101617217,0.0
1655121674107355502,17,1655121674106597900,/map,-0.0201833862811,0.0,1.42746770382,0.0334773436189,0.0
1655121674205881472,18,1655121674205543994,/map,-0.0201494731009,0.0,1.43060946465,0.0314176902175,0.0
1655121674312282854,19,1655121674311734914,/map,-0.0201191138476,0.0,1.43355238438,0.0294295996428,0.0
1655121674395872125,20,1655121674395451068,/map,-0.0200921446085,0.0,1.43630349636,0.027511484921,0.0
1655121674495181714,21,1655121674494740009,/map,-0.0200684070587,0.0,1.43886971474,0.0256617628038,0.0
1655121674595260659,22,1655121674594824075,/map,-0.020047750324,0.0,1.44125759602,0.0238788668066,0.0
1655121674695883351,23,1655121674695390939,/map,-0.0200300253928,0.0,1.44347369671,0.0221612360328,0.0
1655121674793011960,24,1655121674792043924,/map,-0.0200150944293,0.0,1.44552445412,0.0205073263496,0.0
1655121674898896676,25,1655121674898402929,/map,-0.0200028251857,0.0,1.44741606712,0.0189156048,0.0
1655121675000090166,26,1655121674999582052,/map,-0.0199930872768,0.0,1.44915449619,0.0173845533282,0.0
1655121675093640452,27,1655121675092900991,/map,-0.0199857577682,0.0,1.45074570179,0.0159126687795,0.0
1655121675198101081,28,1655121675197679042,/map,-0.019980719313,0.0,1.45219564438,0.0144984666258,0.0
1655121675296554584,29,1655121675296046018,/map,-0.0199778582901,0.0,1.45350968838,0.0131404763088,0.0
1655121675396907392,30,1655121675396379947,/map,-0.0199770666659,0.0,1.45469331741,0.0118372449651,0.0
1655121675509332189,31,1655121675508851051,/map,-0.0199782382697,0.0,1.45575213432,0.0105873383582,0.0
1655121675665974937,32,1655121675664284944,/map,-0.0199812725186,0.0,1.45669102669,0.00938933901489,0.0
1655121675736965885,33,1655121675736308097,/map,-0.0202987994999,0.0,1.45751523972,0.00824185088277,0.0
1655121675814117366,34,1655121675813587903,/map,-0.0203052461147,0.0,1.45822954178,0.00714349467307,0.0
1655121675900921209,35,1655121675900449991,/map,-0.0203132927418,0.0,1.45883882046,0.00609291298315,0.0
1655121676002033710,36,1655121676001499891,/map,-0.0203228518367,0.0,1.45934772491,0.00508876796812,0.0
1655121676100691916,37,1655121676100195884,/map,-0.0203338414431,0.0,1.45976066589,0.00412974087521,0.0
1655121676195729767,38,1655121676195305109,/map,-0.0203461796045,0.0,1.46008217335,0.00321453553624,0.0
1655121676297577727,39,1655121676296969890,/map,-0.0203597862273,0.0,1.46031630039,0.00234187603928,0.0
1655121676397065545,40,1655121676394541025,/map,-0.020374590531,0.0,1.46046745777,0.00151050765999,0.0
1655121676505084159,41,1655121676501782894,/map,-0.0203905198723,0.0,1.46053934097,0.00071919709444,0.0
1655121676601613846,42,1655121676601229906,/map,-0.0266248378903,0.0,1.46053600311,-3.32671370415e-05,0.0
1655121676695001686,43,1655121676694420099,/map,-0.0266414061189,0.0,1.46046113968,-0.000748074846342,0.0
1655121676796756070,44,1655121676796324014,/map,-0.0174408573657,0.0,1.46031856537,-0.00142639409751,0.0
1655121676892045509,45,1655121676891602039,/map,-0.0236679073423,0.0,1.46011161804,-0.00206937105395,0.0
1655121676998049885,46,1655121676997591018,/map,-0.0146391019225,0.0,1.45984375477,-0.00267812982202,0.0
1655121677101000304,47,1655121677100311040,/map,-0.0199205726385,0.0,1.45951843262,-0.00325377238914,0.0
1655121677198449321,48,1655121677197830915,/map,-0.00971459690481,0.0,1.45913863182,-0.00379737908952,0.0
1655121677302070722,49,1655121677301634073,/map,-0.0153855727986,0.0,1.45870769024,-0.00431000813842,0.0
1655121677391290223,50,1655121677390888929,/map,-0.0129217272624,0.0,1.45822846889,-0.00479269586504,0.0
1655121677499164106,51,1655121677498694896,/map,0.000434074230725,0.0,1.45770382881,-0.00524645624682,0.0
1655121677599535001,52,1655121677599059104,/map,-0.0080111566931,0.0,1.4571365118,-0.00567228207365,0.0
1655121677697525970,53,1655121677696985960,/map,-0.00870018824935,0.0,1.45652937889,-0.00607114471495,0.0
1655121677795711668,54,1655121677795133113,/map,-0.0486244261265,0.0,1.45588505268,-0.00644399272278,0.0
1655121677898262338,55,1655121677897680044,/map,-0.00683197006583,0.0,1.45520579815,-0.00679175462574,0.0
1655121677998314894,56,1655121677997787952,/map,-0.0116152707487,0.0,1.45449435711,-0.00711533660069,0.0
1655121678097316518,57,1655121678096462011,/map,-0.0220178961754,0.0,1.45375275612,-0.00741562386975,0.0
1655121678200078100,58,1655121678199502944,/map,-0.0287150517106,0.0,1.45298337936,-0.00769348116592,0.0
1655121678305443858,59,1655121678304903030,/map,-0.0278220679611,0.0,1.45218849182,-0.00794975273311,0.0
1655121678397671873,60,1655121678397274017,/map,-0.0130763035268,0.0,1.45136988163,-0.00818525999784,0.0
1655121678498792058,61,1655121678498265027,/map,-0.0233004260808,0.0,1.45052981377,-0.00840080715716,0.0
1655121678592778259,62,1655121678592324972,/map,-0.00405842065811,0.0,1.44967007637,-0.00859717652202,0.0
1655121678709670783,63,1655121678708945035,/map,-0.0264061596245,0.0,1.44879257679,-0.00877512991428,0.0
1655121678793051275,64,1655121678792532920,/map,-0.0464546084404,0.0,1.44789910316,-0.00893541052938,0.0
1655121678896840596,65,1655121678896301984,/map,-0.0279350001365,0.0,1.44699120522,-0.00907874200493,0.0
1655121678997441618,66,1655121678996872901,/map,0.00388392223977,0.0,1.44607055187,-0.0092058274895,0.0
1655121679100006335,67,1655121679099420070,/map,-0.00787702482194,0.0,1.44513881207,-0.00931735336781,0.0
1655121679197694510,68,1655121679197273015,/map,-0.00880436133593,0.0,1.44419741631,-0.0094139855355,0.0
1655121679303084533,69,1655121679302347898,/map,0.00773603934795,0.0,1.4432477951,-0.00949637126178,0.0
1655121679397676497,70,1655121679396570920,/map,-0.020517770201,0.0,1.44229125977,-0.00956514291465,0.0
1655121679506005397,71,1655121679505307912,/map,-0.033349160105,0.0,1.4413292408,-0.0096209095791,0.0
1655121679595101223,72,1655121679594530105,/map,-0.0165909808129,0.0,1.44036281109,-0.00966426730156,0.0
1655121679707371909,73,1655121679706875085,/map,-0.019951062277,0.0,1.43939316273,-0.00969579350203,0.0
1655121679798563489,74,1655121679798074007,/map,-0.0168567243963,0.0,1.43842160702,-0.00971604697406,0.0
1655121679897486469,75,1655121679897005081,/map,-0.0181965976954,0.0,1.43744909763,-0.00972557161003,0.0
1655121680004515564,76,1655121680003968954,/map,0.00757445348427,0.0,1.43647658825,-0.00972489453852,0.0
1655121680095477401,77,1655121680095020055,/map,-0.0155049143359,0.0,1.43550515175,-0.00971452705562,0.0
1655121680197685166,78,1655121680196940898,/map,-0.015890289098,0.0,1.4345356226,-0.0096949627623,0.0
1655121680301507376,79,1655121680300928115,/map,0.00772264879197,0.0,1.43356895447,-0.00966668128967,0.0
1655121680391845698,80,1655121680391308069,/map,0.00961117818952,0.0,1.43260598183,-0.00963014829904,0.0
1655121680502398256,81,1655121680501878976,/map,-0.00466895615682,0.0,1.43164730072,-0.00958581082523,0.0
1655121680597840037,82,1655121680597289085,/map,-0.00617722608149,0.0,1.43069398403,-0.00953410565853,0.0
1655121680700724067,83,1655121680700160980,/map,-0.010579594411,0.0,1.42974638939,-0.00947545096278,0.0
1655121680797833735,84,1655121680797390937,/map,-0.013717523776,0.0,1.42880535126,-0.00941025279462,0.0
1655121680893865183,85,1655121680893333911,/map,0.0160247571766,0.0,1.42787146568,-0.0093389051035,0.0
1655121680991655689,86,1655121680991271972,/map,-0.000784681295045,0.0,1.42694532871,-0.00926178600639,0.0
1655121681095906285,87,1655121681095340967,/map,-0.00386192137375,0.0,1.42602741718,-0.00917926058173,0.0
1655121681200369257,88,1655121681199702024,/map,-0.00441284943372,0.0,1.42511820793,-0.00909168273211,0.0
1655121681308733681,89,1655121681308165073,/map,0.000607196649071,0.0,1.424218297,-0.00899939145893,0.0
1655121681403468314,90,1655121681395981073,/map,0.437130361795,0.0,1.424218297,0.0,0.0
1655121681497886465,91,1655121681497390985,/map,0.00836244598031,0.0,1.42332804203,-0.00890271551907,0.0
1655121681605457927,92,1655121681604711055,/map,0.00626678718254,0.0,1.42244780064,-0.00880197156221,0.0
1655121681695598040,93,1655121681695189952,/map,-0.000166214944329,0.0,1.42157804966,-0.00869746133685,0.0
1655121681796046048,94,1655121681795510053,/map,0.0265762712806,0.0,1.42071914673,-0.00858948007226,0.0
1655121681961935333,95,1655121681961457967,/map,0.0135221602395,0.0,1.41987133026,-0.00847830809653,0.0
1655121682029783492,96,1655121682029006958,/map,0.376660972834,0.0,1.41987133026,0.0,0.0
1655121682103005712,97,1655121682102381944,/map,-0.0279039405286,0.0,1.41903483868,-0.00836421642452,0.0
1655121682196684375,98,1655121682196089982,/map,-0.0285359118134,0.0,1.41821014881,-0.00824746582657,0.0
1655121682302604549,99,1655121682302092075,/map,0.0446638576686,0.0,1.41739726067,-0.00812830403447,0.0
1655121682398861358,100,1655121682398346900,/map,0.0314497202635,0.0,1.41659653187,-0.0080069731921,0.0
1655121682500677341,101,1655121682499959945,/map,0.0489006116986,0.0,1.41580820084,-0.00788370147347,0.0
1655121682598398310,102,1655121682597902059,/map,0.060749001801,0.0,1.41503238678,-0.00775870960206,0.0
1655121682699019535,103,1655121682695780038,/map,0.12260209024,0.0,1.4142690897,-0.00763220852241,0.0
1655121682805998252,104,1655121682805391073,/map,0.0874215513468,0.0,1.41351866722,-0.00750440033153,0.0
1655121682913454769,105,1655121682906373977,/map,0.141959622502,0.0,1.41278111935,-0.00737547827885,0.0
1655121683001750566,106,1655121683001061916,/map,0.14165763557,0.0,1.41205656528,-0.00724562676623,0.0
1655121683099220834,107,1655121683098753929,/map,0.185906499624,0.0,1.41134500504,-0.00711502227932,0.0
1655121683204639854,108,1655121683203454971,/map,0.204940527678,0.0,1.41064667702,-0.00698383292183,0.0
1655121683300582046,109,1655121683299938917,/map,0.19554656744,0.0,1.40996146202,-0.00685221888125,0.0
1655121683405411749,110,1655121683404726028,/map,0.208122417331,0.0,1.40928947926,-0.0067203338258,0.0
1655121683497519692,111,1655121683496834039,/map,0.170843303204,0.0,1.40863060951,-0.00658832257614,0.0
1655121683599683253,112,1655121683599128961,/map,0.2222917974,0.0,1.407984972,-0.00645632343367,0.0
1655121683696207489,113,1655121683695715904,/map,0.280080527067,0.0,1.40735256672,-0.00632446771488,0.0
1655121683808043034,114,1655121683807245969,/map,0.25653514266,0.0,1.40673327446,-0.00619288068265,0.0
1655121683896522754,115,1655121683895839929,/map,0.425210297108,0.0,1.40673327446,0.0,0.0
1655121684019327750,116,1655121684018796920,/map,0.13952845335,0.0,1.40612709522,-0.00606168014929,0.0
1655121684101618026,117,1655121684100972890,/map,0.234362751245,0.0,1.4055339098,-0.0059309778735,0.0
1655121684197199298,118,1655121684196738004,/map,0.230694890022,0.0,1.40495383739,-0.00580087956041,0.0
1655121684306321218,119,1655121684305476903,/map,0.269311666489,0.0,1.4043867588,-0.00567148532718,0.0
1655121684408862873,120,1655121684408246994,/map,0.325527310371,0.0,1.40383243561,-0.00554288970307,0.0
1655121684503155055,121,1655121684502449989,/map,0.303963333368,0.0,1.40329086781,-0.00541518023238,0.0
1655121684607956848,122,1655121684607417106,/map,0.297918260098,0.0,1.4027620554,-0.00528844166547,0.0
1655121684700046334,123,1655121684699497938,/map,0.340823471546,0.0,1.40224575996,-0.00516275130212,0.0
1655121684802224628,124,1655121684801615953,/map,0.298114389181,0.0,1.40174198151,-0.00503818318248,0.0
1655121684914161803,125,1655121684904674053,/map,0.336744368076,0.0,1.40125048161,-0.00491480482742,0.0
1655121685007432526,126,1655121685006738901,/map,0.17767368257,0.0,1.40077126026,-0.00479268049821,0.0
1655121685094582321,127,1655121685093962907,/map,0.144028380513,0.0,1.40030407906,-0.00467186979949,0.0
1655121685208524823,128,1655121685208015918,/map,0.184625312686,0.0,1.39984881878,-0.00455242814496,0.0
1655121685308206492,129,1655121685307662963,/map,0.185305178165,0.0,1.39940536022,-0.00443440582603,0.0
1655121685404452701,130,1655121685403711080,/map,0.220630124211,0.0,1.39897358418,-0.00431785034016,0.0
1655121685502111326,131,1655121685501518011,/map,0.0384713597596,0.0,1.39855325222,-0.00420280452818,0.0
1655121685600302550,132,1655121685599709033,/map,0.0379766114056,0.0,1.39814436436,-0.00408930843696,0.0
1655121685703755754,133,1655121685702928066,/map,0.0395453870296,0.0,1.39774668217,-0.00397739745677,0.0
1655121685801260148,134,1655121685800662994,/map,0.254181623459,0.0,1.39735996723,-0.00386710511521,0.0
1655121685899022181,135,1655121685898328065,/map,-5.89190006256,0.0,1.39735996723,0.0,0.0
1655121686006908344,136,1655121686006283044,/map,-5.89190006256,0.0,1.39735996723,0.0,0.0
1655121686101665209,137,1655121686100857019,/map,0.254207700491,0.0,1.39698410034,-0.00375846005045,0.0
1655121686215176959,138,1655121686214534997,/map,0.272628396749,0.0,1.39661896229,-0.00365148880519,0.0
1655121686309147347,139,1655121686308505058,/map,0.289452254772,0.0,1.39626431465,-0.00354621466249,0.0
1655121686401457765,140,1655121686400978088,/map,0.283992618322,0.0,1.39592003822,-0.00344265811145,0.0
1655121686500669378,141,1655121686500082015,/map,0.386683315039,0.0,1.39558589458,-0.00334083661437,0.0
1655121686592269102,142,1655121686591890096,/map,0.386649996042,0.0,1.39526188374,-0.00324076530524,0.0
1655121686702647051,143,1655121686696995019,/map,0.370983362198,0.0,1.39494764805,-0.0031424567569,0.0
1655121686799132598,144,1655121686798702001,/map,0.442785143852,0.0,1.39464306831,-0.00304592144676,0.0
1655121686897053756,145,1655121686896723985,/map,0.349953174591,0.0,1.39434790611,-0.00295116682537,0.0
1655121687012247228,146,1655121687011683940,/map,0.373284131289,0.0,1.39406204224,-0.00285819871351,0.0
1655121687106539754,147,1655121687106091976,/map,-5.75863361359,0.0,1.39406204224,0.0,0.0
1655121687199202696,148,1655121687198746919,/map,-5.81205224991,0.0,1.39406204224,0.0,0.0
1655121687298352112,149,1655121687297863960,/map,-5.88102722168,0.0,1.39406204224,0.0,0.0
1655121687401031855,150,1655121687400609016,/map,-5.85676670074,0.0,1.39406204224,0.0,0.0
1655121687504982367,151,1655121687504213094,/map,0.201214581728,0.0,1.39378535748,-0.00276702083647,0.0
1655121687603420343,152,1655121687602792024,/map,0.242415323853,0.0,1.39351761341,-0.00267763482407,0.0
1655121687696822170,153,1655121687696351051,/map,0.233794599771,0.0,1.39325857162,-0.00259004044347,0.0
1655121687799325010,154,1655121687798803091,/map,0.286665797234,0.0,1.39325857162,0.0,0.0
1655121687913521665,155,1655121687912851095,/map,0.237237051129,0.0,1.39300823212,-0.00250423583202,0.0
1655121688003908622,156,1655121688003395080,/map,0.269022583961,0.0,1.39276623726,-0.00242021726444,0.0
1655121688095382251,157,1655121688094961881,/map,0.260433971882,0.0,1.39253234863,-0.00233797938563,0.0
1655121688213243449,158,1655121688212349891,/map,0.275521665812,0.0,1.39230668545,-0.00225751521066,0.0
1655121688306365179,159,1655121688305658102,/map,0.150376960635,0.0,1.39208877087,-0.00217881682329,0.0
1655121688413800220,160,1655121688413049936,/map,0.153333827853,0.0,1.39187860489,-0.00210187467746,0.0
1655121688505069361,161,1655121688504620075,/map,-0.0221352819353,0.0,1.3916759491,-0.00202667759731,0.0
1655121688607130409,162,1655121688606656074,/map,0.114225015044,0.0,1.39148056507,-0.00195321394131,0.0
1655121688716550308,163,1655121688715816020,/map,0.0836260914803,0.0,1.39129245281,-0.00188146997243,0.0
1655121688811305530,164,1655121688809902906,/map,0.00494048930705,0.0,1.39111125469,-0.00181143195368,0.0
1655121688911215369,165,1655121688910355091,/map,0.0183736346662,0.0,1.39093697071,-0.00174308428541,0.0
1655121689020361364,166,1655121689019714117,/map,0.214455395937,0.0,1.39076936245,-0.00167641090229,0.0
1655121689109346695,167,1655121689108640909,/map,0.156578972936,0.0,1.39060819149,-0.0016113948077,0.0
1655121689221924438,168,1655121689221162080,/map,0.145523145795,0.0,1.39045333862,-0.00154801807366,0.0
1655121689309460419,169,1655121689308834075,/map,0.191990435123,0.0,1.39030480385,-0.00148626219016,0.0
1655121689409429539,170,1655121689408849000,/map,0.180917963386,0.0,1.39016211033,-0.00142610794865,0.0
1655121689511450751,171,1655121689510458946,/map,0.250956952572,0.0,1.39002537727,-0.00136753520928,0.0
1655121689596989499,172,1655121689596309900,/map,0.0331419222057,0.0,1.39002537727,0.0,0.0
1655121689724626596,173,1655121689723537921,/map,0.361950874329,0.0,1.38989436626,-0.00131052359939,0.0
1655121689811844122,174,1655121689810976028,/map,0.388582259417,0.0,1.38976883888,-0.00125505193137,0.0
1655121689913148955,175,1655121689912530899,/map,0.428187340498,0.0,1.38964867592,-0.00120109890122,0.0
1655121690015153507,176,1655121690014163017,/map,0.381943613291,0.0,1.38953387737,-0.00114864250645,0.0
1655121690113072936,177,1655121690112376928,/map,0.556288659573,0.0,1.38942408562,-0.00109766016249,0.0
1655121690211891158,178,1655121690210501909,/map,0.368247926235,0.0,1.38931930065,-0.00104812928475,0.0
1655121690311457434,179,1655121690306341886,/map,0.393153339624,0.0,1.38921928406,-0.00100002682302,0.0
1655121690411293360,180,1655121690410697937,/map,0.398952126503,0.0,1.38912391663,-0.000953329494223,0.0
1655121690511889614,181,1655121690511120080,/map,0.338682591915,0.0,1.38903319836,-0.000908013724256,0.0
1655121690608295172,182,1655121690607562065,/map,0.356063216925,0.0,1.38894677162,-0.00086405564798,0.0
1655121690719283695,183,1655121690718260049,/map,0.322488695383,0.0,1.38886463642,-0.000821431458462,0.0
1655121690813681383,184,1655121690812722921,/map,0.106452345848,0.0,1.38878655434,-0.00078011705773,0.0
1655121690913020094,185,1655121690912225961,/map,0.103643931448,0.0,1.38871264458,-0.000740088289604,0.0
1655121691013816605,186,1655121691012746095,/map,0.13344784081,0.0,1.38864243031,-0.000701320823282,0.0
1655121691116432461,187,1655121691115737915,/map,0.346783667803,0.0,1.38857603073,-0.000663790444378,0.0
1655121691214099240,188,1655121691213248968,/map,0.0658105760813,0.0,1.38851332664,-0.000627472763881,0.0
1655121691314508717,189,1655121691313525915,/map,0.0850484892726,0.0,1.38845407963,-0.000592343509197,0.0
1655121691418516097,190,1655121691417768955,/map,0.0420555509627,0.0,1.38839828968,-0.000558378349524,0.0
1655121691516113564,191,1655121691515374898,/map,0.103408619761,0.0,1.38834571838,-0.000525553070474,0.0
1655121691611936606,192,1655121691611216068,/map,0.111002758145,0.0,1.38829636574,-0.000493843515869,0.0
1655121691712331958,193,1655121691711498975,/map,0.142836838961,0.0,1.38824999332,-0.000463225616841,0.0
1655121691817448261,194,1655121691816684007,/map,0.097324475646,0.0,1.38820660114,-0.000433675362729,0.0
1655121691907131304,195,1655121691906321048,/map,0.172701716423,0.0,1.38816606998,-0.000405168975703,0.0
1655121692019290692,196,1655121692018548965,/map,0.148954242468,0.0,1.38812828064,-0.00037768270704,0.0
1655121692113585659,197,1655121692112907886,/map,0.111312687397,0.0,1.38809323311,-0.000351193069946,0.0
1655121692212248699,198,1655121692211630105,/map,0.159369453788,0.0,1.38806068897,-0.000325676752254,0.0
1655121692402430210,199,1655121692401751995,/map,0.15069873631,0.0,1.38803052902,-0.000301110529108,0.0
1655121692496363209,200,1655121692494739055,/map,0.0939477160573,0.0,1.38800275326,-0.000277471554,0.0
1655121692585581020,201,1655121692584882974,/map,0.0930443033576,0.0,1.38797736168,-0.000254737009527,0.0
1655121692672303170,202,1655121692671499013,/map,0.111999765038,0.0,1.38795399666,-0.00023288448574,0.0
1655121692757215504,203,1655121692756177902,/map,0.0554657429457,0.0,1.38793289661,-0.000211891689105,0.0
1655121692843437615,204,1655121692841305971,/map,0.0516188368201,0.0,1.38791370392,-0.000191736646229,0.0
1655121692926860496,205,1655121692926135063,/map,0.0608828663826,0.0,1.38789641857,-0.000172397631104,0.0
1655121693014958068,206,1655121693014185905,/map,0.0608823783696,0.0,1.38788104057,-0.00015385315055,0.0
1655121693125217487,207,1655121693124470949,/map,0.0712893977761,0.0,1.38786745071,-0.000136082046083,0.0
1655121693214629937,208,1655121693213926076,/map,0.0898405686021,0.0,1.38785552979,-0.000119063421153,0.0
1655121693313400837,209,1655121693312655925,/map,0.115493454039,0.0,1.38784527779,-0.000102776655694,0.0
1655121693423285488,210,1655121693422612905,/map,0.102897956967,0.0,1.38783657551,-8.72014570632e-05,0.0
1655121693518120773,211,1655121693517141103,/map,0.0973998755217,0.0,1.38782930374,-7.23178163753e-05,0.0
1655121693612937870,212,1655121693612255096,/map,0.09896273911,0.0,1.38782346249,-5.81060376135e-05,0.0
1655121693724450527,213,1655121693723809003,/map,0.0986859723926,0.0,1.38781905174,-4.45467449026e-05,0.0
1655121693815608473,214,1655121693814877986,/map,0.0727316215634,0.0,1.38781583309,-3.16208679578e-05,0.0
1655121693919876859,215,1655121693919156074,/map,0.0377964302897,0.0,1.38781392574,-1.93096620933e-05,0.0
1655121694017267775,216,1655121694016690015,/map,0.062444049865,0.0,1.38781321049,-7.59470958656e-06,0.0
1655121694113867330,217,1655121694113190889,/map,0.0631390884519,0.0,1.38781356812,3.54209055331e-06,0.0
1655121694218639046,218,1655121694217693090,/map,0.0775953829288,0.0,1.38781499863,1.41185082612e-05,0.0
1655121694318510274,219,1655121694317730903,/map,0.124974265695,0.0,1.38781738281,2.41519865085e-05,0.0
1655121694415747122,220,1655121694415005922,/map,0.158712938428,0.0,1.38782072067,3.3659638575e-05,0.0
1655121694525920948,221,1655121694525254964,/map,0.173998638988,0.0,1.38782501221,4.2658251914e-05,0.0
1655121694623488236,222,1655121694622668981,/map,0.167553782463,0.0,1.38783013821,5.11642720085e-05,0.0
1655121694720425619,223,1655121694719299077,/map,0.166751697659,0.0,1.38783597946,5.91938296566e-05,0.0
1655121694816636037,224,1655121694815857887,/map,0.110372193158,0.0,1.38784265518,6.67627100484e-05,0.0
1655121694942842929,225,1655121694941716909,/map,0.095934741199,0.0,1.38785004616,7.38863891456e-05,0.0
1655121695037627710,226,1655121695036910057,/map,0.0831825435162,0.0,1.38785815239,8.05800009402e-05,0.0
1655121695122063747,227,1655121695121236085,/map,0.0713942945004,0.0,1.38786685467,8.685834473e-05,0.0
1655121695215022138,228,1655121695214099884,/map,0.0713939070702,0.0,1.38787615299,9.27359142224e-05,0.0
1655121695315606690,229,1655121695314898014,/map,0.0916327610612,0.0,1.38788592815,9.8226875707e-05,0.0
1655121695416192686,230,1655121695415359020,/map,0.0828202739358,0.0,1.38789629936,0.000103345053503,0.0
1655121695514584264,231,1655121695513833045,/map,0.124594576657,0.0,1.3879070282,0.000108103988168,0.0
1655121695619532332,232,1655121695618635892,/map,0.129927828908,0.0,1.38791835308,0.000112516863737,0.0
1655121695716826666,233,1655121695715825080,/map,0.11548923701,0.0,1.38793003559,0.000116596580483,0.0
1655121695815238091,234,1655121695811420917,/map,0.140295162797,0.0,1.38794207573,0.00012035571126,0.0
1655121695915140949,235,1655121695910037040,/map,0.116377897561,0.0,1.38795435429,0.00012380653061,0.0
1655121696020307278,236,1655121696019417047,/map,0.117630958557,0.0,1.38796710968,0.000126961007481,0.0
1655121696115431742,237,1655121696114705085,/map,0.0914973393083,0.0,1.38798010349,0.000129830805236,0.0
1655121696216173203,238,1655121696215557098,/map,0.0508559532464,0.0,1.38799333572,0.000132427274366,0.0
1655121696319768603,239,1655121696318875074,/map,0.067458845675,0.0,1.38800680637,0.00013476148888,0.0
1655121696419838998,240,1655121696419121980,/map,0.0551472716033,0.0,1.38802051544,0.000136844231747,0.0
1655121696522408993,241,1655121696521764039,/map,0.0774594917893,0.0,1.38803434372,0.000138685994898,0.0
1655121696620332777,242,1655121696619697093,/map,-0.0238304939121,0.0,1.38804841042,0.000140296993777,0.0
1655121696717591460,243,1655121696716876983,/map,0.0366335809231,0.0,1.38806259632,0.000141687138239,0.0
1655121696812947661,244,1655121696811902999,/map,-0.039824668318,0.0,1.38807690144,0.000142866076203,0.0
1655121696912738882,245,1655121696912130117,/map,-0.0219275169075,0.0,1.38809120655,0.000143843222759,0.0
1655121697017617747,246,1655121697016839027,/map,-0.00956962071359,0.0,1.38810575008,0.000144627658301,0.0
1655121697120127940,247,1655121697119385004,/map,-0.0203886628151,0.0,1.38812017441,0.000145228244946,0.0
1655121697214733284,248,1655121697213989019,/map,-0.0564259067178,0.0,1.38813483715,0.000145653568325,0.0
1655121697314475939,249,1655121697313519001,/map,0.025499323383,0.0,1.38814938068,0.000145911981235,0.0
1655121697421164127,250,1655121697420408964,/map,0.0254979711026,0.0,1.38816392422,0.000146011559991,0.0
1655121697517235566,251,1655121697516475915,/map,0.0785614773631,0.0,1.38817858696,0.000145960148075,0.0
1655121697614539319,252,1655121697613188028,/map,0.0559074021876,0.0,1.38819313049,0.000145765341586,0.0
1655121697712528957,253,1655121697711389064,/map,0.0522534437478,0.0,1.38820767403,0.000145434503793,0.0
1655121697814228940,254,1655121697813210964,/map,-0.0685377269983,0.0,1.38822221756,0.000144974794239,0.0
1655121697914843789,255,1655121697914113044,/map,-0.063818141818,0.0,1.38823664188,0.000144393081428,0.0
1655121698021898899,256,1655121698021168947,/map,-0.0248901043087,0.0,1.388250947,0.00014369605924,0.0
1655121698122568305,257,1655121698121599912,/map,-0.110568858683,0.0,1.38826525211,0.000142890203279,0.0
1655121698218410853,258,1655121698217576980,/map,-0.031628806144,0.0,1.38827943802,0.000141981741763,0.0
1655121698317174331,259,1655121698314366102,/map,-0.127700001001,0.0,1.38829362392,0.000140976713737,0.0
1655121698413834859,260,1655121698413086891,/map,-0.227577030659,0.0,1.38830757141,0.000139880969073,0.0
1655121698527860428,261,1655121698527018070,/map,-0.0985588207841,0.0,1.38832139969,0.00013870013936,0.0
1655121698625648986,262,1655121698624722003,/map,-0.135968849063,0.0,1.38833522797,0.000137439637911,0.0
1655121698719754534,263,1655121698718884944,/map,-0.146111667156,0.0,1.38834881783,0.000136104732519,0.0
1655121698819875917,264,1655121698819096088,/map,-0.100123748183,0.0,1.38836228848,0.000134700458148,0.0
1655121698920936672,265,1655121698920118093,/map,0.0301175173372,0.0,1.38837563992,0.00013323170424,0.0
1655121699021559417,266,1655121699018973112,/map,-0.149617865682,0.0,1.38838875294,0.000131703156512,0.0
1655121699140373517,267,1655121699139293909,/map,-0.0226131118834,0.0,1.38840174675,0.000130119326059,0.0
1655121699234773860,268,1655121699228681087,/map,0.115835815668,0.0,1.38841462135,0.000128484563902,0.0
1655121699338373056,269,1655121699337212085,/map,0.115836568177,0.0,1.38842725754,0.000126803060994,0.0
1655121699433383251,270,1655121699432652950,/map,0.115837313235,0.0,1.38843977451,0.000125078833662,0.0
1655121699528841093,271,1655121699528059005,/map,0.115838043392,0.0,1.38845217228,0.000123315738165,0.0
1655121699622275550,272,1655121699621037006,/map,0.115838766098,0.0,1.38846433163,0.000121517477965,0.0
1655121699735502874,273,1655121699734728097,/map,0.115839473903,0.0,1.38847625256,0.00011968761828,0.0
1655121699829018521,274,1655121699828380107,/map,0.115840174258,0.0,1.38848805428,0.00011782956426,0.0
1655121699920882153,275,1655121699919908046,/map,0.115840859711,0.0,1.38849961758,0.000115946575534,0.0
1655121700018252039,276,1655121700017570972,/map,0.115841530263,0.0,1.38851106167,0.000114041795314,0.0
1655121700134006015,277,1655121700129062891,/map,0.115842193365,0.0,1.38852226734,0.00011211821402,0.0
1655121700239891551,278,1655121700238203048,/map,0.115842841566,0.0,1.3885332346,0.000110178691102,0.0
1655121700336744647,279,1655121700335956096,/map,0.115843482316,0.0,1.38854408264,0.000108225962322,0.0
1655121700430551440,280,1655121700429430007,/map,0.115844108164,0.0,1.38855469227,0.000106262647023,0.0
1655121700521642340,281,1655121700520661115,/map,0.115844719112,0.0,1.38856518269,0.000104291240859,0.0
1655121700624069677,282,1655121700623327970,/map,0.115845322609,0.0,1.38857543468,0.000102314108517,0.0
1655121700728668864,283,1655121700727816104,/map,0.115845911205,0.0,1.38858544827,0.000100333512819,0.0
1655121700824722439,284,1655121700823781967,/map,0.1158464849,0.0,1.38859522343,9.83516220003e-05,0.0
1655121700923422242,285,1655121700922554016,/map,0.115847051144,0.0,1.38860487938,9.63704733294e-05,0.0
