%time,field.header.seq,field.header.stamp,field.header.frame_id,field.drive.steering_angle,field.drive.steering_angle_velocity,field.drive.speed,field.drive.acceleration,field.drive.jerk
1655121078335970569,1,1655121078335275888,/map,-0.0567949190736,0.0,1.15708756447,0.151861712337,0.0
1655121078428144594,2,1655121078427678108,/map,-0.0561207346618,0.0,1.17174625397,0.146586641669,0.0
1655121078522845185,3,1655121078522454977,/map,-0.0554848685861,0.0,1.18588912487,0.141428738832,0.0
1655121078620561116,4,1655121078620156049,/map,-0.0548851490021,0.0,1.19952785969,0.13638728857,0.0
1655121078722829155,5,1655121078722436904,/map,-0.0543195642531,0.0,1.21267402172,0.131461545825,0.0
1655121078822450008,6,1655121078821949958,/map,-0.0537862405181,0.0,1.22533905506,0.126650616527,0.0
1655121078923889586,7,1655121078923454046,/map,-0.0532834380865,0.0,1.2375344038,0.121953576803,0.0
1655121079026303159,8,1655121079025839090,/map,-0.0528095290065,0.0,1.24927139282,0.117369443178,0.0
1655121079122930983,9,1655121079122488021,/map,-0.0523629970849,0.0,1.26056110859,0.112897150218,0.0
1655121079224093696,10,1655121079223428964,/map,-0.0519424192607,0.0,1.27141463757,0.108535565436,0.0
1655121079324973632,11,1655121079324548959,/map,-0.0515464656055,0.0,1.28184294701,0.10428353399,0.0
1655121079417871958,12,1655121079417438030,/map,-0.0511738955975,0.0,1.29185700417,0.100139811635,0.0
1655121079526060425,13,1655121079525635004,/map,-0.0508235320449,0.0,1.30146729946,0.0961031466722,0.0
1655121079628210142,14,1655121079627763032,/map,-0.0203435663134,0.0,1.31068444252,0.0921722054482,0.0
1655121079724774695,15,1655121079724302053,/map,-0.0202119685709,0.0,1.31951904297,0.0883456394076,0.0
1655121079822081782,16,1655121079821610927,/map,-0.0498950146139,0.0,1.3279812336,0.0846220552921,0.0
1655121079927285992,17,1655121079926672935,/map,-0.0496231094003,0.0,1.3360812664,0.0810000225902,0.0
1655121080028073528,18,1655121080027621984,/map,-0.0493685118854,0.0,1.34382903576,0.0774781033397,0.0
1655121080126394507,19,1655121080125863075,/map,-0.0491304025054,0.0,1.35123455524,0.0740547925234,0.0
1655121080227070308,20,1655121080226471900,/map,-0.0489079989493,0.0,1.3583073616,0.0707286000252,0.0
1655121080324127565,21,1655121080323558092,/map,-0.0487005710602,0.0,1.36505723,0.0674979835749,0.0
1655121080423080882,22,1655121080422607898,/map,-0.0485074147582,0.0,1.37149333954,0.0643614009023,0.0
1655121080524319861,23,1655121080523837089,/map,-0.0205201022327,0.0,1.37762510777,0.0613172836602,0.0
1655121080625143539,24,1655121080624639987,/map,-0.0204352829605,0.0,1.38346147537,0.0583640597761,0.0
1655121080724317114,25,1655121080723860979,/map,-0.0203563645482,0.0,1.38901150227,0.0555001311004,0.0
1655121080827453030,26,1655121080827033996,/map,-0.0202830731869,0.0,1.39428389072,0.0527238957584,0.0
1655121080928245955,27,1655121080927826881,/map,-0.0202151443809,0.0,1.39928722382,0.0500337518752,0.0
1655121081024081723,28,1655121081023612022,/map,-0.0201523248106,0.0,1.40403008461,0.0474280826747,0.0
1655121081123551873,29,1655121081123013019,/map,-0.02009437792,0.0,1.40852057934,0.0449052639306,0.0
1655121081232798057,30,1655121081232239007,/map,-0.0200410783291,0.0,1.41276693344,0.0424636863172,0.0
1655121081323116463,31,1655121081322644948,/map,-0.0199922081083,0.0,1.41677713394,0.0401017181575,0.0
1655121081423201019,32,1655121081422708034,/map,-0.0199475623667,0.0,1.42055892944,0.0378177501261,0.0
1655121081523871293,33,1655121081523339033,/map,-0.0199069455266,0.0,1.42411994934,0.0356101617217,0.0
1655121081631936433,34,1655121081631505012,/map,-0.0198701713234,0.0,1.42746770382,0.0334773436189,0.0
1655121081729430444,35,1655121081729029893,/map,-0.0198370609432,0.0,1.43060946465,0.0314176902175,0.0
1655121081823360594,36,1655121081822947025,/map,-0.0198074411601,0.0,1.43355238438,0.0294295996428,0.0
1655121081922801640,37,1655121081922240972,/map,-0.0197811517864,0.0,1.43630349636,0.027511484921,0.0
1655121082024067600,38,1655121082023544073,/map,-0.0197580363601,0.0,1.43886971474,0.0256617628038,0.0
1655121082126640336,39,1655121082126219987,/map,-0.0197379458696,0.0,1.44125759602,0.0238788668066,0.0
1655121082226904841,40,1655121082226371049,/map,-0.0197207350284,0.0,1.44347369671,0.0221612360328,0.0
1655121082324698501,41,1655121082324239969,/map,-0.0197062697262,0.0,1.44552445412,0.0205073263496,0.0
1655121082427463205,42,1655121082426943063,/map,-0.0196944177151,0.0,1.44741606712,0.0189156048,0.0
1655121082524178262,43,1655121082523690938,/map,-0.0196850504726,0.0,1.44915449619,0.0173845533282,0.0
1655121082626294662,44,1655121082625823020,/map,-0.0196780506521,0.0,1.45074570179,0.0159126687795,0.0
1655121082723289239,45,1655121082722867965,/map,-0.019673300907,0.0,1.45219564438,0.0144984666258,0.0
1655121082822841483,46,1655121082822341918,/map,-0.0196706894785,0.0,1.45350968838,0.0131404763088,0.0
1655121082925786431,47,1655121082925313949,/map,-0.0196701083332,0.0,1.45469331741,0.0118372449651,0.0
1655121083021816224,48,1655121083021209001,/map,-0.0196714568883,0.0,1.45575213432,0.0105873383582,0.0
1655121083125504072,49,1655121083125056982,/map,-0.0196746345609,0.0,1.45669102669,0.00938933901489,0.0
1655121083241304721,50,1655121083240566968,/map,-0.0196795444936,0.0,1.45751523972,0.00824185088277,0.0
1655121083328958619,51,1655121083328582048,/map,-0.0196860991418,0.0,1.45822954178,0.00714349467307,0.0
1655121083426175515,52,1655121083425721883,/map,-0.0196942053735,0.0,1.45883882046,0.00609291298315,0.0
1655121083532934309,53,1655121083532447099,/map,-0.0197037830949,0.0,1.45934772491,0.00508876796812,0.0
1655121083625538930,54,1655121083625089883,/map,-0.0200239121914,0.0,1.45976066589,0.00412974087521,0.0
1655121083727712251,55,1655121083727267980,/map,-0.0200362224132,0.0,1.46008217335,0.00321453553624,0.0
1655121083827027907,56,1655121083826391935,/map,-0.0200497787446,0.0,1.46031630039,0.00234187603928,0.0
1655121083923677778,57,1655121083923197031,/map,-0.0200645104051,0.0,1.46046745777,0.00151050765999,0.0
1655121084022772164,58,1655121084022319078,/map,-0.0200803447515,0.0,1.46053934097,0.00071919709444,0.0
1655121084124356366,59,1655121084123936891,/map,-0.0200972110033,0.0,1.46053600311,-3.32671370415e-05,0.0
1655121084240155495,60,1655121084230632066,/map,-0.0201150495559,0.0,1.46046113968,-0.000748074846342,0.0
1655121084331433746,61,1655121084331001996,/map,-0.0201337914914,0.0,1.46031856537,-0.00142639409751,0.0
1655121084422524881,62,1655121084422063112,/map,-0.0201533790678,0.0,1.46011161804,-0.00206937105395,0.0
1655121084531472641,63,1655121084530951976,/map,-0.0201737526804,0.0,1.45984375477,-0.00267812982202,0.0
1655121084622986601,64,1655121084622487068,/map,-0.0263595692813,0.0,1.45951843262,-0.00325377238914,0.0
1655121084726311311,65,1655121084725800037,/map,-0.01723757945,0.0,1.45913863182,-0.00379737908952,0.0
1655121084828892119,66,1655121084828289031,/map,-0.0234164465219,0.0,1.45870769024,-0.00431000813842,0.0
1655121084926298361,67,1655121084925762891,/map,-0.0144626069814,0.0,1.45822846889,-0.00479269586504,0.0
1655121085023873023,68,1655121085023505926,/map,-0.0144866881892,0.0,1.45770382881,-0.00524645624682,0.0
1655121085124592940,69,1655121085124017953,/map,-0.0197327863425,0.0,1.4571365118,-0.00567228207365,0.0
1655121085224303736,70,1655121085223874092,/map,-0.0152112077922,0.0,1.45652937889,-0.00607114471495,0.0
1655121085323617293,71,1655121085323128938,/map,-0.0152353299782,0.0,1.45588505268,-0.00644399272278,0.0
1655121085423906860,72,1655121085423356056,/map,-0.0127922045067,0.0,1.45520579815,-0.00679175462574,0.0
1655121085533033758,73,1655121085526413917,/map,-0.00789580307901,0.0,1.45449435711,-0.00711533660069,0.0
1655121085626480843,74,1655121085621697902,/map,-0.00792073085904,0.0,1.45375275612,-0.00741562386975,0.0
1655121085725436729,75,1655121085724875926,/map,-0.00860531907529,0.0,1.45298337936,-0.00769348116592,0.0
1655121085822056731,76,1655121085821573972,/map,-0.0067260642536,0.0,1.45218849182,-0.00794975273311,0.0
1655121085926349248,77,1655121085925854921,/map,-0.00675130728632,0.0,1.45136988163,-0.00818525999784,0.0
1655121086022966255,78,1655121086022401094,/map,-0.0114998118952,0.0,1.45052981377,-0.00840080715716,0.0
1655121086125587170,79,1655121086125026941,/map,-0.0218469388783,0.0,1.44967007637,-0.00859717652202,0.0
1655121086238425053,80,1655121086237912893,/map,-0.0284858364612,0.0,1.44879257679,-0.00877512991428,0.0
1655121086345373863,81,1655121086344645023,/map,-0.0276020932943,0.0,1.44789910316,-0.00893541052938,0.0
1655121086433644367,82,1655121086433017969,/map,-0.0230718664825,0.0,1.44699120522,-0.00907874200493,0.0
1655121086530130237,83,1655121086529586076,/map,-0.0231218952686,0.0,1.44607055187,-0.0092058274895,0.0
1655121086626434463,84,1655121086625778913,/map,-0.0039983461611,0.0,1.44513881207,-0.00931735336781,0.0
1655121086734878665,85,1655121086734369993,/map,-0.0262008141726,0.0,1.44419741631,-0.0094139855355,0.0
1655121086829152711,86,1655121086828706026,/map,-0.0304253287613,0.0,1.4432477951,-0.00949637126178,0.0
1655121086926958500,87,1655121086926476001,/map,-0.0277157090604,0.0,1.44229125977,-0.00956514291465,0.0
1655121087025592079,88,1655121087025027990,/map,-0.0118981888518,0.0,1.4413292408,-0.0096209095791,0.0
1655121087128483349,89,1655121087128061056,/map,-0.0319851711392,0.0,1.44036281109,-0.00966426730156,0.0
1655121087236316962,90,1655121087235570907,/map,-0.00870761089027,0.0,1.43939316273,-0.00969579350203,0.0
1655121087332594436,91,1655121087332073926,/map,-0.0203138235956,0.0,1.43842160702,-0.00971604697406,0.0
1655121087428238489,92,1655121087427741050,/map,-0.0203582085669,0.0,1.43744909763,-0.00972557161003,0.0
1655121087528263211,93,1655121087527702093,/map,-0.0330765768886,0.0,1.43647658825,-0.00972489453852,0.0
1655121087626201248,94,1655121087625637054,/map,-0.0164618548006,0.0,1.43550515175,-0.00971452705562,0.0
1655121087727784985,95,1655121087727317094,/map,-0.0197911802679,0.0,1.4345356226,-0.0096949627623,0.0
1655121087829315154,96,1655121087828639030,/map,0.00069729774259,0.0,1.43356895447,-0.00966668128967,0.0
1655121087927681310,97,1655121087927083015,/map,-0.0180480182171,0.0,1.43260598183,-0.00963014829904,0.0
1655121088025012503,98,1655121088024271011,/map,0.00757253356278,0.0,1.43164730072,-0.00958581082523,0.0
1655121088124665610,99,1655121088124177932,/map,-0.0153756458312,0.0,1.43069398403,-0.00953410565853,0.0
1655121088226597584,100,1655121088226079940,/map,0.00773414969444,0.0,1.42974638939,-0.00947545096278,0.0
1655121088323098930,101,1655121088322679042,/map,0.00961257331073,0.0,1.42880535126,-0.00941025279462,0.0
1655121088422233101,102,1655121088421797037,/map,0.00959832407534,0.0,1.42787146568,-0.0093389051035,0.0
1655121088525527826,103,1655121088524976968,/map,-0.00462433043867,0.0,1.42694532871,-0.00926178600639,0.0
1655121088627986709,104,1655121088627419948,/map,-0.00611710874364,0.0,1.42602741718,-0.00917926058173,0.0
1655121088723973662,105,1655121088723294019,/map,-0.0104792164639,0.0,1.42511820793,-0.00909168273211,0.0
1655121088824670622,106,1655121088824098110,/map,-0.0135891595855,0.0,1.424218297,-0.00899939145893,0.0
1655121088920394929,107,1655121088919894933,/map,0.00906540732831,0.0,1.42332804203,-0.00890271551907,0.0
1655121089021409281,108,1655121089020930051,/map,0.00906040798873,0.0,1.42244780064,-0.00880197156221,0.0
1655121089129913920,109,1655121089129338979,/map,-0.00432696891949,0.0,1.42157804966,-0.00869746133685,0.0
1655121089223684952,110,1655121089223208904,/map,-0.00435473117977,0.0,1.42071914673,-0.00858948007226,0.0
1655121089325340480,111,1655121089324801921,/map,0.000623449974228,0.0,1.41987133026,-0.00847830809653,0.0
1655121089422251322,112,1655121089421755075,/map,0.437130361795,0.0,1.41987133026,0.0,0.0
1655121089528199942,113,1655121089527528047,/map,0.00829807203263,0.0,1.41903483868,-0.00836421642452,0.0
1655121089626596766,114,1655121089626034021,/map,0.00623855367303,0.0,1.41821014881,-0.00824746582657,0.0
1655121089727783021,115,1655121089727327108,/map,-0.00014011557505,0.0,1.41739726067,-0.00812830403447,0.0
1655121089825573620,116,1655121089825124025,/map,0.0263838917017,0.0,1.41659653187,-0.0080069731921,0.0
1655121089926581579,117,1655121089926136970,/map,0.0132715757936,0.0,1.41580820084,-0.00788370147347,0.0
1655121090023678818,118,1655121090023040056,/map,0.371132284403,0.0,1.41580820084,0.0,0.0
1655121090123717631,119,1655121090123231887,/map,0.376660972834,0.0,1.41580820084,0.0,0.0
1655121090228211669,120,1655121090227502107,/map,-0.0276498645544,0.0,1.41503238678,-0.00775870960206,0.0
1655121090325879601,121,1655121090325428962,/map,0.0444618053734,0.0,1.4142690897,-0.00763220852241,0.0
1655121090432485209,122,1655121090431894063,/map,0.0313122272491,0.0,1.41351866722,-0.00750440033153,0.0
1655121090527830026,123,1655121090527062892,/map,0.048448625952,0.0,1.41278111935,-0.00737547827885,0.0
1655121090625542023,124,1655121090625031948,/map,0.0601156465709,0.0,1.41205656528,-0.00724562676623,0.0
1655121090730118506,125,1655121090729527950,/map,0.132137328386,0.0,1.41134500504,-0.00711502227932,0.0
1655121090826400760,126,1655121090825984954,/map,0.119673080742,0.0,1.41064667702,-0.00698383292183,0.0
1655121090932931269,127,1655121090932353019,/map,0.140457540751,0.0,1.40996146202,-0.00685221888125,0.0
1655121091029094956,128,1655121091028583049,/map,0.140332266688,0.0,1.40928947926,-0.0067203338258,0.0
1655121091128257810,129,1655121091127701997,/map,0.18381126225,0.0,1.40863060951,-0.00658832257614,0.0
1655121091225761774,130,1655121091225222110,/map,0.202650621533,0.0,1.407984972,-0.00645632343367,0.0
1655121091326846257,131,1655121091326333045,/map,0.190009012818,0.0,1.40735256672,-0.00632446771488,0.0
1655121091429486592,132,1655121091428947925,/map,0.205681100488,0.0,1.40673327446,-0.00619288068265,0.0
1655121091525715558,133,1655121091525166988,/map,0.165466189384,0.0,1.40612709522,-0.00606168014929,0.0
1655121091630344763,134,1655121091629811048,/map,0.214607954025,0.0,1.4055339098,-0.0059309778735,0.0
1655121091725536729,135,1655121091725071907,/map,0.271793693304,0.0,1.40495383739,-0.00580087956041,0.0
1655121091830629909,136,1655121091830037117,/map,0.245058894157,0.0,1.4043867588,-0.00567148532718,0.0
1655121091928840539,137,1655121091928010940,/map,0.425210297108,0.0,1.4043867588,0.0,0.0
1655121092027441618,138,1655121092026891946,/map,0.13839495182,0.0,1.40383243561,-0.00554288970307,0.0
1655121092129420156,139,1655121092128923892,/map,0.232599645853,0.0,1.40329086781,-0.00541518023238,0.0
1655121092224607836,140,1655121092224231958,/map,0.229037478566,0.0,1.4027620554,-0.00528844166547,0.0
1655121092334274590,141,1655121092333755970,/map,0.265145868063,0.0,1.40224575996,-0.00516275130212,0.0
1655121092425468548,142,1655121092425009965,/map,0.318876087666,0.0,1.40174198151,-0.00503818318248,0.0
1655121092527855303,143,1655121092527318954,/map,0.29881504178,0.0,1.40125048161,-0.00491480482742,0.0
1655121092634133944,144,1655121092633213043,/map,0.292063593864,0.0,1.40077126026,-0.00479268049821,0.0
1655121092734501505,145,1655121092734005928,/map,0.333316385746,0.0,1.40030407906,-0.00467186979949,0.0
1655121092830993074,146,1655121092830555915,/map,0.282854527235,0.0,1.39984881878,-0.00455242814496,0.0
1655121092933476538,147,1655121092932749032,/map,0.323881357908,0.0,1.39940536022,-0.00443440582603,0.0
1655121093028754532,148,1655121093028126955,/map,0.166329681873,0.0,1.39897358418,-0.00431785034016,0.0
1655121093125663219,149,1655121093125142097,/map,0.133315190673,0.0,1.39855325222,-0.00420280452818,0.0
1655121093230175902,150,1655121093229357957,/map,0.171798497438,0.0,1.39814436436,-0.00408930843696,0.0
1655121093329656193,151,1655121093328768968,/map,0.17139685154,0.0,1.39774668217,-0.00397739745677,0.0
1655121093428883899,152,1655121093428150892,/map,0.208473592997,0.0,1.39735996723,-0.00386710511521,0.0
1655121093528256266,153,1655121093527798891,/map,0.0377880595624,0.0,1.39698410034,-0.00375846005045,0.0
1655121093631383150,154,1655121093630749940,/map,0.0384236425161,0.0,1.39661896229,-0.00365148880519,0.0
1655121093730541022,155,1655121093729938983,/map,0.0384186133742,0.0,1.39626431465,-0.00354621466249,0.0
1655121093829019288,156,1655121093828289031,/map,0.255571931601,0.0,1.39592003822,-0.00344265811145,0.0
1655121093926911700,157,1655121093926296949,/map,-5.89190006256,0.0,1.39592003822,0.0,0.0
1655121094025411930,158,1655121094024693965,/map,-5.89190006256,0.0,1.39592003822,0.0,0.0
1655121094133377132,159,1655121094132703065,/map,0.249879300594,0.0,1.39558589458,-0.00334083661437,0.0
1655121094229014025,160,1655121094228423118,/map,0.267734885216,0.0,1.39526188374,-0.00324076530524,0.0
1655121094333652003,161,1655121094333086967,/map,0.283654600382,0.0,1.39494764805,-0.0031424567569,0.0
1655121094425420130,162,1655121094424866914,/map,0.271639913321,0.0,1.39464306831,-0.00304592144676,0.0
1655121094523050896,163,1655121094522589921,/map,0.369548887014,0.0,1.39434790611,-0.00295116682537,0.0
1655121094622885155,164,1655121094622458934,/map,0.357989668846,0.0,1.39406204224,-0.00285819871351,0.0
1655121094728499177,165,1655121094728028059,/map,0.357971221209,0.0,1.39378535748,-0.00276702083647,0.0
1655121094827847847,166,1655121094827421903,/map,0.424890249968,0.0,1.39351761341,-0.00267763482407,0.0
1655121094928255821,167,1655121094927591085,/map,0.333224713802,0.0,1.39325857162,-0.00259004044347,0.0
1655121095023459291,168,1655121095023046016,/map,0.356020212173,0.0,1.39300823212,-0.00250423583202,0.0
1655121095138201424,169,1655121095133169889,/map,-5.75863361359,0.0,1.39300823212,0.0,0.0
1655121095224352194,170,1655121095223866939,/map,-5.81205224991,0.0,1.39300823212,0.0,0.0
1655121095322833668,171,1655121095322386980,/map,-5.88102722168,0.0,1.39300823212,0.0,0.0
1655121095424068849,172,1655121095423681974,/map,-5.85676670074,0.0,1.39300823212,0.0,0.0
1655121095523357424,173,1655121095522831916,/map,0.159995108843,0.0,1.39276623726,-0.00242021726444,0.0
1655121095627875200,174,1655121095627355098,/map,0.241136208177,0.0,1.39253234863,-0.00233797938563,0.0
1655121095727160546,175,1655121095726630926,/map,0.232766509056,0.0,1.39230668545,-0.00225751521066,0.0
1655121095824512150,176,1655121095824091911,/map,0.286665797234,0.0,1.39230668545,0.0,0.0
1655121095933437757,177,1655121095932667016,/map,0.231361582875,0.0,1.39208877087,-0.00217881682329,0.0
1655121096028902859,178,1655121096028484106,/map,0.260198265314,0.0,1.39187860489,-0.00210187467746,0.0
1655121096126518342,179,1655121096126136064,/map,0.252149224281,0.0,1.3916759491,-0.00202667759731,0.0
1655121096233810276,180,1655121096233091115,/map,0.257467895746,0.0,1.39148056507,-0.00195321394131,0.0
1655121096335510022,181,1655121096334784984,/map,0.13924485445,0.0,1.39129245281,-0.00188146997243,0.0
1655121096432691249,182,1655121096432049036,/map,0.144510105252,0.0,1.39111125469,-0.00181143195368,0.0
1655121096523059683,183,1655121096522535085,/map,-0.0326864346862,0.0,1.39093697071,-0.00174308428541,0.0
1655121096703195602,184,1655121096702575922,/map,0.107267133892,0.0,1.39076936245,-0.00167641090229,0.0
1655121096784871131,185,1655121096784070014,/map,0.00541721470654,0.0,1.39060819149,-0.0016113948077,0.0
1655121096866396725,186,1655121096865845918,/map,0.0186694096774,0.0,1.39045333862,-0.00154801807366,0.0
1655121096946544900,187,1655121096945748090,/map,0.217850714922,0.0,1.39030480385,-0.00148626219016,0.0
1655121097028283740,188,1655121097027632951,/map,0.165254488587,0.0,1.39016211033,-0.00142610794865,0.0
1655121097130096316,189,1655121097129394054,/map,0.165236830711,0.0,1.39002537727,-0.00136753520928,0.0
1655121097237350502,190,1655121097236609935,/map,0.144650414586,0.0,1.38989436626,-0.00131052359939,0.0
1655121097336711749,191,1655121097336111068,/map,0.190323010087,0.0,1.38976883888,-0.00125505193137,0.0
1655121097433995020,192,1655121097433306932,/map,0.179429084063,0.0,1.38964867592,-0.00120109890122,0.0
1655121097536462277,193,1655121097535768032,/map,0.2475656569,0.0,1.38953387737,-0.00114864250645,0.0
1655121097623758474,194,1655121097622819900,/map,0.0331419222057,0.0,1.38953387737,0.0,0.0
1655121097739780930,195,1655121097738966941,/map,0.353526562452,0.0,1.38942408562,-0.00109766016249,0.0
1655121097838870073,196,1655121097838171005,/map,0.378388345242,0.0,1.38931930065,-0.00104812928475,0.0
1655121097940769627,197,1655121097940018892,/map,0.415461987257,0.0,1.38921928406,-0.00100002682302,0.0
1655121098033545244,198,1655121098032897949,/map,0.372305482626,0.0,1.38912391663,-0.000953329494223,0.0
1655121098137864481,199,1655121098137104988,/map,0.5245475173,0.0,1.38903319836,-0.000908013724256,0.0
1655121098238800555,200,1655121098238101005,/map,0.347270727158,0.0,1.38894677162,-0.00086405564798,0.0
1655121098338261817,201,1655121098337532043,/map,0.36138021946,0.0,1.38886463642,-0.000821431458462,0.0
1655121098434308519,202,1655121098433790922,/map,0.362968593836,0.0,1.38878655434,-0.00078011705773,0.0
1655121098538655370,203,1655121098537626981,/map,0.32295230031,0.0,1.38871264458,-0.000740088289604,0.0
1655121098635688212,204,1655121098635014057,/map,0.333901047707,0.0,1.38864243031,-0.000701320823282,0.0
1655121098734967130,205,1655121098734252929,/map,0.30390393734,0.0,1.38857603073,-0.000663790444378,0.0
1655121098842295060,206,1655121098841281890,/map,0.101061195135,0.0,1.38851332664,-0.000627472763881,0.0
1655121098951498926,207,1655121098950680971,/map,0.0983294844627,0.0,1.38845407963,-0.000592343509197,0.0
1655121099045071274,208,1655121099044251918,/map,0.314546912909,0.0,1.38839828968,-0.000558378349524,0.0
1655121099139545117,209,1655121099138561010,/map,0.0656727328897,0.0,1.38834571838,-0.000525553070474,0.0
1655121099236723293,210,1655121099235867977,/map,0.0656717047095,0.0,1.38829636574,-0.000493843515869,0.0
1655121099337648697,211,1655121099336777925,/map,0.0855126157403,0.0,1.38824999332,-0.000463225616841,0.0
1655121099437483278,212,1655121099436727046,/map,0.0418685302138,0.0,1.38820660114,-0.000433675362729,0.0
1655121099541153043,213,1655121099540453910,/map,0.102854646742,0.0,1.38816606998,-0.000405168975703,0.0
1655121099640078373,214,1655121099638938903,/map,0.11144605279,0.0,1.38812828064,-0.00037768270704,0.0
1655121099738578261,215,1655121099737719058,/map,0.142030701041,0.0,1.38809323311,-0.000351193069946,0.0
1655121099839745638,216,1655121099838926076,/map,0.0967978462577,0.0,1.38806068897,-0.000325676752254,0.0
1655121099940702804,217,1655121099940046072,/map,0.170262649655,0.0,1.38803052902,-0.000301110529108,0.0
1655121100043528890,218,1655121100039757013,/map,0.147260636091,0.0,1.38800275326,-0.000277471554,0.0
1655121100143748875,219,1655121100143006086,/map,0.110703416169,0.0,1.38797736168,-0.000254737009527,0.0
1655121100240205692,220,1655121100239545106,/map,0.156073883176,0.0,1.38795399666,-0.00023288448574,0.0
1655121100337188831,221,1655121100336415052,/map,0.148458078504,0.0,1.38793289661,-0.000211891689105,0.0
1655121100438262011,222,1655121100436971902,/map,0.153361082077,0.0,1.38791370392,-0.000191736646229,0.0
1655121100539001353,223,1655121100538088083,/map,0.0930741354823,0.0,1.38789641857,-0.000172397631104,0.0
1655121100649163145,224,1655121100648339986,/map,0.0911149531603,0.0,1.38788104057,-0.00015385315055,0.0
1655121100746325829,225,1655121100745403051,/map,0.0553492717445,0.0,1.38786745071,-0.000136082046083,0.0
1655121100846408171,226,1655121100845541954,/map,0.0508950687945,0.0,1.38785552979,-0.000119063421153,0.0
1655121100945982495,227,1655121100944901943,/map,0.0601679496467,0.0,1.38784527779,-0.000102776655694,0.0
1655121101049220856,228,1655121101048238992,/map,0.0706066414714,0.0,1.38783657551,-8.72014570632e-05,0.0
1655121101143272450,229,1655121101142160892,/map,0.08888386935,0.0,1.38782930374,-7.23178163753e-05,0.0
1655121101241816205,230,1655121101240587949,/map,0.0888836607337,0.0,1.38782346249,-5.81060376135e-05,0.0
1655121101349715303,231,1655121101348937034,/map,0.114630803466,0.0,1.38781905174,-4.45467449026e-05,0.0
1655121101443185110,232,1655121101441992998,/map,0.0961058959365,0.0,1.38781583309,-3.16208679578e-05,0.0
1655121101544384051,233,1655121101543267965,/map,0.0961056351662,0.0,1.38781392574,-1.93096620933e-05,0.0
1655121101641264315,234,1655121101640265941,/map,0.0963276699185,0.0,1.38781321049,-7.59470958656e-06,0.0
1655121101744360656,235,1655121101743400096,/map,0.095393769443,0.0,1.38781356812,3.54209055331e-06,0.0
1655121101850276033,236,1655121101849649906,/map,0.0719279944897,0.0,1.38781499863,1.41185082612e-05,0.0
1655121101954166083,237,1655121101953094005,/map,0.0618692114949,0.0,1.38781738281,2.41519865085e-05,0.0
1655121102041470219,238,1655121102040317058,/map,0.0625440478325,0.0,1.38782072067,3.3659638575e-05,0.0
1655121102148543760,239,1655121102147437095,/map,0.0625440329313,0.0,1.38782501221,4.2658251914e-05,0.0
1655121102246218857,240,1655121102245434045,/map,0.123390547931,0.0,1.38783013821,5.11642720085e-05,0.0
1655121102344894439,241,1655121102344055891,/map,0.157061114907,0.0,1.38783597946,5.91938296566e-05,0.0
1655121102439910095,242,1655121102438818931,/map,0.170854747295,0.0,1.38784265518,6.67627100484e-05,0.0
1655121102545122815,243,1655121102544373035,/map,0.170853674412,0.0,1.38785004616,7.38863891456e-05,0.0
1655121102643239088,244,1655121102642369031,/map,0.163914129138,0.0,1.38785815239,8.05800009402e-05,0.0
1655121102746923871,245,1655121102743155956,/map,0.162464350462,0.0,1.38786685467,8.685834473e-05,0.0
1655121102842185087,246,1655121102841098070,/map,0.108831107616,0.0,1.38787615299,9.27359142224e-05,0.0
1655121102951247216,247,1655121102950337886,/map,0.0945709943771,0.0,1.38788592815,9.8226875707e-05,0.0
1655121103045390647,248,1655121103044470071,/map,0.0819664597511,0.0,1.38789629936,0.000103345053503,0.0
1655121103149434067,249,1655121103148420095,/map,0.0702958032489,0.0,1.3879070282,0.000108103988168,0.0
1655121103245436116,250,1655121103244493961,/map,0.0904149934649,0.0,1.38791835308,0.000112516863737,0.0
1655121103344989205,251,1655121103343986034,/map,0.0817654505372,0.0,1.38793003559,0.000116596580483,0.0
1655121103442207812,252,1655121103441148996,/map,0.123126007617,0.0,1.38794207573,0.00012035571126,0.0
1655121103541125425,253,1655121103540249109,/map,0.123125888407,0.0,1.38795435429,0.00012380653061,0.0
1655121103644992639,254,1655121103643873929,/map,0.128655329347,0.0,1.38796710968,0.000126961007481,0.0
1655121103749213366,255,1655121103748045921,/map,0.114096969366,0.0,1.38798010349,0.000129830805236,0.0
1655121103856965726,256,1655121103856267929,/map,0.114640176296,0.0,1.38799333572,0.000132427274366,0.0
1655121103953311780,257,1655121103952426910,/map,0.115950770676,0.0,1.38800680637,0.00013476148888,0.0
1655121104044461341,258,1655121104043313026,/map,0.0899157524109,0.0,1.38802051544,0.000136844231747,0.0
1655121104148972474,259,1655121104147671937,/map,0.0899147093296,0.0,1.38803434372,0.000138685994898,0.0
1655121104245832493,260,1655121104244612932,/map,0.0647504851222,0.0,1.38804841042,0.000140296993777,0.0
1655121104342286924,261,1655121104340989112,/map,0.0647495388985,0.0,1.38806259632,0.000141687138239,0.0
1655121104443676177,262,1655121104442483901,/map,0.0524722151458,0.0,1.38807690144,0.000142866076203,0.0
1655121104553716060,263,1655121104552881002,/map,0.0398138947785,0.0,1.38809120655,0.000143843222759,0.0
1655121104641003770,264,1655121104639908075,/map,0.0347317941487,0.0,1.38810575008,0.000144627658301,0.0
1655121104741470045,265,1655121104740319013,/map,0.0347302146256,0.0,1.38812017441,0.000145228244946,0.0
1655121104857539037,266,1655121104856852054,/map,-0.0388857014477,0.0,1.38813483715,0.000145653568325,0.0
1655121104953417037,267,1655121104952486991,/map,-0.00968674290925,0.0,1.38814938068,0.000145911981235,0.0
1655121105049129791,268,1655121105048425912,/map,-0.0200822222978,0.0,1.38816392422,0.000146011559991,0.0
1655121105136483280,269,1655121105135791063,/map,-0.0547469072044,0.0,1.38817858696,0.000145960148075,0.0
1655121105248051715,270,1655121105247265100,/map,-0.0547481514513,0.0,1.38819313049,0.000145765341586,0.0
1655121105349966576,271,1655121105349283933,/map,0.0241238493472,0.0,1.38820767403,0.000145434503793,0.0
1655121105441498871,272,1655121105440562009,/map,0.0766450986266,0.0,1.38822221756,0.000144974794239,0.0
1655121105538912847,273,1655121105537693023,/map,0.0766431689262,0.0,1.38823664188,0.000144393081428,0.0
1655121105656241518,274,1655121105655075073,/map,0.0544129796326,0.0,1.388250947,0.00014369605924,0.0
1655121105743495709,275,1655121105742754936,/map,-0.0691462159157,0.0,1.38826525211,0.000142890203279,0.0
1655121105845072494,276,1655121105843978881,/map,-0.0691477134824,0.0,1.38827943802,0.000141981741763,0.0
1655121105944860873,277,1655121105943761110,/map,-0.0641693845391,0.0,1.38829362392,0.000140976713737,0.0
1655121106039951890,278,1655121106039021968,/map,-0.0270091760904,0.0,1.38830757141,0.000139880969073,0.0
1655121106143826389,279,1655121106142816066,/map,-0.107883051038,0.0,1.38832139969,0.00013870013936,0.0
1655121106251918650,280,1655121106251233100,/map,-0.0334305986762,0.0,1.38833522797,0.000137439637911,0.0
1655121106350724664,281,1655121106349947929,/map,-0.216821983457,0.0,1.38834881783,0.000136104732519,0.0
1655121106456658301,282,1655121106455504894,/map,-0.0945010259748,0.0,1.38836228848,0.000134700458148,0.0
1655121106545265878,283,1655121106544235944,/map,-0.129624411464,0.0,1.38837563992,0.00013323170424,0.0
1655121106640495092,284,1655121106639374017,/map,-0.129624783993,0.0,1.38838875294,0.000131703156512,0.0
1655121106745464984,285,1655121106744345903,/map,-0.138034507632,0.0,1.38840174675,0.000130119326059,0.0
1655121106858632373,286,1655121106857278108,/map,0.0301046576351,0.0,1.38841462135,0.000128484563902,0.0
1655121106953375336,287,1655121106952666997,/map,-0.142650678754,0.0,1.38842725754,0.000126803060994,0.0
1655121107049828983,288,1655121107049105882,/map,-0.0185480173677,0.0,1.38843977451,0.000125078833662,0.0
1655121107145258312,289,1655121107142327070,/map,0.111985512078,0.0,1.38845217228,0.000123315738165,0.0
1655121107251418732,290,1655121107250629901,/map,0.111986249685,0.0,1.38846433163,0.000121517477965,0.0
1655121107346747946,291,1655121107346014022,/map,0.111986979842,0.0,1.38847625256,0.00011968761828,0.0
1655121107453585994,292,1655121107452766895,/map,0.111987695098,0.0,1.38848805428,0.00011782956426,0.0
1655121107545744626,293,1655121107544625043,/map,0.111988395452,0.0,1.38849961758,0.000115946575534,0.0
1655121107644354066,294,1655121107643182039,/map,0.111989088356,0.0,1.38851106167,0.000114041795314,0.0
1655121107745827038,295,1655121107744589090,/map,0.111989766359,0.0,1.38852226734,0.00011211821402,0.0
1655121107854534113,296,1655121107853842020,/map,0.111990429461,0.0,1.3885332346,0.000110178691102,0.0
1655121107947012715,297,1655121107946263074,/map,0.111991085112,0.0,1.38854408264,0.000108225962322,0.0
1655121108040785801,298,1655121108039951086,/map,0.111991725862,0.0,1.38855469227,0.000106262647023,0.0
1655121108139601941,299,1655121108138653993,/map,0.111992351711,0.0,1.38856518269,0.000104291240859,0.0
1655121108241010906,300,1655121108240149974,/map,0.111992970109,0.0,1.38857543468,0.000102314108517,0.0
1655121108343838457,301,1655121108343008995,/map,0.111993573606,0.0,1.38858544827,0.000100333512819,0.0
1655121108451047373,302,1655121108450078010,/map,0.111994162202,0.0,1.38859522343,9.83516220003e-05,0.0
1655121108549059952,303,1655121108548393964,/map,0.111994743347,0.0,1.38860487938,9.63704733294e-05,0.0
1655121108643024409,304,1655121108642164945,/map,0.111995309591,0.0,1.38861429691,9.43920094869e-05,0.0
1655121108745871094,305,1655121108744878053,/map,0.111995860934,0.0,1.38862359524,9.241807129e-05,0.0
1655121108841986247,306,1655121108841209888,/map,0.111996404827,0.0,1.38863265514,9.04504195205e-05,0.0
1655121108950191071,307,1655121108949023962,/map,0.111996933818,0.0,1.38864147663,8.84906985448e-05,0.0
1655121109049442989,308,1655121109048528909,/map,0.111997455359,0.0,1.3886500597,8.65404726937e-05,0.0
1655121109162582322,309,1655121109161643981,/map,0.111997961998,0.0,1.38865852356,8.46012189868e-05,0.0
1655121109253296166,310,1655121109252341985,/map,0.111998453736,0.0,1.38866686821,8.26743198559e-05,0.0
1655121109347345220,311,1655121109346699953,/map,0.111998930573,0.0,1.38867497444,8.07610995253e-05,0.0
1655121109460649603,312,1655121109459739923,/map,0.111999407411,0.0,1.38868284225,7.88627730799e-05,0.0
1655121109552566793,313,1655121109551835060,/map,0.111999861896,0.0,1.38869047165,7.6980504673e-05,0.0
1655121109648314268,314,1655121109647501945,/map,0.112000308931,0.0,1.38869798183,7.51153638703e-05,0.0
1655121109751354170,315,1655121109745465993,/map,0.112000748515,0.0,1.38870537281,7.32683693059e-05,0.0
1655121109855413908,316,1655121109854610919,/map,0.112001173198,0.0,1.38871252537,7.14404595783e-05,0.0
1655121109951491236,317,1655121109950433969,/map,0.11200158298,0.0,1.38871943951,6.96325005265e-05,0.0
1655121110041799975,318,1655121110040937900,/map,0.112001985312,0.0,1.38872623444,6.78453070577e-05,0.0
1655121110144359646,319,1655121110143484115,/map,0.112002380192,0.0,1.38873279095,6.60796213197e-05,0.0
1655121110243262487,320,1655121110242557048,/map,0.112002760172,0.0,1.38873922825,6.43361490802e-05,0.0
1655121110353403639,321,1655121110352404117,/map,0.112003132701,0.0,1.38874554634,6.26155160717e-05,0.0
1655121110445446139,322,1655121110444669008,/map,0.112003490329,0.0,1.38875162601,6.09182934568e-05,0.0
1655121110542844572,323,1655121110542015075,/map,0.112003840506,0.0,1.38875758648,5.92450123804e-05,0.0
1655121110643844978,324,1655121110642891883,/map,0.112004183233,0.0,1.38876330853,5.75961530558e-05,0.0
1655121110741704875,325,1655121110740592002,/map,0.112004511058,0.0,1.38876891136,5.59721411264e-05,0.0
1655121110854645060,326,1655121110853718996,/map,0.112004831433,0.0,1.38877439499,5.43733585801e-05,0.0
1655121110945865568,327,1655121110944880962,/map,0.112005144358,0.0,1.3887796402,5.28001401108e-05,0.0
1655121111047049010,328,1655121111045891046,/map,0.112005442381,0.0,1.3887847662,5.12527840328e-05,0.0
1655121111143348896,329,1655121111142704963,/map,0.112005740404,0.0,1.38878977299,4.97315413668e-05,0.0
1655121111294875013,330,1655121111293873071,/map,0.112006023526,0.0,1.38879454136,4.82366267534e-05,0.0
1655121111378302767,331,1655121111376230001,/map,0.112006299198,0.0,1.38879919052,4.67682257295e-05,0.0
1655121111465325550,332,1655121111464595079,/map,0.112006559968,0.0,1.38880372047,4.53264765383e-05,0.0
1655121111551527042,333,1655121111550718069,/map,0.112006820738,0.0,1.38880813122,4.39114846813e-05,0.0
1655121111641816240,334,1655121111640996932,/map,0.112007066607,0.0,1.38881242275,4.25233338319e-05,0.0
1655121111739695196,335,1655121111738738059,/map,0.112007312477,0.0,1.38881647587,4.11620640079e-05,0.0
1655121111843104979,336,1655121111842124938,/map,0.112007543445,0.0,1.38882052898,3.98277006752e-05,0.0
1655121111947503825,337,1655121111942892074,/map,0.112007766962,0.0,1.38882434368,3.85202256439e-05,0.0
1655121112049914146,338,1655121112049019098,/map,0.112007983029,0.0,1.38882803917,3.72396025341e-05,0.0
1655121112144038246,339,1655121112143270015,/map,0.112008199096,0.0,1.38883161545,3.59857731382e-05,0.0
1655121112247144172,340,1655121112246197938,/map,0.112008400261,0.0,1.38883519173,3.47586465068e-05,0.0
1655121112344092537,341,1655121112342941999,/map,0.112008593976,0.0,1.38883852959,3.35581207764e-05,0.0
1655121112445430978,342,1655121112444561004,/map,0.112008780241,0.0,1.38884174824,3.23840613419e-05,0.0
