%time,field.header.seq,field.header.stamp,field.header.frame_id,field.drive.steering_angle,field.drive.steering_angle_velocity,field.drive.speed,field.drive.acceleration,field.drive.jerk
1655714680210861920,1,1655714680210673093,/map,-0.171982601285,0.0,0.0133416643366,0.0,0.0
1655714680277504598,2,1655714680277343988,/map,-0.195353105664,0.0,0.0141421351582,0.0,0.0
1655714680379873106,3,1655714680379298925,/map,-0.141539409757,0.0,0.0141774471849,0.0,0.0
1655714680481207929,4,1655714680480659961,/map,-0.121321998537,0.0,0.00300000002608,0.0,0.0
1655714680576865310,5,1655714680576311111,/map,-0.189241722226,0.0,0.00608276249841,0.0,0.0
1655714680676582151,6,1655714680676402091,/map,-0.189241722226,0.0,0.00447213603184,0.0,0.0
1655714680775410677,7,1655714680775208950,/map,-0.135119512677,0.0,0.0134164076298,0.0,0.0
1655714680876210362,8,1655714680875639915,/map,-0.150896623731,0.0,0.0187082868069,0.0,0.0
1655714680986565806,9,1655714680986056089,/map,-0.14620025456,0.0,0.014696938917,0.0,0.0
1655714681077488530,10,1655714681076940059,/map,-0.225290611386,0.0,0.0201990101486,0.0,0.0
1655714681214226160,11,1655714681214042901,/map,-0.144507721066,0.0,0.0530094318092,0.0,0.0
1655714681278427161,12,1655714681277905941,/map,-0.105907283723,0.0,0.00806225743145,0.0,0.0
1655714681376195688,13,1655714681375952959,/map,-0.105907283723,0.0,0.007810249459,0.0,0.0
1655714681475131568,14,1655714681474998950,/map,-0.188368394971,0.0,0.0,0.0,0.0
1655714681574287393,15,1655714681574147939,/map,-0.0817340090871,0.0,0.177398607135,0.714873850346,0.0
1655714681680856679,16,1655714681680743932,/map,-0.000716842245311,0.0,0.152989372611,0.652030944824,0.0
1655714681778381801,17,1655714681778208971,/map,-0.0727561861277,0.0,0.18164332211,0.68266171217,0.0
1655714681883597660,18,1655714681883443117,/map,-0.0729776620865,0.0,0.164486736059,0.675209343433,0.0
1655714681986859900,19,1655714681986243963,/map,-0.147131562233,0.0,0.190880939364,0.704204797745,0.0
1655714682090413948,20,1655714682089833974,/map,-0.0287391487509,0.0,0.198352649808,0.702626645565,0.0
1655714682189339523,21,1655714682188790082,/map,-0.0360023602843,0.0,0.227999091148,0.71573138237,0.0
1655714682283725395,22,1655714682283129930,/map,0.013412325643,0.0,0.142842695117,0.693597972393,0.0
1655714682381029656,23,1655714682380856990,/map,-0.0564181171358,0.0,0.178242728114,0.769353032112,0.0
1655714682486698476,24,1655714682486571073,/map,-0.012458641082,0.0,0.198210448027,0.767389535904,0.0
1655714682581792699,25,1655714682581583023,/map,-0.0910675749183,0.0,0.182817995548,0.763923406601,0.0
1655714682683786461,26,1655714682683651924,/map,-0.0921683087945,0.0,0.205473899841,0.791308045387,0.0
1655714682847572160,27,1655714682847376108,/map,0.0706999674439,0.0,0.180594801903,0.786247849464,0.0
1655714682920582388,28,1655714682920435905,/map,0.020438272506,0.0,0.209399938583,0.821112573147,0.0
1655714682993175859,29,1655714682993055105,/map,0.0189864616841,0.0,0.18543215096,0.812596380711,0.0
1655714683083709664,30,1655714683083589076,/map,-0.113177448511,0.0,0.167616799474,0.838083982468,0.0
1655714683184593035,31,1655714683184035062,/map,0.0920604839921,0.0,0.303136646748,0.890003561974,0.0
1655714683282068526,32,1655714683281882047,/map,-0.103571794927,0.0,0.197513744235,0.794955074787,0.0
1655714683386334035,33,1655714683385390996,/map,0.0429499559104,0.0,0.26627612114,0.885370433331,0.0
1655714683485736174,34,1655714683485548973,/map,0.0264279451221,0.0,0.271483868361,0.858570575714,0.0
1655714683590624294,35,1655714683588474035,/map,-0.0455653443933,0.0,0.230153083801,0.858105242252,0.0
1655714683683333657,36,1655714683683229923,/map,0.087561070919,0.0,0.232968717813,0.89927816391,0.0
1655714683785430625,37,1655714683784888029,/map,-0.0901130735874,0.0,0.20054922998,0.907090485096,0.0
1655714683884134400,38,1655714683884006023,/map,0.0132232224569,0.0,0.211839646101,0.944742977619,0.0
1655714683983126853,39,1655714683983025074,/map,0.00753122987226,0.0,0.21824079752,0.953999817371,0.0
1655714684088476562,40,1655714684087939023,/map,0.0113094300032,0.0,0.267743051052,0.972484469414,0.0
1655714684203444893,41,1655714684203315019,/map,-0.0782639458776,0.0,0.208895251155,0.94225102663,0.0
1655714684283143611,42,1655714684283008098,/map,0.0398741699755,0.0,0.265918791294,1.00351881981,0.0
1655714684389907399,43,1655714684389013051,/map,-0.0159030500799,0.0,0.266917198896,0.982130348682,0.0
1655714684483530911,44,1655714684483428001,/map,-0.0524752773345,0.0,0.245137855411,0.988729417324,0.0
1655714684586763881,45,1655714684586616039,/map,0.136235505342,0.0,0.272483110428,1.0217911005,0.0
1655714684683996852,46,1655714684683885097,/map,-0.0847121924162,0.0,0.256837427616,1.01543998718,0.0
1655714684782861234,47,1655714684782741069,/map,0.0878745689988,0.0,0.236222013831,1.0346518755,0.0
1655714684901768966,48,1655714684901611089,/map,-0.00333577394485,0.0,0.226297557354,1.06113159657,0.0
1655714684991235032,49,1655714684990675926,/map,-0.0447282418609,0.0,0.297702550888,1.09592521191,0.0
1655714685091264355,50,1655714685090719938,/map,-0.0669241324067,0.0,0.286264687777,1.06064832211,0.0
1655714685183130576,51,1655714685182614088,/map,0.0354333557189,0.0,0.262819379568,1.0743573904,0.0
1655714685287881649,52,1655714685287750959,/map,0.0455488376319,0.0,0.295560389757,1.11000442505,0.0
1655714685385701850,53,1655714685385113954,/map,-0.119354523718,0.0,0.260937869549,1.0966629982,0.0
1655714685484004619,54,1655714685483860015,/map,0.0668361186981,0.0,0.33922046423,1.14642059803,0.0
1655714685583992510,55,1655714685583878040,/map,-0.0175664220005,0.0,0.256031274796,1.09407842159,0.0
1655714685684057181,56,1655714685683945894,/map,0.0460248365998,0.0,0.309041321278,1.16937422752,0.0
1655714685785467985,57,1655714685785329103,/map,0.149520114064,0.0,0.297210931778,1.14919424057,0.0
1655714685886135934,58,1655714685885601997,/map,0.00294193183072,0.0,0.252313375473,1.16032457352,0.0
1655714685987110636,59,1655714685986943006,/map,0.0287627186626,0.0,0.322067916393,1.21730649471,0.0
1655714686085631195,60,1655714686085045099,/map,0.111033186316,0.0,0.237062826753,1.17117202282,0.0
1655714686183941651,61,1655714686183834075,/map,0.0950473695993,0.0,0.289059489965,1.24825692177,0.0
1655714686284018450,62,1655714686283874988,/map,0.0428097993135,0.0,0.333424240351,1.23951160908,0.0
1655714686385538848,63,1655714686385271072,/map,0.0632007494569,0.0,0.267226278782,1.20944273472,0.0
1655714686484411699,64,1655714686483931064,/map,0.0598751828074,0.0,0.267361462116,1.2652182579,0.0
1655714686587477876,65,1655714686586735010,/map,0.0233181137592,0.0,0.268681049347,1.28237247467,0.0
1655714686691478282,66,1655714686690949916,/map,0.0473764203489,0.0,0.268389314413,1.29584884644,0.0
1655714686785777052,67,1655714686785636901,/map,0.0684656500816,0.0,0.279995501041,1.3123704195,0.0
1655714686884276976,68,1655714686883409023,/map,0.0314544811845,0.0,0.269884467125,1.31701862812,0.0
1655714687008262528,69,1655714687008050918,/map,0.0129358172417,0.0,0.295924276114,1.34223508835,0.0
1655714687087285484,70,1655714687087059020,/map,-0.0063605569303,0.0,0.301212757826,1.34045875072,0.0
1655714687187368154,71,1655714687187197923,/map,0.0189614370465,0.0,0.280244529247,1.34599578381,0.0
1655714687282692035,72,1655714687282501935,/map,0.00950101856142,0.0,0.277090758085,1.37320637703,0.0
1655714687405776892,73,1655714687405632972,/map,0.0491386428475,0.0,0.278143554926,1.39071774483,0.0
1655714687486673439,74,1655714687486568927,/map,-0.0606033951044,0.0,0.295771867037,1.40779590607,0.0
1655714687589640214,75,1655714687589489936,/map,-0.0153475366533,0.0,0.312834888697,1.41342639923,0.0
1655714687684974414,76,1655714687684437036,/map,0.010878264904,0.0,0.311103582382,1.41507220268,0.0
1655714687782942488,77,1655714687782818078,/map,-0.0416724793613,0.0,0.307123988867,1.42873215675,0.0
1655714687882803593,78,1655714687882698059,/map,0.0398100800812,0.0,0.316577732563,1.44724202156,0.0
1655714687983769199,79,1655714687983644962,/map,-0.0225684382021,0.0,0.316109538078,1.45514833927,0.0
1655714688086927411,80,1655714688086796998,/map,-0.0224496070296,0.0,0.368526637554,1.47873067856,0.0
1655714688183193338,81,1655714688182698965,/map,-0.0278876554221,0.0,0.305049479008,1.4460324049,0.0
1655714688283504209,82,1655714688283402919,/map,0.0553459748626,0.0,0.39628008008,1.5165617466,0.0
1655714688387017330,83,1655714688386889934,/map,-0.00413406221196,0.0,0.311985462904,1.45684969425,0.0
1655714688489277332,84,1655714688489084959,/map,-0.00250791013241,0.0,0.363717824221,1.53232002258,0.0
1655714688584178443,85,1655714688584012031,/map,0.0922967121005,0.0,0.396605193615,1.52137136459,0.0
1655714688682152953,86,1655714688681947946,/map,0.121318280697,0.0,0.37597233057,1.50716876984,0.0
1655714688785856643,87,1655714688785316944,/map,0.120913848281,0.0,0.335232287645,1.52533042431,0.0
1655714688882367344,88,1655714688882230997,/map,-0.0553234666586,0.0,0.336128175259,1.56728291512,0.0
1655714688982944375,89,1655714688982800006,/map,0.0317277647555,0.0,0.323896467686,1.58043110371,0.0
1655714689086619723,90,1655714689086514949,/map,-0.00575088756159,0.0,0.375589251518,1.61233377457,0.0
1655714689188034090,91,1655714689187869071,/map,0.0744659677148,0.0,0.354608803988,1.58865320683,0.0
1655714689282403492,92,1655714689282282114,/map,-0.0276975259185,0.0,0.426204323769,1.62733519077,0.0
1655714689383650308,93,1655714689382544040,/map,-0.00175705412403,0.0,0.325620144606,1.57566022873,0.0
1655714689485561931,94,1655714689485445022,/map,0.0656952857971,0.0,0.404692709446,1.66776001453,0.0
1655714689588322328,95,1655714689587800025,/map,-0.0709254071116,0.0,0.365041315556,1.62608361244,0.0
1655714689685168820,96,1655714689684676885,/map,0.111952267587,0.0,0.370813220739,1.66406619549,0.0
1655714689786394743,97,1655714689783238887,/map,-0.0501849465072,0.0,0.370361179113,1.67566680908,0.0
1655714689886836507,98,1655714689886676073,/map,0.00423967745155,0.0,0.354404211044,1.68687415123,0.0
1655714689990039369,99,1655714689989483118,/map,0.0229509379715,0.0,0.428440481424,1.72515916824,0.0
1655714690083893141,100,1655714690083383083,/map,0.05277678743,0.0,0.379662752151,1.68146133423,0.0
1655714690182910441,101,1655714690182398080,/map,-0.0330707319081,0.0,0.440203458071,1.73545312881,0.0
1655714690288565455,102,1655714690287952899,/map,-0.00534683419392,0.0,0.475428283215,1.71719825268,0.0
1655714690388305484,103,1655714690388164997,/map,0.170072048903,0.0,0.36333116889,1.68380260468,0.0
1655714690482972470,104,1655714690482868909,/map,0.0544295832515,0.0,0.486840963364,1.79287803173,0.0
1655714690590827326,105,1655714690590339899,/map,0.0541091561317,0.0,0.43946647644,1.72041511536,0.0
1655714690687983889,106,1655714690687860012,/map,0.044171076268,0.0,0.497278779745,1.77052032948,0.0
1655714690784212908,107,1655714690784106016,/map,-0.000767418125179,0.0,0.397206991911,1.72859561443,0.0
1655714690886350601,108,1655714690886219978,/map,0.00632813805714,0.0,0.533392846584,1.83106660843,0.0
1655714690984646090,109,1655714690984483003,/map,0.105087019503,0.0,0.455980747938,1.74373674393,0.0
1655714691083765378,110,1655714691083662033,/map,0.035939887166,0.0,0.530028998852,1.81595361233,0.0
1655714691183103669,111,1655714691182889938,/map,0.0273909401149,0.0,0.460275292397,1.76989269257,0.0
1655714691284276057,112,1655714691283797025,/map,0.104672625661,0.0,0.429230719805,1.82050037384,0.0
1655714691382199717,113,1655714691382031917,/map,-0.0392272360623,0.0,0.512871921062,1.87291193008,0.0
1655714691486298113,114,1655714691486040115,/map,0.12904022634,0.0,0.447006553411,1.82003283501,0.0
1655714691583188139,115,1655714691583025932,/map,-0.0816391184926,0.0,0.413296163082,1.86729502678,0.0
1655714691683995403,116,1655714691683866024,/map,0.0139810740948,0.0,0.493522971869,1.92089736462,0.0
1655714691781798087,117,1655714691781296014,/map,0.0140935126692,0.0,0.425243318081,1.87023818493,0.0
1655714691884928332,118,1655714691884448051,/map,0.0350873060524,0.0,0.498151391745,1.93910038471,0.0
1655714691988279038,119,1655714691987803936,/map,0.0352766700089,0.0,0.444235652685,1.89702558517,0.0
1655714692082248787,120,1655714692082128047,/map,0.0114212883636,0.0,0.435992926359,1.94179463387,0.0
1655714692193923210,121,1655714692193789958,/map,0.0482419468462,0.0,0.567053318024,1.98728370667,0.0
1655714692288611681,122,1655714692288063049,/map,0.00195070309564,0.0,0.518020808697,1.90473914146,0.0
1655714692386828870,123,1655714692386703968,/map,0.0568197369576,0.0,0.56164675951,1.95228421688,0.0
1655714692486454046,124,1655714692485944032,/map,0.0501094460487,0.0,0.520770967007,1.93031942844,0.0
1655714692589447617,125,1655714692589128971,/map,0.0412088371813,0.0,0.506368994713,1.96585023403,0.0
1655714692690268142,126,1655714692689637899,/map,0.0624668449163,0.0,0.586481869221,2.00491261482,0.0
1655714692783517278,127,1655714692783376932,/map,0.0394247658551,0.0,0.4008205235,1.93113005161,0.0
1655714692886589295,128,1655714692886066913,/map,0.0598760582507,0.0,0.442591547966,2.07224535942,0.0
1655714692985201078,129,1655714692985100984,/map,0.067834071815,0.0,0.43097037077,2.06457448006,0.0
1655714693088157843,130,1655714693088009119,/map,0.0676780641079,0.0,0.450994759798,2.08876609802,0.0
1655714693186547339,131,1655714693186397075,/map,0.0711853280663,0.0,0.452150523663,2.09016537666,0.0
1655714693290176100,132,1655714693290008068,/map,0.0588546395302,0.0,0.455050945282,2.10306286812,0.0
1655714693390739106,133,1655714693387186050,/map,0.0588933080435,0.0,0.450195193291,2.11413669586,0.0
1655714693482298734,134,1655714693482148885,/map,0.088280364871,0.0,0.443532437086,2.13005518913,0.0
1655714693588733273,135,1655714693588201999,/map,0.133733600378,0.0,0.466234862804,2.15298914909,0.0
1655714693690961804,136,1655714693690439939,/map,0.150107696652,0.0,0.455146431923,2.15023326874,0.0
1655714693793398279,137,1655714693793293952,/map,0.154216885567,0.0,0.536452054977,2.18554615974,0.0
1655714693899477780,138,1655714693899256944,/map,0.177516624331,0.0,0.489036768675,2.13684153557,0.0
1655714693991074056,139,1655714693990922927,/map,0.244476914406,0.0,0.453816652298,2.17187213898,0.0
1655714694092643857,140,1655714694092509031,/map,0.247607767582,0.0,0.458851844072,2.21210074425,0.0
1655714694276148836,141,1655714694275950908,/map,0.220481619239,0.0,0.469310939312,2.22655463219,0.0
1655714694351508813,142,1655714694350935935,/map,0.280668795109,0.0,0.525590360165,2.24392700195,0.0
1655714694426919197,143,1655714694426172018,/map,0.282046616077,0.0,0.520578622818,2.21886825562,0.0
1655714694506604166,144,1655714694506099939,/map,0.278685450554,0.0,0.472237884998,2.224350214,0.0
1655714694593023789,145,1655714694592840909,/map,0.313666790724,0.0,0.502061903477,2.27589535713,0.0
1655714694681089420,146,1655714694680937051,/map,0.29203376174,0.0,0.510430514812,2.27371954918,0.0
1655714694783945225,147,1655714694783462047,/map,0.221734464169,0.0,0.468512505293,2.27310037613,0.0
1655714694881391410,148,1655714694881200075,/map,0.136375591159,0.0,0.0332565791905,0.0,0.0
1655714694981247851,149,1655714694980748891,/map,0.18830101192,0.0,0.0346698723733,0.0,0.0
1655714695077273865,150,1655714695076843976,/map,0.108438886702,0.0,0.0558927543461,0.0,0.0
1655714695178225995,151,1655714695177774906,/map,0.182262390852,0.0,0.0010000000475,0.0,0.0
1655714695277204932,152,1655714695276715040,/map,0.199228256941,0.0,0.0358608439565,0.0,0.0
1655714695382595313,153,1655714695382442951,/map,0.0708040893078,0.0,0.0262488089502,0.0,0.0
1655714695476675736,154,1655714695476166963,/map,0.153832644224,0.0,0.0197484176606,0.0,0.0
1655714695579416656,155,1655714695578967094,/map,0.118000000715,0.0,0.0786956176162,0.0,0.0
1655714695679339402,156,1655714695678883075,/map,0.266200125217,0.0,0.0173781476915,0.0,0.0
1655714695776708766,157,1655714695776509046,/map,0.182212904096,0.0,0.0164924226701,0.0,0.0
1655714695877614671,158,1655714695877424955,/map,0.208335712552,0.0,0.0211187116802,0.0,0.0
1655714695976576050,159,1655714695976389884,/map,0.225939825177,0.0,0.064156062901,0.0,0.0
1655714696079132642,160,1655714696078939914,/map,0.233909681439,0.0,0.0290688835084,0.0,0.0
1655714696174301625,161,1655714696174170017,/map,0.130886152387,0.0,0.0343802273273,0.0,0.0
1655714696279747998,162,1655714696279280900,/map,0.163522869349,0.0,0.0174642484635,0.0,0.0
1655714696380781964,163,1655714696380251884,/map,0.18863978982,0.0,0.0452769249678,0.0,0.0
1655714696479693225,164,1655714696479511976,/map,0.163117319345,0.0,0.0248997993767,0.0,0.0
1655714696588169256,165,1655714696588032007,/map,0.122101694345,0.0,0.0036055513192,0.0,0.0
1655714696704871745,166,1655714696704390048,/map,-6.03578996658,0.0,0.0361939221621,0.0,0.0
1655714696780034300,167,1655714696779818058,/map,-6.17038059235,0.0,0.0312089733779,0.0,0.0
1655714696881458579,168,1655714696880979061,/map,-6.09712362289,0.0,0.0,0.0,0.0
1655714697057483190,169,1655714697057231903,/map,-6.11820030212,0.0,0.0294957626611,0.0,0.0
1655714697123457417,170,1655714697123344898,/map,-6.19581460953,0.0,0.0483632087708,0.0,0.0
1655714697189334836,171,1655714697189202070,/map,-6.15008068085,0.0,0.0507641620934,0.0,0.0
1655714697275874221,172,1655714697275732994,/map,-5.96319293976,0.0,0.0471062622964,0.0,0.0
1655714697378446834,173,1655714697377985000,/map,0.197582349181,0.0,0.0683081224561,0.0,0.0
1655714697479493493,174,1655714697479249954,/map,-5.9967713356,0.0,0.089202016592,0.0,0.0
1655714697579294916,175,1655714697578972101,/map,0.210796460509,0.0,0.0968400761485,0.0,0.0
1655714697676398399,176,1655714697675909996,/map,0.248990878463,0.0,0.00854400359094,0.0,0.0
1655714697777993175,177,1655714697775578975,/map,0.248990878463,0.0,0.0288617387414,0.0,0.0
1655714697954137870,178,1655714697953650951,/map,0.126787126064,0.0,0.0959270521998,0.0,0.0
1655714698022522019,179,1655714698022419929,/map,-0.0439067557454,0.0,0.0578100346029,0.0,0.0
1655714698088387940,180,1655714698088191032,/map,-6.09688234329,0.0,0.0229128785431,0.0,0.0
1655714698175579144,181,1655714698175462961,/map,0.23240467906,0.0,0.527025461197,2.47249293327,0.0
1655714698275810749,182,1655714698275686979,/map,-0.0116635756567,0.0,0.555532991886,2.31755614281,0.0
1655714698382259502,183,1655714698382131099,/map,0.13108189404,0.0,0.039408121258,0.0,0.0
1655714698480798053,184,1655714698480276107,/map,0.0929003581405,0.0,0.0290860794485,0.0,0.0
1655714698579481736,185,1655714698579047918,/map,0.11928280443,0.0,0.0209999997169,0.0,0.0
1655714698680959033,186,1655714698680511951,/map,0.0584741458297,0.0,0.0506458282471,0.0,0.0
1655714698780037813,187,1655714698779783010,/map,0.214428335428,0.0,0.0708590149879,0.0,0.0
1655714698881567244,188,1655714698881422996,/map,0.114351429045,0.0,0.0319217778742,0.0,0.0
1655714698979725728,189,1655714698979146957,/map,0.108784116805,0.0,0.0238746721298,0.0,0.0
1655714699078860156,190,1655714699078680992,/map,0.173931747675,0.0,0.032588340342,0.0,0.0
1655714699179426740,191,1655714699178980112,/map,0.0747839584947,0.0,0.0288963671774,0.0,0.0
1655714699278826457,192,1655714699278325080,/map,0.0783399641514,0.0,0.53084987402,2.49471879005,0.0
1655714699394292813,193,1655714699394162893,/map,0.172937586904,0.0,0.59473156929,2.34921813011,0.0
1655714699492729551,194,1655714699492587089,/map,0.146833613515,0.0,0.543310642242,2.29909062386,0.0
1655714699583689309,195,1655714699583203077,/map,0.156675666571,0.0,0.503764569759,2.33572459221,0.0
1655714699679886874,196,1655714699679703950,/map,0.0380364097655,0.0,0.0975346118212,0.0,0.0
1655714699780973958,197,1655714699780503988,/map,-0.152841746807,0.0,0.0245153009892,0.0,0.0
1655714699879854118,198,1655714699879121065,/map,0.00412875693291,0.0,0.00300000002608,0.0,0.0
1655714699987280964,199,1655714699987107038,/map,-0.0356510467827,0.0,0.105422958732,0.0,0.0
1655714700081885278,200,1655714700081686973,/map,0.0103210611269,0.0,0.106117859483,0.0,0.0
1655714700180124707,201,1655714700179898977,/map,-0.0864947661757,0.0,0.0561960861087,0.0,0.0
1655714700280254655,202,1655714700280011892,/map,-0.109693370759,0.0,0.115524888039,0.0,0.0
1655714700381147613,203,1655714700380651950,/map,-0.0869441851974,0.0,0.117456376553,0.0,0.0
1655714700481570999,204,1655714700481403112,/map,-0.0440166592598,0.0,0.0627534836531,0.0,0.0
1655714700581532997,205,1655714700581047058,/map,-0.10994464159,0.0,0.0904488787055,0.0,0.0
1655714700677801774,206,1655714700677345037,/map,-0.0379620194435,0.0,0.0701498389244,0.0,0.0
1655714700776265599,207,1655714700776096105,/map,0.00660668313503,0.0,0.578719615936,2.5265147686,0.0
1655714700893129564,208,1655714700892983913,/map,0.186831355095,0.0,0.541117846966,2.35972070694,0.0
1655714700996928219,209,1655714700996751070,/map,0.210995212197,0.0,0.605634987354,2.39835357666,0.0
1655714701103550428,210,1655714701103436946,/map,0.204466849566,0.0,0.472032397985,2.34516191483,0.0
1655714701193320708,211,1655714701193186998,/map,0.331664353609,0.0,0.534235537052,2.45641040802,0.0
1655714701291446702,212,1655714701290952920,/map,0.384634524584,0.0,0.568838357925,2.4412651062,0.0
1655714701395803060,213,1655714701395661115,/map,0.348415791988,0.0,0.546981275082,2.42551159859,0.0
1655714701482892834,214,1655714701482737064,/map,0.266759723425,0.0,0.572174906731,2.45658493042,0.0
1655714701577493760,215,1655714701577011108,/map,0.0668189227581,0.0,0.538566768169,2.44814014435,0.0
1655714701678714208,216,1655714701678549051,/map,0.216492399573,0.0,0.581687986851,2.49103736877,0.0
1655714701783030197,217,1655714701782601118,/map,0.223998621106,0.0,0.621276855469,2.48467302322,0.0
1655714701885187714,218,1655714701885013103,/map,0.0437028557062,0.0,0.250065982342,0.0,0.0
1655714701977852527,219,1655714701977391004,/map,-0.00826714839786,0.0,0.220791757107,0.0,0.0
1655714702082300073,220,1655714702082161903,/map,0.0801224634051,0.0,0.735290944576,2.59311509132,0.0
1655714702192977816,221,1655714702192876100,/map,0.226292178035,0.0,0.780062913895,2.44051146507,0.0
1655714702295386184,222,1655714702295253992,/map,0.19648194313,0.0,0.804468512535,2.41506242752,0.0
1655714702396607640,223,1655714702396454095,/map,0.0261293686926,0.0,0.909356594086,2.42637038231,0.0
1655714702498850544,224,1655714702498414039,/map,0.113497599959,0.0,0.822841227055,2.34985780716,0.0
1655714702594769030,225,1655714702594652891,/map,0.0851514041424,0.0,0.859164893627,2.41967153549,0.0
1655714702693403053,226,1655714702693257093,/map,0.0877651050687,0.0,0.80327039957,2.39941811562,0.0
1655714702792617963,227,1655714702792474031,/map,0.0910583138466,0.0,0.880789339542,2.46020054817,0.0
1655714702893182970,228,1655714702893050909,/map,0.099342122674,0.0,0.885535240173,2.42252659798,0.0
1655714702993107062,229,1655714702993006944,/map,0.110563106835,0.0,0.714608669281,2.39501523972,0.0
1655714703099363939,230,1655714703099176883,/map,0.105465233326,0.0,0.884620726109,2.55065894127,0.0
1655714703193089961,231,1655714703192981004,/map,0.132617130876,0.0,0.820781052113,2.44459056854,0.0
1655714703294536690,232,1655714703294425964,/map,0.121436595917,0.0,0.762640655041,2.48003029823,0.0
1655714703397597380,233,1655714703397139072,/map,0.144722536206,0.0,0.750920176506,2.53029513359,0.0
1655714703496655374,234,1655714703496134996,/map,0.117964215577,0.0,0.643369197845,2.53292369843,0.0
1655714703591889359,235,1655714703591185092,/map,0.0550502352417,0.0,0.518985033035,2.59492516518,0.0
1655714703694562969,236,1655714703694442033,/map,0.111394636333,0.0,0.597510874271,2.71074199677,0.0
1655714703795424981,237,1655714703795312881,/map,0.0880301967263,0.0,0.548381567001,2.66945099831,0.0
1655714703891289301,238,1655714703891174077,/map,0.0608953088522,0.0,0.597058534622,2.72194862366,0.0
1655714703991987983,239,1655714703991538047,/map,0.0181690268219,0.0,0.560278952122,2.69880318642,0.0
1655714704110411708,240,1655714704109915018,/map,-0.00713470065966,0.0,0.686118125916,2.75826263428,0.0
1655714704194118619,241,1655714704194009065,/map,-0.0101422993466,0.0,0.579344213009,2.66995024681,0.0
1655714704296027215,242,1655714704295819044,/map,0.0289141945541,0.0,0.610372126102,2.75462317467,0.0
1655714704392004123,243,1655714704391700983,/map,0.0328546687961,0.0,0.693593502045,2.7674498558,0.0
1655714704494712142,244,1655714704494024991,/map,0.00506326323375,0.0,0.573256969452,2.70219635963,0.0
1655714704596554029,245,1655714704596092939,/map,0.0425504483283,0.0,0.645768225193,2.80528473854,0.0
1655714704680761810,246,1655714704680542945,/map,-0.133891910315,0.0,0.0553985573351,0.0,0.0
1655714704776237016,247,1655714704776070117,/map,-0.155520647764,0.0,0.098112180829,0.0,0.0
1655714704879194485,248,1655714704879055976,/map,-0.0682215541601,0.0,0.073498301208,0.0,0.0
1655714704980678168,249,1655714704980242013,/map,-0.158521637321,0.0,0.0144568318501,0.0,0.0
1655714705089671739,250,1655714705089194059,/map,-0.158521637321,0.0,0.0545985363424,0.0,0.0
1655714705179825129,251,1655714705179661035,/map,-0.0567198172212,0.0,0.0350428298116,0.0,0.0
1655714705279527735,252,1655714705279076099,/map,-0.0604019537568,0.0,0.0137477274984,0.0,0.0
1655714705401697668,253,1655714705401535987,/map,-0.0827601328492,0.0,0.0386393591762,0.0,0.0
1655714705478174362,254,1655714705478005886,/map,-0.0465572737157,0.0,0.652230620384,2.99733495712,0.0
1655714705583421023,255,1655714705582921028,/map,-0.0984437614679,0.0,0.0788796544075,0.0,0.0
1655714705677431025,256,1655714705677226066,/map,0.057801194489,0.0,0.668621361256,2.98607039452,0.0
1655714705779242539,257,1655714705779072046,/map,-0.152368322015,0.0,0.106911174953,0.0,0.0
1655714705880368426,258,1655714705880100011,/map,0.0205560997128,0.0,0.670051157475,2.98012089729,0.0
1655714705985426757,259,1655714705984965085,/map,-0.0904016196728,0.0,0.122605055571,0.0,0.0
1655714706085683838,260,1655714706085485935,/map,-0.0821624547243,0.0,0.744053483009,2.99575018883,0.0
1655714706179736903,261,1655714706179363965,/map,-0.0305008254945,0.0,0.00806225743145,0.0,0.0
1655714706279344374,262,1655714706278198957,/map,-0.0492414087057,0.0,0.643203675747,3.06651926041,0.0
1655714706379907526,263,1655714706379460096,/map,-0.101579837501,0.0,0.0270924344659,0.0,0.0
1655714706500543332,264,1655714706500368118,/map,-0.0335723757744,0.0,0.639467716217,3.0660943985,0.0
1655714706584370834,265,1655714706584217071,/map,-0.104275040329,0.0,0.0989191606641,0.0,0.0
1655714706684420997,266,1655714706684243917,/map,-0.147634088993,0.0,0.0483425296843,0.0,0.0
1655714706781150987,267,1655714706780687093,/map,-0.120429806411,0.0,0.0963846445084,0.0,0.0
1655714706881211753,268,1655714706880748987,/map,-0.0702961534262,0.0,0.753705203533,3.05340361595,0.0
1655714707002443577,269,1655714707002310037,/map,-0.0611929260194,0.0,0.116520382464,0.0,0.0
1655714707081439776,270,1655714707080975055,/map,-0.000229686760576,0.0,0.778714597225,3.05640506744,0.0
1655714707181937974,271,1655714707181721925,/map,-0.134483665228,0.0,0.0693757906556,0.0,0.0
1655714707278562026,272,1655714707278228044,/map,-0.0378063619137,0.0,0.0270924344659,0.0,0.0
1655714707381609041,273,1655714707381382942,/map,-0.0270782411098,0.0,0.0,0.0,0.0
1655714707480042821,274,1655714707479640007,/map,0.110439546406,0.0,0.642982184887,3.12190556526,0.0
1655714707580442382,275,1655714707579713106,/map,0.0680663362145,0.0,0.00547722540796,0.0,0.0
1655714707681889278,276,1655714707681413888,/map,0.0490706451237,0.0,0.67077422142,3.13650035858,0.0
1655714707779180498,277,1655714707779053926,/map,0.0374980680645,0.0,0.0336154736578,0.0,0.0
1655714707876884037,278,1655714707876743078,/map,0.147281631827,0.0,0.649440944195,3.12658143044,0.0
1655714707979803955,279,1655714707979625940,/map,0.102847889066,0.0,0.0092736184597,0.0,0.0
1655714708081241789,280,1655714708080813884,/map,0.0778878480196,0.0,0.00948683265597,0.0,0.0
1655714708181244916,281,1655714708181034088,/map,0.0658252984285,0.0,0.0622334331274,0.0,0.0
1655714708282617954,282,1655714708282515048,/map,0.0655940324068,0.0,0.024207437411,0.0,0.0
1655714708383512939,283,1655714708383378028,/map,0.0655940324068,0.0,0.00538516463712,0.0,0.0
1655714708479128140,284,1655714708478971004,/map,0.0805724412203,0.0,0.0598498135805,0.0,0.0
1655714708581061574,285,1655714708580610990,/map,0.0295120421797,0.0,0.628749012947,3.11825013161,0.0
1655714708679566843,286,1655714708679016113,/map,0.0759306699038,0.0,0.00519615225494,0.0,0.0
1655714708778184751,287,1655714708778053045,/map,-0.0404017418623,0.0,0.641215085983,3.17072033882,0.0
1655714708885088960,288,1655714708884926080,/map,-0.0293864477426,0.0,0.0165227111429,0.0,0.0
1655714708980416976,289,1655714708979840993,/map,0.0133176576346,0.0,0.0214709099382,0.0,0.0
1655714709082908609,290,1655714709082775115,/map,-0.0059343315661,0.0,0.665604114532,3.17752146721,0.0
1655714709180389757,291,1655714709179790019,/map,-0.0411283224821,0.0,0.0480312407017,0.0,0.0
1655714709282334224,292,1655714709282207965,/map,-0.128345176578,0.0,0.0937763303518,0.0,0.0
1655714709380583034,293,1655714709380431890,/map,-0.0314457081258,0.0,0.651009202003,3.13917946815,0.0
1655714709485565418,294,1655714709485351085,/map,0.00764985196292,0.0,0.0613921806216,0.0,0.0
1655714709586719656,295,1655714709586576938,/map,-0.0266798585653,0.0,0.692515134811,3.18177318573,0.0
1655714709681144779,296,1655714709680730104,/map,-0.100940480828,0.0,0.0214009340852,0.0,0.0
1655714709783431552,297,1655714709783293008,/map,-0.0391886122525,0.0,0.702956616879,3.22349286079,0.0
1655714709883472510,298,1655714709883358001,/map,-0.0479289479554,0.0,0.121206432581,0.0,0.0
1655714709981213777,299,1655714709980776071,/map,-0.0590709932148,0.0,0.644425570965,3.15829205513,0.0
1655714710082556498,300,1655714710082437038,/map,0.0631248801947,0.0,0.0837973728776,0.0,0.0
1655714710179738394,301,1655714710179313898,/map,0.0580832213163,0.0,0.80190384388,3.2256026268,0.0
1655714710284443573,302,1655714710284280061,/map,0.0171295031905,0.0,0.172652825713,0.0,0.0
1655714710381537583,303,1655714710381345033,/map,0.0924294069409,0.0,0.654907882214,3.15064406395,0.0
1655714710495241125,304,1655714710495121002,/map,0.0800889357924,0.0,0.0164316762239,0.0,0.0
1655714710588199899,305,1655714710588032007,/map,0.0787096843123,0.0,0.0882609784603,0.0,0.0
1655714710682769318,306,1655714710682658910,/map,0.072327695787,0.0,0.0537121966481,0.0,0.0
1655714710784598761,307,1655714710784212112,/map,0.0781305655837,0.0,0.106634892523,0.0,0.0
1655714710884101629,308,1655714710883930921,/map,0.165938049555,0.0,0.881279468536,3.24974274635,0.0
1655714710982780949,309,1655714710982650995,/map,0.145783483982,0.0,0.218071088195,0.0,0.0
1655714711089063381,310,1655714711088920116,/map,0.129746764898,0.0,0.905429780483,3.19016551971,0.0
1655714711187106031,311,1655714711186912059,/map,0.0106280855834,0.0,0.0123288277537,0.0,0.0
1655714711281648788,312,1655714711281140089,/map,0.065458394587,0.0,0.105123735964,0.0,0.0
1655714711381237624,313,1655714711381047010,/map,0.0593764819205,0.0,0.675065696239,3.2349717617,0.0
