%time,field.header.seq,field.header.stamp,field.header.frame_id,field.drive.steering_angle,field.drive.steering_angle_velocity,field.drive.speed,field.drive.acceleration,field.drive.jerk
1655713492045071335,1,1655713492044512033,/map,3.10441827774,0.0,0.0,0.0,0.0
1655713492141324905,2,1655713492140206098,/map,3.10441827774,0.0,0.0,0.0,0.0
1655713492244216848,3,1655713492244036912,/map,3.10441827774,0.0,0.0,0.0,0.0
1655713492338876520,4,1655713492338685989,/map,3.10441827774,0.0,0.0,0.0,0.0
1655713492437315993,5,1655713492436711072,/map,3.10441827774,0.0,0.0,0.0,0.0
1655713492537806100,6,1655713492537666082,/map,3.10441827774,0.0,0.0,0.0,0.0
1655713492640197478,7,1655713492640053033,/map,3.10441827774,0.0,0.0,0.0,0.0
1655713492738165281,8,1655713492737622022,/map,3.10441827774,0.0,0.0,0.0,0.0
1655713492844929074,9,1655713492844763040,/map,3.10441827774,0.0,0.0,0.0,0.0
1655713492977722960,10,1655713492977163076,/map,3.10441827774,0.0,0.0,0.0,0.0
1655713493041464789,11,1655713493041312932,/map,3.10441827774,0.0,0.0,0.0,0.0
1655713493137993669,12,1655713493137753009,/map,3.10441827774,0.0,0.0,0.0,0.0
1655713493241167146,13,1655713493240565061,/map,3.10441827774,0.0,0.0,0.0,0.0
1655713493338953492,14,1655713493338413000,/map,3.10441827774,0.0,0.0,0.0,0.0
1655713493439425148,15,1655713493439178943,/map,3.10441827774,0.0,0.0,0.0,0.0
1655713493539912709,16,1655713493539316892,/map,3.10441827774,0.0,0.0,0.0,0.0
1655713493637725545,17,1655713493637584924,/map,3.10441827774,0.0,0.0,0.0,0.0
1655713493738940831,18,1655713493738733053,/map,3.10441827774,0.0,0.0,0.0,0.0
1655713493840363353,19,1655713493840183973,/map,3.10441827774,0.0,0.00509901950136,0.0,0.0
1655713493937434776,20,1655713493936868906,/map,3.10441827774,0.0,0.0063245552592,0.0,0.0
1655713494039855835,21,1655713494039328098,/map,3.10441827774,0.0,0.00600000005215,0.0,0.0
1655713494142631612,22,1655713494142477989,/map,3.10441827774,0.0,0.00223606801592,0.0,0.0
1655713494238936132,23,1655713494238399982,/map,3.10441827774,0.0,0.00447213603184,0.0,0.0
1655713494338633337,24,1655713494338515043,/map,3.10441827774,0.0,0.0,0.0,0.0
1655713494438125887,25,1655713494437448024,/map,3.10441827774,0.0,0.00447213603184,0.0,0.0
1655713494542796500,26,1655713494542684078,/map,3.10441827774,0.0,0.0010000000475,0.0,0.0
1655713494639493264,27,1655713494638700008,/map,3.10441827774,0.0,0.0,0.0,0.0
1655713494749366798,28,1655713494747649908,/map,3.10441827774,0.0,0.0,0.0,0.0
1655713494840078609,29,1655713494839874029,/map,3.10441827774,0.0,0.0,0.0,0.0
1655713494940419730,30,1655713494939886093,/map,3.10441827774,0.0,0.0,0.0,0.0
1655713495040419463,31,1655713495039879083,/map,3.10441827774,0.0,0.0,0.0,0.0
1655713495138959594,32,1655713495138758897,/map,3.10441827774,0.0,0.0,0.0,0.0
1655713495239756457,33,1655713495239607095,/map,3.10441827774,0.0,0.0,0.0,0.0
1655713495339102408,34,1655713495338517904,/map,3.10441827774,0.0,0.0,0.0,0.0
1655713495438034922,35,1655713495437850952,/map,3.10441827774,0.0,0.0,0.0,0.0
1655713495538069643,36,1655713495537936925,/map,3.10441827774,0.0,0.0,0.0,0.0
1655713495638125653,37,1655713495637537002,/map,3.10441827774,0.0,0.0,0.0,0.0
1655713495739731290,38,1655713495739583969,/map,3.10441827774,0.0,0.0,0.0,0.0
1655713495840072669,39,1655713495839426994,/map,3.10441827774,0.0,0.0,0.0,0.0
1655713495940161297,40,1655713495940011024,/map,3.10441827774,0.0,0.0,0.0,0.0
1655713496038082741,41,1655713496037554979,/map,3.10441827774,0.0,0.0,0.0,0.0
1655713496141656932,42,1655713496140584945,/map,3.10441827774,0.0,0.0,0.0,0.0
1655713496245406155,43,1655713496245204925,/map,3.10441827774,0.0,0.0,0.0,0.0
1655713496339832193,44,1655713496339173078,/map,3.10441827774,0.0,0.0,0.0,0.0
1655713496438356542,45,1655713496437783956,/map,3.10441827774,0.0,0.0,0.0,0.0
1655713496541395637,46,1655713496541277885,/map,3.10441827774,0.0,0.0,0.0,0.0
1655713496639964392,47,1655713496639271020,/map,3.10441827774,0.0,0.0,0.0,0.0
1655713496743695264,48,1655713496743510007,/map,3.10441827774,0.0,0.0,0.0,0.0
1655713496842344840,49,1655713496842199087,/map,3.10441827774,0.0,0.0,0.0,0.0
1655713496939929376,50,1655713496939328908,/map,3.10441827774,0.0,0.0,0.0,0.0
1655713497038409933,51,1655713497037832975,/map,3.10441827774,0.0,0.0,0.0,0.0
1655713497138401408,52,1655713497138175010,/map,3.10441827774,0.0,0.0,0.0,0.0
1655713497238869470,53,1655713497238686084,/map,3.10441827774,0.0,0.0,0.0,0.0
1655713497338484175,54,1655713497338342905,/map,3.10441827774,0.0,0.0,0.0,0.0
1655713497444846032,55,1655713497444669961,/map,3.10441827774,0.0,0.0,0.0,0.0
1655713497536225326,56,1655713497536086082,/map,3.10441827774,0.0,0.0,0.0,0.0
1655713497645140884,57,1655713497644604921,/map,3.10441827774,0.0,0.0,0.0,0.0
1655713497739629640,58,1655713497739094972,/map,3.10441827774,0.0,0.0,0.0,0.0
1655713497839621007,59,1655713497839016914,/map,3.10441827774,0.0,0.0,0.0,0.0
1655713497938883929,60,1655713497938628911,/map,3.10441827774,0.0,0.0010000000475,0.0,0.0
1655713498040939838,61,1655713498040790081,/map,3.10441827774,0.0,0.0,0.0,0.0
1655713498142660841,62,1655713498142535924,/map,3.10441827774,0.0,0.0,0.0,0.0
1655713498243412873,63,1655713498243244886,/map,3.10441827774,0.0,0.0,0.0,0.0
1655713498338794285,64,1655713498338141918,/map,3.10441827774,0.0,0.0,0.0,0.0
1655713498435803139,65,1655713498435663938,/map,3.10441827774,0.0,0.0,0.0,0.0
1655713498538188378,66,1655713498537631988,/map,3.10441827774,0.0,0.0,0.0,0.0
1655713498639499632,67,1655713498638433933,/map,3.10441827774,0.0,0.0,0.0,0.0
1655713498739909744,68,1655713498739722967,/map,-0.0920759066939,0.0,0.00200000009499,0.0,0.0
1655713498838792502,69,1655713498837827920,/map,5.89390420914,0.0,0.00200000009499,0.0,0.0
1655713498964274549,70,1655713498964121103,/map,-0.256898254156,0.0,0.00400000018999,0.0,0.0
1655713499042056421,71,1655713499041951894,/map,-0.130945280194,0.0,0.0,0.0,0.0
1655713499137826031,72,1655713499137253999,/map,5.80930089951,0.0,0.0241246763617,0.0,0.0
1655713499241876409,73,1655713499241750955,/map,-0.276615947485,0.0,0.0198494326323,0.0,0.0
1655713499341014431,74,1655713499340884923,/map,-0.276615947485,0.0,0.0322024859488,0.0,0.0
1655713499437530365,75,1655713499437380075,/map,-0.228017404675,0.0,0.0,0.0,0.0
1655713499541873047,76,1655713499541755914,/map,-0.212952688336,0.0,0.0120415948331,0.0,0.0
1655713499639959560,77,1655713499639858007,/map,-0.221605136991,0.0,0.00877496413887,0.0,0.0
1655713499740237050,78,1655713499739645957,/map,-0.221605136991,0.0,0.0,0.0,0.0
1655713499847763604,79,1655713499847204923,/map,-0.155844286084,0.0,0.00374165736139,0.0,0.0
1655713499938778158,80,1655713499938116073,/map,-0.184558704495,0.0,0.0200499370694,0.0,0.0
1655713500041199134,81,1655713500040429115,/map,-0.182209804654,0.0,0.007810249459,0.0,0.0
1655713500140162476,82,1655713500139643907,/map,-0.182209804654,0.0,0.0,0.0,0.0
1655713500239093173,83,1655713500238549947,/map,-0.215670660138,0.0,0.0036055513192,0.0,0.0
1655713500347662918,84,1655713500347104072,/map,-0.192466571927,0.0,0.00640312442556,0.0,0.0
1655713500441562690,85,1655713500440345048,/map,-0.147203996778,0.0,0.00806225743145,0.0,0.0
1655713500540425712,86,1655713500539870023,/map,-0.123799644411,0.0,0.00707106757909,0.0,0.0
1655713500638880312,87,1655713500638721942,/map,-0.218602254987,0.0,0.0206155274063,0.0,0.0
1655713500740061712,88,1655713500739489078,/map,-0.192931964993,0.0,0.0,0.0,0.0
1655713500841289651,89,1655713500840730905,/map,-0.204918935895,0.0,0.00806225743145,0.0,0.0
1655713500938069123,90,1655713500937542915,/map,-0.204918935895,0.0,0.00300000002608,0.0,0.0
1655713501038858519,91,1655713501038676977,/map,-0.0614140853286,0.0,0.00999999977648,0.0,0.0
1655713501143026173,92,1655713501142818927,/map,-0.171982601285,0.0,0.0108627807349,0.0,0.0
1655713501240961027,93,1655713501240814924,/map,-0.195353105664,0.0,0.0141421351582,0.0,0.0
1655713501346180472,94,1655713501345592021,/map,-0.141539409757,0.0,0.0141774471849,0.0,0.0
1655713501441061539,95,1655713501439954042,/map,-0.121321998537,0.0,0.010630145669,0.0,0.0
1655713501539264541,96,1655713501539058923,/map,-0.169865205884,0.0,0.00223606801592,0.0,0.0
1655713501639761081,97,1655713501639209032,/map,-0.135119512677,0.0,0.00223606801592,0.0,0.0
1655713501742993368,98,1655713501742432117,/map,-0.135119512677,0.0,0.0130384052172,0.0,0.0
1655713501842157118,99,1655713501842031955,/map,-0.150896623731,0.0,0.0187082868069,0.0,0.0
1655713501939910870,100,1655713501939315080,/map,-0.225290611386,0.0,0.00994987413287,0.0,0.0
1655713502039238889,101,1655713502038661003,/map,-0.225290611386,0.0,0.0246981773525,0.0,0.0
1655713502142001926,102,1655713502141820907,/map,-0.144507721066,0.0,0.0510392002761,0.0,0.0
1655713502239872198,103,1655713502239322900,/map,-0.208746030927,0.0,0.0,0.0,0.0
1655713502345441108,104,1655713502344878911,/map,-0.105907283723,0.0,0.0,0.0,0.0
1655713502442503073,105,1655713502442374944,/map,-0.188368394971,0.0,0.0,0.0,0.0
1655713502543894128,106,1655713502543663978,/map,-0.0911214649677,0.0,0.177398607135,0.714873850346,0.0
1655713502645411285,107,1655713502644891023,/map,0.00406888732687,0.0,0.152989372611,0.652030944824,0.0
1655713502744609792,108,1655713502744501113,/map,-0.0778723359108,0.0,0.172616153955,0.681009352207,0.0
1655713502846798223,109,1655713502846191883,/map,-0.0795394703746,0.0,0.168494194746,0.682002902031,0.0
1655713502947736644,110,1655713502947455883,/map,-0.165045529604,0.0,0.190427109599,0.701935589314,0.0
1655713503046406490,111,1655713503046227931,/map,-0.0301421396434,0.0,0.198396518826,0.702845931053,0.0
1655713503144708609,112,1655713503144392013,/map,-0.0622599720955,0.0,0.197350218892,0.710164785385,0.0
1655713503244526887,113,1655713503244381904,/map,0.0201752707362,0.0,0.147126764059,0.715018332005,0.0
1655713503344312553,114,1655713503342920064,/map,-0.0625692382455,0.0,0.178014010191,0.768209457397,0.0
1655713503447062643,115,1655713503446924924,/map,-0.0283185560256,0.0,0.19829761982,0.767825424671,0.0
1655713503548777494,116,1655713503548646926,/map,0.0369110032916,0.0,0.185993924737,0.764818131924,0.0
1655713503646392924,117,1655713503645792007,/map,-0.102975510061,0.0,0.189927309752,0.786694824696,0.0
1655713503754110975,118,1655713503753984928,/map,0.0859715938568,0.0,0.182801172137,0.797279655933,0.0
1655713503851816973,119,1655713503851661920,/map,0.0231559798121,0.0,0.209339916706,0.82081246376,0.0
1655713503947845343,120,1655713503947285890,/map,-0.0993546098471,0.0,0.204102188349,0.816488862038,0.0
1655713504047331531,121,1655713504046567916,/map,-0.13053072989,0.0,0.183480218053,0.828942060471,0.0
1655713504148750739,122,1655713504148638010,/map,0.101461976767,0.0,0.32359418273,0.882545828819,0.0
1655713504247844474,123,1655713504247308969,/map,-0.113655850291,0.0,0.207820922136,0.782443344593,0.0
1655713504347672517,124,1655713504347104072,/map,0.0495216138661,0.0,0.189295738935,0.863262116909,0.0
1655713504451604717,125,1655713504451478004,/map,0.0310741700232,0.0,0.267509669065,0.908741950989,0.0
1655713504546073624,126,1655713504545888900,/map,-0.0495968535542,0.0,0.209076091647,0.860921859741,0.0
1655713504646714414,127,1655713504646147012,/map,0.0964822843671,0.0,0.236129075289,0.915079951286,0.0
1655713504752009382,128,1655713504751842021,/map,-0.101422294974,0.0,0.256874769926,0.917154550552,0.0
1655713504849912107,129,1655713504848541021,/map,0.0152158876881,0.0,0.20415648818,0.906327188015,0.0
1655713504947319838,130,1655713504947105884,/map,0.0149774216115,0.0,0.229097738862,0.958874106407,0.0
1655713505047654801,131,1655713505047092914,/map,0.0131248570979,0.0,0.259554594755,0.964193820953,0.0
1655713505147083638,132,1655713505146878957,/map,-0.0881255716085,0.0,0.269201755524,0.958516836166,0.0
1655713505250169541,133,1655713505249955892,/map,0.0440657734871,0.0,0.257644325495,0.962146520615,0.0
1655713505351361587,134,1655713505351207971,/map,-0.0153578100726,0.0,0.267437130213,0.984730005264,0.0
1655713505464019893,135,1655713505463896989,/map,-0.0572536885738,0.0,0.245042175055,0.98825097084,0.0
1655713505549319288,136,1655713505549170017,/map,-0.0927496775985,0.0,0.262826800346,1.01977026463,0.0
1655713505648157931,137,1655713505647977113,/map,-0.0932054072618,0.0,0.258120238781,1.02185404301,0.0
1655713505751344272,138,1655713505751239061,/map,0.0518173091114,0.0,0.224196910858,1.03182172775,0.0
1655713505848920227,139,1655713505848751068,/map,-0.00287281768396,0.0,0.227923586965,1.06926178932,0.0
1655713505949037199,140,1655713505948857069,/map,-0.0493349358439,0.0,0.301046341658,1.09590291977,0.0
1655713506048477034,141,1655713506048315048,/map,-0.0739469155669,0.0,0.285771667957,1.05818331242,0.0
1655713506153406463,142,1655713506152844905,/map,0.0393203757703,0.0,0.262829333544,1.07440721989,0.0
1655713506249766049,143,1655713506248745918,/map,0.0503229163587,0.0,0.338188767433,1.11768567562,0.0
1655713506348230186,144,1655713506347913026,/map,-0.132098868489,0.0,0.254970699549,1.06682705879,0.0
1655713506449674830,145,1655713506449503898,/map,0.0743798390031,0.0,0.339531421661,1.14797532558,0.0
1655713506552069581,146,1655713506551930904,/map,-0.0203541945666,0.0,0.375083118677,1.11525118351,0.0
1655713506651415177,147,1655713506651310920,/map,0.166453272104,0.0,0.288541018963,1.08514392376,0.0
1655713506746397531,148,1655713506746201038,/map,0.166368559003,0.0,0.305164366961,1.15720951557,0.0
1655713506848486662,149,1655713506848304986,/map,0.00319095607847,0.0,0.275718718767,1.15813946724,0.0
1655713506948912660,150,1655713506948658943,/map,0.0319223217666,0.0,0.236777439713,1.18388724327,0.0
1655713507047098997,151,1655713507046884059,/map,0.12454713136,0.0,0.248303383589,1.2273747921,0.0
1655713507147107030,152,1655713507146852016,/map,0.106005959213,0.0,0.288040429354,1.2431614399,0.0
1655713507250388134,153,1655713507250216960,/map,0.0480675473809,0.0,0.333263337612,1.23870706558,0.0
1655713507350417897,154,1655713507350271940,/map,0.0717409998178,0.0,0.245894744992,1.2044737339,0.0
1655713507447633629,155,1655713507447500944,/map,0.0668494924903,0.0,0.31033667922,1.28621220589,0.0
1655713507549394575,156,1655713507549212932,/map,0.0263108778745,0.0,0.260502189398,1.2520134449,0.0
1655713507648370508,157,1655713507648257970,/map,0.0532424077392,0.0,0.267896801233,1.29795098305,0.0
1655713507752365393,158,1655713507752202033,/map,0.0773977711797,0.0,0.279830813408,1.31154692173,0.0
1655713507850444437,159,1655713507850315093,/map,0.0358547195792,0.0,0.269632905722,1.31576085091,0.0
1655713507947703951,160,1655713507947576999,/map,0.014851427637,0.0,0.29865860939,1.34155321121,0.0
1655713508049805163,161,1655713508049217939,/map,-0.00651483237743,0.0,0.2784537673,1.33310806751,0.0
1655713508147519242,162,1655713508146923065,/map,0.0213385261595,0.0,0.283101648092,1.36028134823,0.0
1655713508249443415,163,1655713508249279022,/map,0.0109946178272,0.0,0.27666452527,1.37107515335,0.0
1655713508360943404,164,1655713508360112905,/map,0.055645916611,0.0,0.277947157621,1.3897356987,0.0
1655713508448388999,165,1655713508448232889,/map,-0.0678294822574,0.0,0.295559346676,1.40673339367,0.0
1655713508547190138,166,1655713508546971082,/map,-0.0172216556966,0.0,0.312623530626,1.41236948967,0.0
1655713508653919105,167,1655713508653789043,/map,0.0131973009557,0.0,0.295853942633,1.411262393,0.0
1655713508751215251,168,1655713508751059055,/map,0.0450018718839,0.0,0.315452933311,1.43933355808,0.0
1655713508849468180,169,1655713508849255084,/map,0.0449886992574,0.0,0.315350413322,1.44110548496,0.0
1655713508953665129,170,1655713508953495979,/map,-0.0254231709987,0.0,0.316940844059,1.45470428467,0.0
1655713509051478957,171,1655713509051378965,/map,-0.0307882074267,0.0,0.308992803097,1.46622395515,0.0
1655713509149938171,172,1655713509149822950,/map,-0.0309494659305,0.0,0.313111662865,1.48634338379,0.0
1655713509251210525,173,1655713509251082897,/map,0.0625503137708,0.0,0.395618259907,1.51325273514,0.0
1655713509352014577,174,1655713509351885080,/map,-0.00518812052906,0.0,0.35695117712,1.46483409405,0.0
1655713509451458485,175,1655713509451318025,/map,-0.00254035228863,0.0,0.357350230217,1.50048196316,0.0
1655713509550859650,176,1655713509550723075,/map,0.104256644845,0.0,0.396866738796,1.52267897129,0.0
1655713509653326420,177,1655713509652782917,/map,0.137403473258,0.0,0.37576982379,1.50615632534,0.0
1655713509749338618,178,1655713509749083042,/map,0.13693408668,0.0,0.335062265396,1.52448022366,0.0
1655713509864060587,179,1655713509863497018,/map,-0.0622727796435,0.0,0.335955858231,1.56642150879,0.0
1655713509959503154,180,1655713509959239006,/map,-0.00532610761002,0.0,0.35474589467,1.58524870872,0.0
1655713510049708635,181,1655713510049576044,/map,-0.00295656058006,0.0,0.425342291594,1.59978640079,0.0
1655713510149852133,182,1655713510149359941,/map,0.0848669782281,0.0,0.347119241953,1.55120527744,0.0
1655713510253753212,183,1655713510253616094,/map,-0.0429184623063,0.0,0.372037261724,1.61826694012,0.0
1655713510348524652,184,1655713510348349094,/map,-0.00199644989334,0.0,0.351850628853,1.61520457268,0.0
1655713510451986235,185,1655713510451868057,/map,0.0747968405485,0.0,0.357137084007,1.64268195629,0.0
1655713510549261858,186,1655713510548988103,/map,-0.0800140947104,0.0,0.371152669191,1.65664029121,0.0
1655713510652839372,187,1655713510652735948,/map,0.12763145566,0.0,0.378188490868,1.66241443157,0.0
1655713510754366586,188,1655713510754180908,/map,-0.0556761026382,0.0,0.340085029602,1.66402459145,0.0
1655713510855923116,189,1655713510855705022,/map,0.00500322505832,0.0,0.376289874315,1.70976650715,0.0
1655713510953149707,190,1655713510953017950,/map,0.0245002321899,0.0,0.428155064583,1.71097898483,0.0
1655713511051462242,191,1655713511050318002,/map,0.0566609427333,0.0,0.381357222795,1.68007040024,0.0
1655713511150981471,192,1655713511150875091,/map,-0.0352132506669,0.0,0.439748227596,1.73317694664,0.0
1655713511248142311,193,1655713511247493982,/map,-0.0055462284945,0.0,0.449449449778,1.71164011955,0.0
1655713511351183755,194,1655713511351079940,/map,0.194185018539,0.0,0.366741597652,1.70085477829,0.0
1655713511449272429,195,1655713511448793888,/map,-0.0348890535533,0.0,0.471650540829,1.78823077679,0.0
1655713511555146437,196,1655713511554858922,/map,0.0579593107104,0.0,0.466444045305,1.73470449448,0.0
1655713511651875163,197,1655713511651710987,/map,0.0473435483873,0.0,0.485048115253,1.75024044514,0.0
1655713511751422895,198,1655713511751302957,/map,-0.000522980000824,0.0,0.398483216763,1.73497676849,0.0
1655713511850904479,199,1655713511850358009,/map,0.00688296882436,0.0,0.520328104496,1.82751190662,0.0
1655713511953329586,200,1655713511953166007,/map,0.0728785321116,0.0,0.394811272621,1.74049699306,0.0
1655713512066826216,201,1655713512066705942,/map,0.0408922731876,0.0,0.557286202908,1.86194467545,0.0
1655713512148296047,202,1655713512148164987,/map,0.116475075483,0.0,0.445667296648,1.75173389912,0.0
1655713512250139158,203,1655713512249984025,/map,0.117306433618,0.0,0.462338119745,1.8350880146,0.0
1655713512350823760,204,1655713512350101947,/map,-0.0410991869867,0.0,0.520099878311,1.85250198841,0.0
1655713512448577474,205,1655713512448340892,/map,0.142176434398,0.0,0.44560533762,1.81302666664,0.0
1655713512555118535,206,1655713512554886102,/map,-0.0958441570401,0.0,0.413290679455,1.86726760864,0.0
1655713512651302699,207,1655713512650744915,/map,0.0111305257306,0.0,0.472472190857,1.91654706001,0.0
1655713512752708232,208,1655713512749391078,/map,0.0151094589382,0.0,0.458430975676,1.88991117477,0.0
1655713512850314451,209,1655713512850116014,/map,0.000591713702306,0.0,0.459289759398,1.91034650803,0.0
1655713512949761369,210,1655713512949573993,/map,0.0380523689091,0.0,0.449218243361,1.92193841934,0.0
1655713513049758013,211,1655713513049585103,/map,0.0122943194583,0.0,0.432958245277,1.93929171562,0.0
1655713513149683827,212,1655713513149507045,/map,0.0522338859737,0.0,0.540147960186,1.98399376869,0.0
1655713513252407010,213,1655713513252269983,/map,0.0619284845889,0.0,0.485195249319,1.91666293144,0.0
1655713513351666682,214,1655713513351557016,/map,0.0611825920641,0.0,0.566481769085,1.97645914555,0.0
1655713513448902617,215,1655713513448271036,/map,0.078849196434,0.0,0.520505011082,1.92898952961,0.0
1655713513547606693,216,1655713513547473907,/map,0.0441198572516,0.0,0.546858429909,1.97370040417,0.0
1655713513659464721,217,1655713513658972978,/map,0.0674008876085,0.0,0.578031241894,1.97656452656,0.0
1655713513755325986,218,1655713513754846096,/map,0.0425754785538,0.0,0.412717401981,1.93709588051,0.0
1655713513852368589,219,1655713513852252006,/map,0.0980083122849,0.0,0.434565186501,2.06305336952,0.0
1655713513960111258,220,1655713513959525108,/map,0.169854879379,0.0,0.426867753267,2.06857395172,0.0
1655713514052559471,221,1655713514052437067,/map,0.0735175907612,0.0,0.431579053402,2.08825325966,0.0
1655713514150652364,222,1655713514150535106,/map,0.0767021253705,0.0,0.486765325069,2.1097509861,0.0
1655713514251878113,223,1655713514251743078,/map,0.0861323699355,0.0,0.469645887613,2.08360695839,0.0
1655713514368626972,224,1655713514368489027,/map,0.0639538094401,0.0,0.440302252769,2.10088825226,0.0
1655713514451831423,225,1655713514451307058,/map,0.105966508389,0.0,0.463491737843,2.13927340508,0.0
1655713514557419746,226,1655713514557146072,/map,0.144602820277,0.0,0.463489115238,2.13926029205,0.0
1655713514649879203,227,1655713514649672031,/map,0.1626496315,0.0,0.491120159626,2.15735602379,0.0
1655713514758582851,228,1655713514754626989,/map,0.164183109999,0.0,0.483807682991,2.15140986443,0.0
1655713514852015907,229,1655713514851874113,/map,0.145834356546,0.0,0.491982638836,2.17030143738,0.0
1655713514950556218,230,1655713514950371026,/map,0.17184984684,0.0,0.433641165495,2.16820573807,0.0
1655713515050230096,231,1655713515049962997,/map,0.222234934568,0.0,0.446633398533,2.2231669426,0.0
1655713515151918021,232,1655713515151763916,/map,0.233550459146,0.0,0.477490842342,2.23712134361,0.0
1655713515249418657,233,1655713515249247074,/map,0.25845554471,0.0,0.496701985598,2.23386025429,0.0
1655713515352699133,234,1655713515351898908,/map,0.28929027915,0.0,0.491940766573,2.23271274567,0.0
1655713515452704060,235,1655713515452187061,/map,0.292867064476,0.0,0.476562708616,2.24597430229,0.0
1655713515552097716,236,1655713515551831960,/map,0.330602318048,0.0,0.501880884171,2.27499032021,0.0
1655713515643818881,237,1655713515643707990,/map,0.303200393915,0.0,0.507952213287,2.27391314507,0.0
1655713515744740166,238,1655713515744600057,/map,0.22597014904,0.0,0.463437259197,2.27446627617,0.0
1655713515842984201,239,1655713515842864990,/map,0.189148187637,0.0,0.504776537418,2.32538819313,0.0
1655713515944851956,240,1655713515944664001,/map,0.18830101192,0.0,0.0346698723733,0.0,0.0
1655713516044051280,241,1655713516043879985,/map,0.108438886702,0.0,0.0558927543461,0.0,0.0
1655713516141398886,242,1655713516140934944,/map,0.182262390852,0.0,0.0010000000475,0.0,0.0
1655713516242531187,243,1655713516242358922,/map,0.199228256941,0.0,0.00374165736139,0.0,0.0
1655713516341040936,244,1655713516340935945,/map,0.0708040893078,0.0,0.0281957443804,0.0,0.0
1655713516443977345,245,1655713516443849086,/map,0.153832644224,0.0,0.0197484176606,0.0,0.0
1655713516543297697,246,1655713516543143987,/map,0.118000000715,0.0,0.0718122571707,0.0,0.0
1655713516643838892,247,1655713516643722057,/map,0.266200125217,0.0,0.0173781476915,0.0,0.0
1655713516745913292,248,1655713516745065927,/map,0.182212904096,0.0,0.0164924226701,0.0,0.0
1655713516878299597,249,1655713516877805948,/map,0.208335712552,0.0,0.0211187116802,0.0,0.0
1655713516944590593,250,1655713516944029092,/map,0.233909681439,0.0,0.0290688835084,0.0,0.0
1655713517046919655,251,1655713517046399116,/map,0.233909681439,0.0,0.0290688835084,0.0,0.0
1655713517141208319,252,1655713517140609025,/map,0.130886152387,0.0,0.0343802273273,0.0,0.0
1655713517244628698,253,1655713517244503021,/map,0.18863978982,0.0,0.010344080627,0.0,0.0
1655713517342653404,254,1655713517342554092,/map,0.18863978982,0.0,0.0452769249678,0.0,0.0
1655713517440672951,255,1655713517440538883,/map,0.163117319345,0.0,0.0361801050603,0.0,0.0
1655713517540784660,256,1655713517540621995,/map,0.122101694345,0.0,0.0036055513192,0.0,0.0
1655713517640650321,257,1655713517640147924,/map,-6.03578996658,0.0,0.0431161224842,0.0,0.0
1655713517740321478,258,1655713517740179061,/map,-6.17038059235,0.0,0.0284956134856,0.0,0.0
1655713517842339291,259,1655713517842159032,/map,-6.09712362289,0.0,0.0,0.0,0.0
1655713517941018151,260,1655713517940378904,/map,-6.11820030212,0.0,0.0201494414359,0.0,0.0
1655713518077872906,261,1655713518077675104,/map,-6.19581460953,0.0,0.0479270294309,0.0,0.0
1655713518140977432,262,1655713518140829086,/map,-5.96319293976,0.0,0.0494064763188,0.0,0.0
1655713518241918667,263,1655713518241759061,/map,-5.96319293976,0.0,0.0494064763188,0.0,0.0
1655713518341838454,264,1655713518341382980,/map,0.197582349181,0.0,0.0683081224561,0.0,0.0
1655713518443160452,265,1655713518443020105,/map,-5.9967713356,0.0,0.100044988096,0.0,0.0
1655713518541271385,266,1655713518541161060,/map,0.233426198363,0.0,0.0,0.0,0.0
1655713518646303115,267,1655713518646095991,/map,0.233426198363,0.0,0.0192093718797,0.0,0.0
1655713518741313319,268,1655713518740613937,/map,0.248990878463,0.0,0.0485180392861,0.0,0.0
1655713518843799788,269,1655713518843676090,/map,0.126787126064,0.0,0.0894594863057,0.0,0.0
1655713518938801372,270,1655713518938628911,/map,-0.0439067557454,0.0,0.0631585270166,0.0,0.0
1655713519038926523,271,1655713519038791894,/map,-6.09688234329,0.0,0.0393700376153,0.0,0.0
1655713519141761803,272,1655713519140983104,/map,0.267161488533,0.0,0.527557313442,2.47515201569,0.0
1655713519241077526,273,1655713519240956068,/map,-0.00991522800177,0.0,0.558331549168,2.33154916763,0.0
1655713519343371743,274,1655713519342609882,/map,0.13108189404,0.0,0.039408121258,0.0,0.0
1655713519441841296,275,1655713519441730022,/map,0.0929003581405,0.0,0.0290860794485,0.0,0.0
1655713519544918316,276,1655713519544720888,/map,0.11928280443,0.0,0.0304302480072,0.0,0.0
1655713519639601345,277,1655713519639436006,/map,0.0584741458297,0.0,0.0506458282471,0.0,0.0
1655713519739249707,278,1655713519739053010,/map,0.214428335428,0.0,0.0246981773525,0.0,0.0
1655713519850420621,279,1655713519850255012,/map,0.114351429045,0.0,0.0314642637968,0.0,0.0
1655713519940294690,280,1655713519940152883,/map,0.108784116805,0.0,0.0286007001996,0.0,0.0
1655713520044313464,281,1655713520044207096,/map,0.173931747675,0.0,0.0527067370713,0.0,0.0
1655713520160322541,282,1655713520159581899,/map,0.0747839584947,0.0,0.0354541949928,0.0,0.0
1655713520239512615,283,1655713520239348888,/map,0.0853861644864,0.0,0.0577321387827,0.0,0.0
1655713520343969054,284,1655713520343205928,/map,0.079154856503,0.0,0.124887950718,0.0,0.0
1655713520442199344,285,1655713520442080020,/map,0.0142070129514,0.0,0.0834925174713,0.0,0.0
1655713520539489100,286,1655713520539294958,/map,0.0312150139362,0.0,0.0366196669638,0.0,0.0
1655713520640325645,287,1655713520639847993,/map,-0.152841746807,0.0,0.0733280330896,0.0,0.0
1655713520741376413,288,1655713520741233110,/map,-0.152841746807,0.0,0.0320780314505,0.0,0.0
1655713520841907107,289,1655713520841746091,/map,0.00412875693291,0.0,0.00300000002608,0.0,0.0
1655713520947000194,290,1655713520945739030,/map,-0.0356510467827,0.0,0.0643350630999,0.0,0.0
1655713521039267119,291,1655713521038769006,/map,0.0103210611269,0.0,0.106117859483,0.0,0.0
1655713521139632675,292,1655713521139399051,/map,-0.0864947661757,0.0,0.0534696169198,0.0,0.0
1655713521248635725,293,1655713521248123884,/map,-0.109693370759,0.0,0.0837735012174,0.0,0.0
1655713521345772407,294,1655713521345226049,/map,-0.0869441851974,0.0,0.125817328691,0.0,0.0
1655713521447302414,295,1655713521447161912,/map,-0.0440166592598,0.0,0.0627534836531,0.0,0.0
1655713521546757432,296,1655713521546241044,/map,-0.10994464159,0.0,0.0742226392031,0.0,0.0
1655713521642779864,297,1655713521642631053,/map,-0.0379620194435,0.0,0.0701498389244,0.0,0.0
1655713521742113630,298,1655713521741991043,/map,0.000178860747837,0.0,0.570998132229,2.48790740967,0.0
1655713521856457058,299,1655713521856302022,/map,0.172743156552,0.0,0.511404037476,2.31969118118,0.0
1655713521963004201,300,1655713521962548017,/map,0.210596159101,0.0,0.600621938705,2.37778973579,0.0
1655713522057766574,301,1655713522057413101,/map,0.243540465832,0.0,0.587742090225,2.33135962486,0.0
1655713522154128821,302,1655713522154005050,/map,0.338497132063,0.0,0.509929716587,2.33488130569,0.0
1655713522257877450,303,1655713522257392883,/map,0.39141869545,0.0,0.562626540661,2.41020607948,0.0
1655713522363119294,304,1655713522362999916,/map,0.359438210726,0.0,0.535422861576,2.38737297058,0.0
1655713522444392193,305,1655713522444267034,/map,0.223512813449,0.0,0.552698433399,2.42016291618,0.0
1655713522540448944,306,1655713522540278911,/map,0.0310259908438,0.0,0.525477230549,2.41846013069,0.0
1655713522642140772,307,1655713522642004966,/map,0.229558199644,0.0,0.575238347054,2.45878911018,0.0
1655713522746185175,308,1655713522745398998,/map,0.247769087553,0.0,0.635833203793,2.45161890984,0.0
1655713522845136854,309,1655713522844969034,/map,0.0437028557062,0.0,0.223262175918,0.0,0.0
1655713522945353867,310,1655713522944873094,/map,-0.00826714839786,0.0,0.246487319469,0.0,0.0
1655713523040985488,311,1655713523040879964,/map,0.0745625048876,0.0,0.72378462553,2.53558325768,0.0
1655713523183929483,312,1655713523183249950,/map,0.237430140376,0.0,0.772959411144,2.40499377251,0.0
1655713523260830372,313,1655713523260706901,/map,0.029677098617,0.0,0.903583049774,2.39750266075,0.0
1655713523361743017,314,1655713523361588001,/map,0.0295574404299,0.0,0.887120485306,2.31518983841,0.0
1655713523475630313,315,1655713523475424051,/map,0.107982233167,0.0,0.816283524036,2.31706929207,0.0
1655713523554033396,316,1655713523553910017,/map,0.0846580117941,0.0,0.836400330067,2.37862992287,0.0
1655713523656302772,317,1655713523656091928,/map,0.0870558097959,0.0,0.836502254009,2.37913942337,0.0
1655713523753950460,318,1655713523753808021,/map,0.0880555436015,0.0,0.872762680054,2.39564800262,0.0
1655713523859336219,319,1655713523859148979,/map,0.0874114856124,0.0,0.769130587578,2.36292719841,0.0
1655713523958611289,320,1655713523958391904,/map,0.159622639418,0.0,0.731618106365,2.43426442146,0.0
1655713524055678712,321,1655713524055552005,/map,0.109215572476,0.0,0.874810099602,2.50160551071,0.0
1655713524158239701,322,1655713524157738924,/map,0.14084084332,0.0,0.813488960266,2.40813016891,0.0
1655713524258170176,323,1655713524257931947,/map,0.129911184311,0.0,0.755172252655,2.44268846512,0.0
1655713524355842733,324,1655713524355299949,/map,0.16216006875,0.0,0.805500030518,2.50437021255,0.0
1655713524453652800,325,1655713524453449010,/map,0.127994984388,0.0,0.678569972515,2.46180200577,0.0
1655713524554394903,326,1655713524553957939,/map,0.0583008602262,0.0,0.504864037037,2.52432012558,0.0
1655713524656784036,327,1655713524656661033,/map,0.123696431518,0.0,0.590302109718,2.67469835281,0.0
1655713524752929321,328,1655713524752729892,/map,0.10036124289,0.0,0.552554965019,2.63315987587,0.0
1655713524855218479,329,1655713524854671955,/map,0.0646650567651,0.0,0.587746083736,2.67538666725,0.0
1655713524958774744,330,1655713524958494901,/map,0.0257878545672,0.0,0.531412780285,2.65706396103,0.0
1655713525055066737,331,1655713525054955959,/map,0.0841937884688,0.0,0.639492034912,2.72698163986,0.0
1655713525157271522,332,1655713525157095909,/map,-0.0158785190433,0.0,0.577335655689,2.659907341,0.0
1655713525255133213,333,1655713525254884004,/map,0.0288416538388,0.0,0.644968867302,2.72262406349,0.0
1655713525355607812,334,1655713525355492115,/map,0.0310037173331,0.0,0.680121719837,2.70009088516,0.0
1655713525458836858,335,1655713525458190917,/map,0.000242347712629,0.0,0.554434299469,2.66388940811,0.0
1655713525558911434,336,1655713525558774948,/map,0.0437528751791,0.0,0.639709115028,2.77498936653,0.0
1655713525667925775,337,1655713525667726993,/map,0.0287381932139,0.0,0.612677037716,2.73259067535,0.0
1655713525759269202,338,1655713525759047985,/map,0.0790351331234,0.0,0.668558835983,2.77093315125,0.0
1655713525856983456,339,1655713525856837987,/map,0.0800704360008,0.0,0.663821220398,2.74724507332,0.0
1655713525962031149,340,1655713525961545944,/map,0.0337647721171,0.0,0.562989711761,2.74266433716,0.0
1655713526058588023,341,1655713526058134078,/map,0.0361088402569,0.0,0.62145793438,2.83429694176,0.0
1655713526149893822,342,1655713526149425983,/map,-0.0567198172212,0.0,0.0350428298116,0.0,0.0
1655713526245520599,343,1655713526245312929,/map,-0.0604019537568,0.0,0.0137477274984,0.0,0.0
1655713526343565876,344,1655713526343380928,/map,-0.0827601328492,0.0,0.046658333391,0.0,0.0
1655713526446377095,345,1655713526446218967,/map,-0.0521390810609,0.0,0.665067434311,3.01837611198,0.0
1655713526542021555,346,1655713526541598081,/map,-0.0984437614679,0.0,0.0788796544075,0.0,0.0
1655713526648950675,347,1655713526648614883,/map,-0.0793079286814,0.0,0.0634428858757,0.0,0.0
1655713526741297066,348,1655713526741177082,/map,-0.00408227974549,0.0,0.71262127161,3.02855062485,0.0
1655713526851271806,349,1655713526851115942,/map,-0.112403482199,0.0,0.0740270242095,0.0,0.0
1655713526940972890,350,1655713526940870046,/map,0.0418691262603,0.0,0.658675849438,3.02388882637,0.0
1655713527046555049,351,1655713527046051979,/map,-0.128874123096,0.0,0.106756731868,0.0,0.0
1655713527148307515,352,1655713527147831916,/map,-0.0305008254945,0.0,0.00806225743145,0.0,0.0
1655713527244171742,353,1655713527244045972,/map,-0.0728764161468,0.0,0.629166722298,3.07583355904,0.0
1655713527347599645,354,1655713527346355915,/map,-0.0883312746882,0.0,0.0,0.0,0.0
1655713527442686365,355,1655713527442507982,/map,-0.0393906086683,0.0,0.64575946331,3.09755325317,0.0
1655713527546790101,356,1655713527546224117,/map,-0.104275040329,0.0,0.105848945677,0.0,0.0
1655713527641465019,357,1655713527641330957,/map,-0.147634088993,0.0,0.0827586874366,0.0,0.0
1655713527742335067,358,1655713527742165088,/map,-0.120429806411,0.0,0.0963846445084,0.0,0.0
1655713527847441529,359,1655713527846573114,/map,-0.0813181474805,0.0,0.756204068661,3.06589794159,0.0
1655713527947349962,360,1655713527946924924,/map,-0.0611929260194,0.0,0.116520382464,0.0,0.0
1655713528048364594,361,1655713528048161983,/map,-0.00613441085443,0.0,0.748241484165,3.06286382675,0.0
1655713528144953984,362,1655713528144474983,/map,-0.134483665228,0.0,0.0693757906556,0.0,0.0
1655713528258933828,363,1655713528258754968,/map,-0.0378063619137,0.0,0.0270924344659,0.0,0.0
1655713528361325604,364,1655713528360840082,/map,-0.0270782411098,0.0,0.0010000000475,0.0,0.0
1655713528447076461,365,1655713528446527004,/map,0.0438859537244,0.0,0.649993181229,3.13485741615,0.0
1655713528544837834,366,1655713528544670104,/map,0.0680663362145,0.0,0.00547722540796,0.0,0.0
1655713528645102398,367,1655713528644891977,/map,0.0641501098871,0.0,0.673327744007,3.14926791191,0.0
1655713528779663929,368,1655713528779325008,/map,0.0374980680645,0.0,0.0336154736578,0.0,0.0
1655713528849738947,369,1655713528848489999,/map,0.102847889066,0.0,0.0110453609377,0.0,0.0
1655713528942777748,370,1655713528942572116,/map,0.102847889066,0.0,0.0110453609377,0.0,0.0
1655713529042797395,371,1655713529042674064,/map,0.0778878480196,0.0,0.00948683265597,0.0,0.0
1655713529146466817,372,1655713529145958900,/map,0.0658252984285,0.0,0.0662872567773,0.0,0.0
1655713529247362971,373,1655713529246820926,/map,0.0655940324068,0.0,0.024207437411,0.0,0.0
1655713529342966807,374,1655713529342847108,/map,0.0655940324068,0.0,0.00700000021607,0.0,0.0
1655713529445275360,375,1655713529444850921,/map,0.0805724412203,0.0,0.0598498135805,0.0,0.0
1655713529541059550,376,1655713529540605068,/map,0.0395645387471,0.0,0.628573000431,3.11737012863,0.0
1655713529647507263,377,1655713529646842002,/map,0.0759306699038,0.0,0.00519615225494,0.0,0.0
1655713529745954113,378,1655713529745690107,/map,-0.0443299897015,0.0,0.641039133072,3.16984009743,0.0
1655713529844524710,379,1655713529844310998,/map,-0.0293864477426,0.0,0.0441021546721,0.0,0.0
1655713529940313120,380,1655713529940109014,/map,0.0133176576346,0.0,0.0227156337351,0.0,0.0
1655713530056209823,381,1655713530056025028,/map,-0.00548182800412,0.0,0.663314223289,3.17541503906,0.0
1655713530147496086,382,1655713530147384881,/map,-0.0411283224821,0.0,0.0480312407017,0.0,0.0
1655713530244661539,383,1655713530244476079,/map,-0.128345176578,0.0,0.0937763303518,0.0,0.0
1655713530342592186,384,1655713530342473983,/map,-0.0342264175415,0.0,0.650836884975,3.13831830025,0.0
1655713530443301562,385,1655713530442925930,/map,0.00764985196292,0.0,0.0889156907797,0.0,0.0
1655713530545848043,386,1655713530545675992,/map,-0.0295316278934,0.0,0.688489556313,3.16164541245,0.0
1655713530676992964,387,1655713530674499034,/map,-0.100940480828,0.0,0.0214009340852,0.0,0.0
1655713530747207546,388,1655713530747010946,/map,-0.070428006351,0.0,0.768124759197,3.23459172249,0.0
1655713530844037000,389,1655713530843904972,/map,-0.0479289479554,0.0,0.121206432581,0.0,0.0
1655713530942861520,390,1655713530942711114,/map,-0.0761742219329,0.0,0.644127368927,3.15680122375,0.0
1655713531049831933,391,1655713531049686908,/map,0.0631248801947,0.0,0.0837973728776,0.0,0.0
1655713531146562811,392,1655713531146409988,/map,0.0662654414773,0.0,0.801605641842,3.22411179543,0.0
1655713531244168131,393,1655713531244024991,/map,0.0171295031905,0.0,0.172374591231,0.0,0.0
1655713531341994828,394,1655713531341890096,/map,0.106532342732,0.0,0.654648661613,3.14934802055,0.0
1655713531445680190,395,1655713531445485115,/map,0.0800889357924,0.0,0.0134907374159,0.0,0.0
1655713531544142619,396,1655713531543955087,/map,0.11351352185,0.0,0.67529886961,3.27341675758,0.0
1655713531645683221,397,1655713531645519018,/map,0.072327695787,0.0,0.0537121966481,0.0,0.0
1655713531742538286,398,1655713531742041110,/map,0.191234081984,0.0,0.816415965557,3.28530502319,0.0
1655713531878514093,399,1655713531878135919,/map,0.0215449891984,0.0,0.231330931187,0.0,0.0
1655713531943859393,400,1655713531943475961,/map,0.135613933206,0.0,0.851970613003,3.18387699127,0.0
1655713532045289490,401,1655713532045147895,/map,-0.0145947374403,0.0,0.215195253491,0.0,0.0
1655713532144743088,402,1655713532144489049,/map,0.0106280855834,0.0,0.0123288277537,0.0,0.0
1655713532246221604,403,1655713532246117115,/map,0.065458394587,0.0,0.0983310714364,0.0,0.0
1655713532342941572,404,1655713532342550992,/map,0.0741908550262,0.0,0.67870336771,3.25316023827,0.0
1655713532445410137,405,1655713532445022106,/map,0.0587204508483,0.0,0.110453613102,0.0,0.0
1655713532543548039,406,1655713532543405055,/map,0.101945504546,0.0,0.849596381187,3.28937602043,0.0
1655713532651298723,407,1655713532651202917,/map,0.025508005172,0.0,0.529698967934,0.0,0.0
1655713532759869035,408,1655713532759660959,/map,0.0865857601166,0.0,1.63736927509,3.16237878799,0.0
1655713532846707432,409,1655713532846556901,/map,0.152047351003,0.0,1.4176183939,0.0,0.0
1655713532970751108,410,1655713532970644950,/map,0.151237234473,0.0,2.31898093224,2.69205355644,0.0
1655713533045682107,411,1655713533045537948,/map,-2.89823961258,0.0,1.35121500492,0.0,0.0
1655713533143397123,412,1655713533143023967,/map,-2.89823961258,0.0,1.35121500492,0.0,0.0
1655713533289525330,413,1655713533289371967,/map,-2.89823961258,0.0,1.38936460018,0.0,0.0
1655713533360246745,414,1655713533359687089,/map,-2.89823961258,0.0,1.43068099022,0.0,0.0
1655713533443810992,415,1655713533443398952,/map,-2.89823961258,0.0,1.43068099022,0.0,0.0
1655713533549800295,416,1655713533549632072,/map,-2.80664372444,0.0,1.36806285381,0.0,0.0
1655713533645833521,417,1655713533645456075,/map,-2.80664372444,0.0,1.38301157951,0.0,0.0
1655713533743807741,418,1655713533743599891,/map,-2.80664372444,0.0,0.00200000009499,0.0,0.0
1655713533852871228,419,1655713533852749109,/map,-2.80664372444,0.0,0.0,0.0,0.0
1655713533948093429,420,1655713533947681903,/map,-2.80664372444,0.0,0.00600000005215,0.0,0.0
1655713534049650505,421,1655713534049475908,/map,-2.80664372444,0.0,0.0,0.0,0.0
1655713534179780270,422,1655713534179586887,/map,-2.80664372444,0.0,0.0,0.0,0.0
1655713534248127471,423,1655713534247735977,/map,-2.80664372444,0.0,0.0,0.0,0.0
1655713534342933706,424,1655713534342808961,/map,-2.80664372444,0.0,0.0,0.0,0.0
1655713534443068378,425,1655713534442877054,/map,-2.80664372444,0.0,0.0,0.0,0.0
1655713534549921859,426,1655713534549802064,/map,-2.80664372444,0.0,0.0,0.0,0.0
1655713534644308012,427,1655713534643794059,/map,-2.80664372444,0.0,0.0,0.0,0.0
1655713534745747577,428,1655713534745584011,/map,-2.80664372444,0.0,0.0,0.0,0.0
