%time,field.header.seq,field.header.stamp,field.header.frame_id,field.drive.steering_angle,field.drive.steering_angle_velocity,field.drive.speed,field.drive.acceleration,field.drive.jerk
1655367729555197667,178,1655367729554166078,/map,3.09630250931,0.0,2.08587169647,0.0,0.0
1655367729663169968,179,1655367729662115097,/map,3.09630250931,0.0,2.08587169647,0.0,0.0
1655367729742735650,180,1655367729741839885,/map,3.09630250931,0.0,2.08587169647,0.0,0.0
1655367729853081944,181,1655367729851289987,/map,3.09630250931,0.0,2.08587169647,0.0,0.0
1655367729945969678,182,1655367729945089101,/map,3.09630250931,0.0,2.08587169647,0.0,0.0
1655367730044616130,183,1655367730043670892,/map,3.09630250931,0.0,2.08587169647,0.0,0.0
1655367730165454244,184,1655367730163891077,/map,3.09630250931,0.0,2.08587169647,0.0,0.0
1655367730254941583,185,1655367730253999948,/map,3.09630250931,0.0,2.08587169647,0.0,0.0
1655367730342087059,186,1655367730340816020,/map,3.09630250931,0.0,2.08587169647,0.0,0.0
1655367730447098074,187,1655367730446022033,/map,3.09630250931,0.0,2.08587169647,0.0,0.0
1655367730558598453,188,1655367730557425975,/map,3.09630250931,0.0,2.08587169647,0.0,0.0
1655367730649726630,189,1655367730645620107,/map,3.09630250931,0.0,2.08587169647,0.0,0.0
1655367730736897305,190,1655367730735143899,/map,3.09630250931,0.0,2.08587169647,0.0,0.0
1655367730836054513,191,1655367730835072040,/map,3.09630250931,0.0,2.08587169647,0.0,0.0
1655367730941555108,192,1655367730940345048,/map,3.09630250931,0.0,2.08587169647,0.0,0.0
1655367731082463680,193,1655367731080032110,/map,3.09630250931,0.0,2.08587169647,0.0,0.0
1655367731143147201,194,1655367731142220020,/map,3.09630250931,0.0,2.08587169647,0.0,0.0
1655367731249785752,195,1655367731249093055,/map,3.09630250931,0.0,2.08587169647,0.0,0.0
1655367731340803964,196,1655367731339811086,/map,3.09630250931,0.0,2.08587169647,0.0,0.0
1655367731438022839,197,1655367731436655998,/map,3.09630250931,0.0,2.08587169647,0.0,0.0
1655367731541757141,198,1655367731540836095,/map,3.09630250931,0.0,2.08587169647,0.0,0.0
1655367731642895836,199,1655367731641886949,/map,3.09630250931,0.0,2.08587169647,0.0,0.0
1655367731745630499,200,1655367731744715929,/map,3.09630250931,0.0,2.08587169647,0.0,0.0
1655367731841825491,201,1655367731840771913,/map,3.09630250931,0.0,2.08587169647,0.0,0.0
1655367731956139007,202,1655367731955172061,/map,3.09630250931,0.0,2.08587169647,0.0,0.0
1655367732040368885,203,1655367732039354085,/map,3.09630250931,0.0,2.08587169647,0.0,0.0
1655367732184634922,204,1655367732183362960,/map,3.09630250931,0.0,2.08587169647,0.0,0.0
1655367732263217685,205,1655367732262253999,/map,3.09630250931,0.0,2.08587169647,0.0,0.0
1655367732359640849,206,1655367732358655929,/map,3.09630250931,0.0,2.08587169647,0.0,0.0
1655367732468522264,207,1655367732467587947,/map,3.09630250931,0.0,2.08587169647,0.0,0.0
1655367732570268549,208,1655367732569236040,/map,3.09630250931,0.0,2.08587169647,0.0,0.0
1655367732649688115,209,1655367732648179054,/map,3.09630250931,0.0,2.08587169647,0.0,0.0
1655367732750241584,210,1655367732747395992,/map,3.09630250931,0.0,2.08587169647,0.0,0.0
1655367732845854966,211,1655367732844248056,/map,3.09630250931,0.0,2.08587169647,0.0,0.0
1655367732943927042,212,1655367732942020893,/map,3.09630250931,0.0,2.08587169647,0.0,0.0
1655367733050162974,213,1655367733048757076,/map,3.09630250931,0.0,2.08587169647,0.0,0.0
1655367733143850394,214,1655367733142760992,/map,3.09630250931,0.0,2.08587169647,0.0,0.0
1655367733241655183,215,1655367733240233898,/map,3.09630250931,0.0,2.08587169647,0.0,0.0
1655367733338750302,216,1655367733337443113,/map,3.09630250931,0.0,2.08587169647,0.0,0.0
1655367733439467910,217,1655367733438245058,/map,3.09630250931,0.0,2.08587169647,0.0,0.0
1655367733541555906,218,1655367733540255069,/map,3.09630250931,0.0,2.08587169647,0.0,0.0
1655367733644108047,219,1655367733643121957,/map,3.09630250931,0.0,2.08587169647,0.0,0.0
1655367733762436057,220,1655367733761492013,/map,-0.025294912979,0.0,2.13952612877,0.536546051502,0.0
1655367733860357859,221,1655367733859663963,/map,0.0395961813629,0.0,2.19113636017,0.516101241112,0.0
1655367733968939370,222,1655367733968074083,/map,0.0107613801956,0.0,2.24075269699,0.496162593365,0.0
1655367734058523324,223,1655367734057538032,/map,0.00939374417067,0.0,2.28842496872,0.476724714041,0.0
1655367734154862844,224,1655367734153980016,/map,-0.0688834860921,0.0,2.33420324326,0.457782000303,0.0
1655367734259295361,225,1655367734258265972,/map,0.0388809926808,0.0,2.37813615799,0.439328640699,0.0
1655367734380133573,226,1655367734378545999,/map,-0.0479304455221,0.0,2.42027187347,0.421358644962,0.0
1655367734469792945,227,1655367734468822956,/map,0.03749088943,0.0,2.46065855026,0.403865754604,0.0
1655367734592141576,228,1655367734591078996,/map,-0.0391414090991,0.0,2.4993429184,0.386843681335,0.0
1655367734708172849,229,1655367734707192897,/map,0.0338972508907,0.0,2.5363714695,0.370285838842,0.0
1655367734789106971,230,1655367734787713050,/map,-0.053355127573,0.0,2.57178997993,0.35418561101,0.0
1655367734866660094,231,1655367734865540981,/map,0.0149868698791,0.0,2.60564374924,0.338536202908,0.0
1655367734969505948,232,1655367734968590021,/map,0.0147949252278,0.0,2.63797688484,0.3233307302,0.0
1655367735057928065,233,1655367735056888103,/map,0.007767688483,0.0,2.66883301735,0.308562219143,0.0
1655367735163039244,234,1655367735161664009,/map,0.00720485765487,0.0,2.69825530052,0.294223546982,0.0
1655367735261681783,235,1655367735259557962,/map,0.00706587452441,0.0,2.72628617287,0.280307590961,0.0
1655367735363948374,236,1655367735362675905,/map,-0.00522728310898,0.0,2.7529668808,0.26680713892,0.0
1655367735458834274,237,1655367735457711935,/map,0.00736696040258,0.0,2.77833819389,0.253714889288,0.0
1655367735569701785,238,1655367735568748950,/map,0.0146301910281,0.0,2.80244064331,0.241023525596,0.0
1655367735659238266,239,1655367735658029079,/map,0.0145329982042,0.0,2.8253133297,0.228725731373,0.0
1655367735788037441,240,1655367735787131071,/map,0.0122395697981,0.0,2.84699463844,0.216814085841,0.0
1655367735864750673,241,1655367735863708972,/map,0.0435834564269,0.0,2.86752271652,0.205281212926,0.0
1655367735961328037,242,1655367735957894086,/map,0.04317240417,0.0,2.88693475723,0.19411970675,0.0
1655367736059723375,243,1655367736058636903,/map,0.0200075097382,0.0,2.9052670002,0.183322146535,0.0
1655367736154942866,244,1655367736153361082,/map,0.0196936242282,0.0,2.92255496979,0.172881141305,0.0
1655367736279890527,245,1655367736278510093,/map,-0.0476694703102,0.0,2.93883395195,0.162789314985,0.0
1655367736364567247,246,1655367736363692045,/map,0.00140129844658,0.0,2.95413804054,0.153039291501,0.0
1655367736472820964,247,1655367736471576929,/map,0.0304561406374,0.0,2.96850037575,0.14362372458,0.0
1655367736562399991,248,1655367736561503887,/map,0.0302185956389,0.0,2.98195385933,0.134535312653,0.0
1655367736667276198,249,1655367736666599988,/map,0.0276061128825,0.0,2.99453043938,0.125766783953,0.0
1655367736772571614,250,1655367736771306991,/map,0.000604473170824,0.0,3.00626158714,0.117310918868,0.0
1655367736861981815,251,1655367736861088991,/map,0.00560843432322,0.0,3.01717758179,0.109160535038,0.0
1655367736969378805,252,1655367736968064069,/map,0.00844876561314,0.0,3.02730846405,0.101308509707,0.0
1655367737074831863,253,1655367737073781967,/map,0.0201169308275,0.0,3.036683321,0.093747779727,0.0
1655367737161243766,254,1655367737160046100,/map,0.0200834870338,0.0,3.04533052444,0.0864713340998,0.0
1655367737270087440,255,1655367737269148111,/map,0.020241394639,0.0,3.05327773094,0.0794722437859,0.0
1655367737366528961,256,1655367737364628076,/map,0.00481311045587,0.0,3.06055188179,0.0727436318994,0.0
1655367737456172733,257,1655367737455100059,/map,0.00352240959182,0.0,3.06717991829,0.0662787035108,0.0
1655367737556425117,258,1655367737555466890,/map,0.015864815563,0.0,3.07318687439,0.0600707493722,0.0
1655367737656638086,259,1655367737655384063,/map,0.0325058363378,0.0,3.07859826088,0.0541131198406,0.0
1655367737760353414,260,1655367737759143114,/map,0.00503935897723,0.0,3.08343815804,0.048399258405,0.0
1655367737862909078,261,1655367737861951112,/map,0.0098711438477,0.0,3.08773040771,0.042922694236,0.0
1655367737956851722,262,1655367737955920934,/map,0.00846629869193,0.0,3.09149813652,0.0376770310104,0.0
1655367738059441834,263,1655367738058424949,/map,0.00367972091772,0.0,3.0947637558,0.0326559767127,0.0
1655367738158962536,264,1655367738155678987,/map,0.0036792375613,0.0,3.09754920006,0.0278533175588,0.0
1655367738265442219,265,1655367738264523029,/map,0.0104251010343,0.0,3.09987545013,0.0232629384845,0.0
1655367738361265283,266,1655367738359850883,/map,0.00895524211228,0.0,3.10176324844,0.0188788156956,0.0
1655367738458925520,267,1655367738457756042,/map,0.0384721681476,0.0,3.10323286057,0.0146950203925,0.0
1655367738565541572,268,1655367738564454078,/map,0.0111690526828,0.0,3.10430335999,0.0107057187706,0.0
1655367738659926943,269,1655367738659060001,/map,0.0279835667461,0.0,3.10499382019,0.00690517760813,0.0
1655367738763734984,270,1655367738762204885,/map,0.0248757582158,0.0,3.10532259941,0.00328775797971,0.0
1655367738865274455,271,1655367738864177942,/map,0.0248819757253,0.0,3.10530734062,-0.000152078340761,0.0
1655367738967372204,272,1655367738966062068,/map,0.0121175330132,0.0,3.10496544838,-0.00341977085918,0.0
1655367739056471658,273,1655367739055517911,/map,0.0121272634715,0.0,3.10431337357,-0.00652065873146,0.0
1655367739160113126,274,1655367739159070014,/map,0.019839970395,0.0,3.10336732864,-0.00945998169482,0.0
1655367739261274752,275,1655367739260097026,/map,0.0082469061017,0.0,3.10214304924,-0.0122428787872,0.0
1655367739367895858,276,1655367739366786956,/map,0.0184785015881,0.0,3.10065555573,-0.0148743884638,0.0
1655367739462291731,277,1655367739461127042,/map,0.0184920299798,0.0,3.09891963005,-0.0173594467342,0.0
1655367739566407457,278,1655367739564891099,/map,0.0213320385665,0.0,3.09694933891,-0.0197028946131,0.0
1655367739665919367,279,1655367739664608955,/map,0.0179467406124,0.0,3.09475851059,-0.0219094660133,0.0
1655367739762945167,280,1655367739762175083,/map,0.0179595109075,0.0,3.09236001968,-0.0239837989211,0.0
1655367739859641289,281,1655367739858443021,/map,0.01913876459,0.0,3.08976697922,-0.0259304326028,0.0
1655367739972391821,282,1655367739971029996,/map,0.0143930530176,0.0,3.08699154854,-0.027753803879,0.0
1655367740066922918,283,1655367740065439939,/map,0.0182206127793,0.0,3.08404588699,-0.0294582527131,0.0
1655367740162777488,284,1655367740161894083,/map,0.0182404480875,0.0,3.08094096184,-0.031048020348,0.0
1655367740262151524,285,1655367740261272907,/map,0.014883980155,0.0,3.07768821716,-0.0325272530317,0.0
1655367740363152277,286,1655367740362036943,/map,0.0332423150539,0.0,3.07429838181,-0.0338999964297,0.0
1655367740461189128,287,1655367740460279941,/map,0.0332675129175,0.0,3.07078123093,-0.0351702012122,0.0
1655367740560264696,288,1655367740559286117,/map,0.0242128241807,0.0,3.06714701653,-0.0363417267799,0.0
1655367740663474658,289,1655367740662539005,/map,0.0195434633642,0.0,3.06340527534,-0.0374183319509,0.0
1655367740760226396,290,1655367740759116888,/map,0.0214356724173,0.0,3.05956482887,-0.0384036898613,0.0
1655367740880400459,291,1655367740878634929,/map,0.0385673716664,0.0,3.05563473701,-0.0393013767898,0.0
1655367740961350219,292,1655367740960470914,/map,0.0320971272886,0.0,3.05162334442,-0.0401148796082,0.0
1655367741061599785,293,1655367741060576915,/map,0.0279957372695,0.0,3.04753851891,-0.0408475920558,0.0
1655367741172407585,294,1655367741171114921,/map,0.0280223935843,0.0,3.0433883667,-0.0415028184652,0.0
1655367741268871365,295,1655367741267963886,/map,0.0377435050905,0.0,3.03917980194,-0.0420837812126,0.0
1655367741368313052,296,1655367741367191076,/map,0.0222067013383,0.0,3.03492045403,-0.0425936132669,0.0
1655367741457322606,297,1655367741456008911,/map,0.0288117174059,0.0,3.03061699867,-0.0430353619158,0.0
1655367741559554119,298,1655367741558774948,/map,0.0407614484429,0.0,3.02627587318,-0.0434119850397,0.0
1655367741715857693,299,1655367741714201927,/map,0.0372752547264,0.0,3.02190303802,-0.0437263660133,0.0
1655367741825643998,300,1655367741820071935,/map,0.0275918096304,0.0,3.0175049305,-0.0439813025296,0.0
1655367741919215524,301,1655367741917181015,/map,0.0326959192753,0.0,3.01308703423,-0.0441795065999,0.0
1655367742000518677,302,1655367741999429941,/map,0.0299038402736,0.0,3.00865459442,-0.0443236269057,0.0
1655367742084713617,303,1655367742082889080,/map,0.0351669192314,0.0,3.00421309471,-0.0444162152708,0.0
1655367742168136391,304,1655367742167303085,/map,0.0352048501372,0.0,2.99976706505,-0.0444597564638,0.0
1655367742263074056,305,1655367742261733055,/map,0.0370942316949,0.0,2.99532151222,-0.0444566607475,0.0
1655367742367624081,306,1655367742366683006,/map,0.036314021796,0.0,2.99088048935,-0.0444092638791,0.0
1655367742476463086,307,1655367742475553989,/map,0.0346333496273,0.0,2.98644852638,-0.0443198308349,0.0
1655367742561318258,308,1655367742560401916,/map,0.0257738623768,0.0,2.98202943802,-0.0441905446351,0.0
1655367742663813599,309,1655367742662832021,/map,0.0258049741387,0.0,2.97762703896,-0.0440235361457,0.0
1655367742772627947,310,1655367742771830081,/map,0.0379490070045,0.0,2.97324514389,-0.0438208505511,0.0
1655367742860967550,311,1655367742859671115,/map,0.0270241722465,0.0,2.96888661385,-0.0435844808817,0.0
1655367742960525525,312,1655367742959439992,/map,0.0389920882881,0.0,2.9645550251,-0.0433163456619,0.0
1655367743064591852,313,1655367743063584089,/map,0.028254121542,0.0,2.96025323868,-0.0430183000863,0.0
1655367743190856059,314,1655367743184504985,/map,0.0282904747874,0.0,2.95598387718,-0.0426921397448,0.0
1655367743269150168,315,1655367743268433094,/map,0.0347101539373,0.0,2.95175004005,-0.0423395931721,0.0
1655367743368223034,316,1655367743366724967,/map,0.0347442515194,0.0,2.94755363464,-0.0419623330235,0.0
1655367743468285307,317,1655367743467264890,/map,0.0378120541573,0.0,2.94339752197,-0.0415619760752,0.0
1655367743569576466,318,1655367743567905902,/map,0.0378504358232,0.0,2.93928360939,-0.041140075773,0.0
1655367743669825281,319,1655367743668917894,/map,0.0370297878981,0.0,2.93521380424,-0.0406981296837,0.0
1655367743770518768,320,1655367743769607067,/map,0.0290193744004,0.0,2.93119001389,-0.04023758322,0.0
1655367743871203118,321,1655367743869836091,/map,0.0390955656767,0.0,2.92721390724,-0.0397598259151,0.0
1655367743965206152,322,1655367743964344024,/map,0.0371900238097,0.0,2.92328739166,-0.0392661951482,0.0
1655367744078919362,323,1655367744077868938,/map,0.0409930795431,0.0,2.91941142082,-0.0387579798698,0.0
1655367744162839031,324,1655367744161941051,/map,0.0410294495523,0.0,2.91558790207,-0.0382364206016,0.0
1655367744271446569,325,1655367744270646095,/map,0.031624019146,0.0,2.91181755066,-0.0377026982605,0.0
1655367744362328878,326,1655367744361300945,/map,0.0364424400032,0.0,2.9081017971,-0.0371579639614,0.0
1655367744462542192,327,1655367744461601018,/map,0.0364766195416,0.0,2.90444159508,-0.0366033054888,0.0
1655367744560325439,328,1655367744559513092,/map,0.0303774308413,0.0,2.90083742142,-0.0360397771001,0.0
1655367744668742223,329,1655367744667397022,/map,0.035625923425,0.0,2.89729070663,-0.0354683846235,0.0
1655367744762867557,330,1655367744761909961,/map,0.0386967100203,0.0,2.89380168915,-0.0348900966346,0.0
1655367744907305014,331,1655367744904380083,/map,0.0370783470571,0.0,2.89037108421,-0.0343058295548,0.0
1655367744991919280,332,1655367744991054058,/map,0.040484264493,0.0,2.88699936867,-0.0337164700031,0.0
1655367745077856486,333,1655367745076558113,/map,0.0238747838885,0.0,2.88368725777,-0.0331228636205,0.0
1655367745162468027,334,1655367745161132097,/map,0.0239047501236,0.0,2.88043451309,-0.0325258150697,0.0
1655367745270149118,335,1655367745268784999,/map,0.0383047126234,0.0,2.8772418499,-0.0319260917604,0.0
1655367745389217647,336,1655367745387582063,/map,0.0383336432278,0.0,2.87410950661,-0.0313244313002,0.0
1655367745490171817,337,1655367745488785028,/map,0.035030670464,0.0,2.87103748322,-0.030721526593,0.0
1655367745600380075,338,1655367745598941087,/map,0.037298399955,0.0,2.86802554131,-0.0301180444658,0.0
1655367745689074412,339,1655367745687653064,/map,0.037327516824,0.0,2.86507415771,-0.0295146200806,0.0
1655367745777858228,340,1655367745776781082,/map,0.0285123120993,0.0,2.86218285561,-0.0289118532091,0.0
1655367745864155346,341,1655367745863244056,/map,0.0285401828587,0.0,2.8593518734,-0.0283103119582,0.0
1655367745960387796,342,1655367745959425926,/map,0.043326292187,0.0,2.85658073425,-0.0277105364949,0.0
1655367746063930739,343,1655367746063267946,/map,0.0433531552553,0.0,2.85386943817,-0.0271130409092,0.0
1655367746193678737,344,1655367746192219972,/map,0.0294734798372,0.0,2.85121774673,-0.0265183057636,0.0
1655367746286885236,345,1655367746285466909,/map,0.0346835516393,0.0,2.84862494469,-0.0259267911315,0.0
1655367746367664622,346,1655367746367011070,/map,0.0237312093377,0.0,2.84609103203,-0.0253389235586,0.0
1655367746458851002,347,1655367746458034038,/map,0.0237525701523,0.0,2.84361553192,-0.0247551109642,0.0
1655367746558909409,348,1655367746558085918,/map,0.0365189537406,0.0,2.84119796753,-0.0241757333279,0.0
1655367746658628330,349,1655367746657874107,/map,0.0268379822373,0.0,2.83883786201,-0.0236011501402,0.0
1655367746766081321,350,1655367746763695955,/map,0.0237492732704,0.0,2.83653473854,-0.0230316929519,0.0
1655367746868767553,351,1655367746867820978,/map,0.0237680990249,0.0,2.83428788185,-0.0224676784128,0.0
1655367746961433413,352,1655367746960167884,/map,0.0233257804066,0.0,2.83209705353,-0.0219093970954,0.0
1655367747063203561,353,1655367747062108993,/map,0.0324290581048,0.0,2.8299612999,-0.0213571190834,0.0
1655367747166168446,354,1655367747164966106,/map,0.0324473790824,0.0,2.82788014412,-0.0208110995591,0.0
1655367747264054584,355,1655367747262840986,/map,0.0267265643924,0.0,2.82585310936,-0.0202715694904,0.0
1655367747368424478,356,1655367747367507934,/map,0.0135202687234,0.0,2.82387924194,-0.0197387430817,0.0
1655367747462171780,357,1655367747461333990,/map,0.0430649146438,0.0,2.82195782661,-0.0192128196359,0.0
1655367747563076718,358,1655367747562114953,/map,0.0391030535102,0.0,2.82008862495,-0.0186939816922,0.0
1655367747674530666,359,1655367747673135042,/map,-0.00269921403378,0.0,2.81827020645,-0.0181823894382,0.0
1655367747772629192,360,1655367747771752119,/map,-0.00268668611534,0.0,2.81650257111,-0.0176781956106,0.0
1655367747866723590,361,1655367747865751981,/map,0.073700197041,0.0,2.81478428841,-0.0171815324575,0.0
1655367747960479296,362,1655367747959717035,/map,0.0139354588464,0.0,2.81311511993,-0.0166925210506,0.0
1655367748056957186,363,1655367748056034088,/map,0.00354863284156,0.0,2.8114938736,-0.0162112675607,0.0
1655367748186478003,364,1655367748184931993,/map,0.00360383279622,0.0,2.80992007256,-0.0157378651202,0.0
1655367748278881905,365,1655367748277916908,/map,0.033470377326,0.0,2.80839300156,-0.0152723956853,0.0
1655367748413387449,366,1655367748411936044,/map,0.033483505249,0.0,2.80691146851,-0.0148149272427,0.0
1655367748525219085,367,1655367748523616075,/map,0.0473836772144,0.0,2.80547475815,-0.0143655175343,0.0
1655367748610882399,368,1655367748608225107,/map,0.0128742717206,0.0,2.80408239365,-0.013924212195,0.0
1655367748712849450,369,1655367748707644939,/map,0.0392616130412,0.0,2.80273342133,-0.0134910484776,0.0
1655367748805224155,370,1655367748799159049,/map,0.0270380675793,0.0,2.80142664909,-0.0130660515279,0.0
1655367748895372212,371,1655367748893557071,/map,0.0270488541573,0.0,2.80016183853,-0.0126492381096,0.0
1655367748974973718,372,1655367748974112033,/map,0.0223107486963,0.0,2.79893779755,-0.0122406166047,0.0
1655367749061017218,373,1655367749059808969,/map,0.0223209671676,0.0,2.79775381088,-0.0118401851505,0.0
1655367749173737033,374,1655367749172811031,/map,0.0345113649964,0.0,2.79660892487,-0.0114479353651,0.0
1655367749274991077,375,1655367749274065017,/map,0.0240738689899,0.0,2.79550242424,-0.0110638504848,0.0
1655367749372030279,376,1655367749370878934,/map,0.0240831598639,0.0,2.79443383217,-0.0106879053637,0.0
1655367749493301347,377,1655367749491530895,/map,0.0307917520404,0.0,2.79340171814,-0.0103200701997,0.0
1655367749579144066,378,1655367749578191995,/map,0.033793117851,0.0,2.79240560532,-0.00996030587703,0.0
1655367749668397859,379,1655367749667062997,/map,0.03380215168,0.0,2.79144477844,-0.00960857048631,0.0
1655367749789636787,380,1655367749778846979,/map,0.0289200153202,0.0,2.79051828384,-0.00926481187344,0.0
1655367749870612370,381,1655367749869625091,/map,0.0206088908017,0.0,2.78962540627,-0.00892897788435,0.0
1655367749966724136,382,1655367749965601921,/map,0.0282373391092,0.0,2.78876543045,-0.00860100612044,0.0
1655367750061885112,383,1655367750060568094,/map,0.0343067422509,0.0,2.78793740273,-0.00828083138913,0.0
1655367750171158307,384,1655367750170120000,/map,0.0127593334764,0.0,2.78714036942,-0.00796838477254,0.0
1655367750265447913,385,1655367750264456987,/map,0.0252462998033,0.0,2.7863740921,-0.00766359269619,0.0
1655367750362860121,386,1655367750361938953,/map,0.0252519659698,0.0,2.78563737869,-0.00736637646332,0.0
1655367750463792290,387,1655367750462654113,/map,0.0305398926139,0.0,2.78492975235,-0.00707665411755,0.0
1655367750582736374,388,1655367750581265926,/map,0.0209066104144,0.0,2.7842502594,-0.00679434183985,0.0
1655367750665097309,389,1655367750663944005,/map,0.0308281853795,0.0,2.783598423,-0.00651935022324,0.0
1655367750770537615,390,1655367750769783973,/map,0.0308334939182,0.0,2.78297328949,-0.00625158939511,0.0
1655367750863027099,391,1655367750862009048,/map,0.0303515605628,0.0,2.7823741436,-0.0059909648262,0.0
1655367750972378622,392,1655367750971447944,/map,0.0287204347551,0.0,2.7818005085,-0.00573738059029,0.0
1655367751070925152,393,1655367751069498062,/map,0.0271628517658,0.0,2.78125143051,-0.00549073796719,0.0
1655367751183929131,394,1655367751183011054,/map,0.0298698861152,0.0,2.78072619438,-0.00525093683973,0.0
1655367751271395234,395,1655367751270580053,/map,0.0459715425968,0.0,2.78022456169,-0.00501787476242,0.0
1655367751367917425,396,1655367751366597890,/map,0.0459654778242,0.0,2.77974534035,-0.00479144835845,0.0
1655367751467403047,397,1655367751466223955,/map,0.0664467662573,0.0,2.77928829193,-0.00457155145705,0.0
1655367751600093115,398,1655367751598432064,/map,0.11402451992,0.0,2.77885246277,-0.00435807788745,0.0
1655367751686523584,399,1655367751683541059,/map,0.198430776596,0.0,2.77843737602,-0.00415091961622,0.0
1655367751774751603,400,1655367751773747920,/map,0.223975643516,0.0,2.77804231644,-0.00394996860996,0.0
1655367751862820607,401,1655367751861901044,/map,0.223934918642,0.0,2.77766680717,-0.00375511543825,0.0
1655367751963371620,402,1655367751962060928,/map,0.315025389194,0.0,2.77731013298,-0.00356624950655,0.0
1655367752066313726,403,1655367752065254926,/map,0.373483479023,0.0,2.77697181702,-0.00338326068595,0.0
1655367752165396401,404,1655367752163948059,/map,0.373442918062,0.0,2.77665114403,-0.00320603814907,0.0
1655367752265174523,405,1655367752264295101,/map,0.405568599701,0.0,2.7763478756,-0.00303447060287,0.0
1655367752365218018,406,1655367752364276885,/map,0.420728504658,0.0,2.77606081963,-0.00286844675429,0.0
1655367752474083881,407,1655367752472925901,/map,0.342973440886,0.0,2.77579021454,-0.00270785600878,0.0
1655367752579842688,408,1655367752578499078,/map,0.342961966991,0.0,2.77553486824,-0.00255258684047,0.0
1655367752704439543,409,1655367752702975988,/map,0.327847838402,0.0,2.77529454231,-0.00240252842195,0.0
1655367752800273114,410,1655367752799252986,/map,0.351766467094,0.0,2.77506875992,-0.00225757039152,0.0
1655367752895928376,411,1655367752893443107,/map,0.266972094774,0.0,2.77485704422,-0.0021176028531,0.0
1655367752979084507,412,1655367752977869987,/map,0.266970604658,0.0,2.77465891838,-0.00198251591064,0.0
1655367753084410934,413,1655367753083249092,/map,0.266969233751,0.0,2.77447366714,-0.00185220094863,0.0
1655367753166254654,414,1655367753165267944,/map,0.0688751935959,0.0,2.77430105209,-0.001726549468,0.0
1655367753265748979,415,1655367753264780998,/map,0.0688775554299,0.0,2.77414035797,-0.00160545413382,0.0
1655367753363170065,416,1655367753362111091,/map,0.084120772779,0.0,2.77399158478,-0.00148880796041,0.0
1655367753466996684,417,1655367753466049909,/map,0.0603069216013,0.0,2.77385401726,-0.00137650535908,0.0
1655367753564402726,418,1655367753562488079,/map,0.00745207024738,0.0,2.77372717857,-0.00126844132319,0.0
1655367753666713211,419,1655367753665754079,/map,0.0454942770302,0.0,2.77361059189,-0.00116451212671,0.0
1655367753771759685,420,1655367753770539999,/map,-0.0756152197719,0.0,2.7735042572,-0.00106461474206,0.0
1655367753863837345,421,1655367753863123893,/map,-0.0710542723536,0.0,2.77340722084,-0.000968647771515,0.0
1655367753970363395,422,1655367753969582080,/map,-0.071054674685,0.0,2.77331972122,-0.000876510399394,0.0
1655367754078735008,423,1655367754077891111,/map,-0.0230307336897,0.0,2.77324080467,-0.000788103439845,0.0
1655367754164253993,424,1655367754163234949,/map,0.0520753264427,0.0,2.77317047119,-0.000703328696545,0.0
1655367754255601779,425,1655367754254748106,/map,0.0670638456941,0.0,2.77310824394,-0.000622089370154,0.0
1655367754369216576,426,1655367754367530107,/map,0.0415566600859,0.0,2.77305388451,-0.000544289941899,0.0
1655367754465832404,427,1655367754464972019,/map,0.0415522903204,0.0,2.77300691605,-0.000469836144475,0.0
1655367754563620799,428,1655367754562638998,/map,0.10370709002,0.0,2.77296710014,-0.000398635223974,0.0
1655367754665851181,429,1655367754664803028,/map,0.143068447709,0.0,2.77293395996,-0.000330595736159,0.0
1655367754783057568,430,1655367754781536102,/map,0.143065318465,0.0,2.7729074955,-0.000265627604676,0.0
1655367754867007244,431,1655367754865725040,/map,0.333294630051,0.0,2.7728869915,-0.000203642252018,0.0
1655367754971298501,432,1655367754970371961,/map,0.389069974422,0.0,2.77287244797,-0.000144552526763,0.0
1655367755064020692,433,1655367755062894105,/map,0.389069855213,0.0,2.77286362648,-8.82727472344e-05,0.0
1655367755184400294,434,1655367755182212114,/map,0.394439548254,0.0,2.77286028862,-3.47186723957e-05,0.0
1655367755276754677,435,1655367755275923967,/map,0.255798101425,0.0,2.77286195755,1.61924144777e-05,0.0
1655367755370329611,436,1655367755369262933,/map,0.255799949169,0.0,2.77286839485,6.45417530905e-05,0.0
1655367755472423682,437,1655367755471395015,/map,0.12605907023,0.0,2.77287936211,0.0001104090843,0.0
1655367755570076050,438,1655367755569181919,/map,0.110694132745,0.0,2.77289485931,0.000153872635565,0.0
1655367755661053262,439,1655367755660074949,/map,0.141559451818,0.0,2.77291417122,0.000195009139134,0.0
1655367755767049408,440,1655367755765157938,/map,0.141560867429,0.0,2.77293753624,0.000233893821132,0.0
1655367755871224432,441,1655367755870320081,/map,0.129608467221,0.0,2.77296471596,0.00027060037246,0.0
1655367755964679666,442,1655367755963690996,/map,0.0921891182661,0.0,2.77299523354,0.000305200985167,0.0
1655367756063043054,443,1655367756061939954,/map,0.0350551195443,0.0,2.77302908897,0.000337766367011,0.0
1655367756164061799,444,1655367756163177967,/map,0.0350571423769,0.0,2.77306580544,0.000368365697796,0.0
1655367756265138930,445,1655367756264314889,/map,0.0218954347074,0.0,2.77310562134,0.000397066731239,0.0
1655367756369398138,446,1655367756368402004,/map,0.0218973867595,0.0,2.77314805984,0.000423935620347,0.0
1655367756463381377,447,1655367756462244033,/map,0.0335590578616,0.0,2.77319288254,0.000449037150247,0.0
1655367756562168614,448,1655367756560744047,/map,0.0231073051691,0.0,2.77324008942,0.000472434534458,0.0
1655367756663920940,449,1655367756663156986,/map,0.0214856825769,0.0,2.77328944206,0.000494189618621,0.0
1655367756760096190,450,1655367756759233951,/map,0.0286658145487,0.0,2.77334094048,0.000514362822287,0.0
1655367756863400059,451,1655367756862534999,/map,0.0115063348785,0.0,2.77339434624,0.000533012906089,0.0
1655367756971662521,452,1655367756970629930,/map,0.0107100084424,0.0,2.77344918251,0.000550197553821,0.0
1655367757064012924,453,1655367757063014030,/map,0.0235948879272,0.0,2.77350592613,0.000565972761251,0.0
1655367757162508109,454,1655367757161017894,/map,0.0119319958612,0.0,2.77356386185,0.000580393185373,0.0
1655367757260310139,455,1655367757259366989,/map,0.0165022537112,0.0,2.77362322807,0.000593512202613,0.0
1655367757366906292,456,1655367757365688085,/map,0.0114392768592,0.0,2.77368378639,0.000605381792411,0.0
1655367757466800349,457,1655367757465998888,/map,0.0102693503723,0.0,2.77374529839,0.000616052537225,0.0
1655367757569702175,458,1655367757568831920,/map,0.0374883338809,0.0,2.77380800247,0.000625573622528,0.0
1655367757670881497,459,1655367757669858932,/map,0.0544841885567,0.0,2.77387142181,0.000633993127849,0.0
1655367757770236735,460,1655367757769272089,/map,0.0481166578829,0.0,2.77393555641,0.000641357677523,0.0
1655367757913031213,461,1655367757911849975,/map,0.0562024824321,0.0,2.77400016785,0.000647712615319,0.0
1655367758014235576,462,1655367758012912034,/map,0.026249203831,0.0,2.77406549454,0.00065310212085,0.0
1655367758136228303,463,1655367758134994983,/map,-0.00231101829559,0.0,2.77413129807,0.000657568976749,0.0
1655367758233294861,464,1655367758229969978,/map,0.00780636584386,0.0,2.77419734001,0.000661154976115,0.0
1655367758327286574,465,1655367758326330900,/map,-0.00307450653054,0.0,2.7742638588,0.000663900515065,0.0
1655367758422651385,466,1655367758420526027,/map,-0.00720558082685,0.0,2.77433037758,0.00066584488377,0.0
1655367758508010119,467,1655367758506882905,/map,0.00244061765261,0.0,2.77439713478,0.000667026208248,0.0
1655367758593821649,468,1655367758592384099,/map,0.00184327829629,0.0,2.77446389198,0.000667481392156,0.0
1655367758680090786,469,1655367758679109096,/map,-0.0307286623865,0.0,2.77453064919,0.000667246349622,0.0
1655367758775485363,470,1655367758774447917,/map,-0.030726801604,0.0,2.77459716797,0.000666355830617,0.0
1655367758872688946,471,1655367758871695995,/map,-0.00572961894795,0.0,2.77466368675,0.000664843479171,0.0
1655367758969938014,472,1655367758968399047,/map,0.00433794455603,0.0,2.77472996712,0.000662741891574,0.0
1655367759063704668,473,1655367759062823057,/map,0.0138473231345,0.0,2.77479600906,0.000660082674585,0.0
1655367759168167636,474,1655367759167155027,/map,0.0398356467485,0.0,2.77486157417,0.000656896270812,0.0
1655367759265005589,475,1655367759264144897,/map,0.0357420295477,0.0,2.77492690086,0.000653212307952,0.0
1655367759382838383,476,1655367759380712032,/map,0.0771951302886,0.0,2.77499198914,0.000649059365969,0.0
1655367759470844223,477,1655367759470072031,/map,0.087258130312,0.0,2.77505636215,0.000644464977086,0.0
1655367759567061178,478,1655367759566060066,/map,0.130344569683,0.0,2.77512025833,0.000639455858618,0.0
1655367759668617136,479,1655367759667391061,/map,0.137932494283,0.0,2.77518367767,0.000634057738353,0.0
1655367759772091828,480,1655367759770900011,/map,0.151369541883,0.0,2.77524662018,0.00062829547096,0.0
1655367759879403994,481,1655367759878465890,/map,0.179500997066,0.0,2.77530884743,0.000622193037998,0.0
1655367759965136714,482,1655367759964143037,/map,0.1875218153,0.0,2.77537035942,0.000615773547906,0.0
1655367760073259124,483,1655367760072360992,/map,0.182660356164,0.0,2.77543115616,0.000609059177805,0.0
1655367760169395904,484,1655367760168123006,/map,0.149181291461,0.0,2.77549147606,0.000602071522735,0.0
1655367760271601116,485,1655367760269675970,/map,0.146492883563,0.0,2.77555084229,0.000594831188209,0.0
1655367760372966277,486,1655367760371922016,/map,0.0705673396587,0.0,2.77560973167,0.00058735802304,0.0
1655367760469496792,487,1655367760468311071,/map,0.0844289585948,0.0,2.77566766739,0.000579671177547,0.0
1655367760572606250,488,1655367760571822881,/map,0.0903216376901,0.0,2.77572488785,0.000571788987145,0.0
1655367760666443235,489,1655367760665381908,/map,0.0678308084607,0.0,2.77578115463,0.000563729088753,0.0
1655367760748823288,490,1655367760745961904,/map,-2.67267608643,0.0,2.77578115463,0.0,0.0
1655367760863076289,491,1655367760862166881,/map,-2.61519885063,0.0,2.77578115463,0.0,0.0
1655367760971455462,492,1655367760970290899,/map,0.0759019479156,0.0,2.77583670616,0.00055550847901,0.0
1655367761062640827,493,1655367761061922073,/map,0.0759044885635,0.0,2.77589154243,0.000547143397853,0.0
1655367761168130299,494,1655367761166779041,/map,0.0759041160345,0.0,2.77594542503,0.000538649444934,0.0
1655367761271757738,495,1655367761270175933,/map,0.0759037435055,0.0,2.77599835396,0.000530041521415,0.0
1655367761367401681,496,1655367761366512060,/map,0.075903378427,0.0,2.77605056763,0.000521333946381,0.0
1655367761474190904,497,1655367761472970962,/map,0.0759030207992,0.0,2.77610182762,0.000512540398631,0.0
1655367761568792534,498,1655367761567857027,/map,0.0759026631713,0.0,2.77615213394,0.000503674033098,0.0
1655367761674126655,499,1655367761672586917,/map,0.075902312994,0.0,2.77620148659,0.000494747248013,0.0
1655367761768358074,500,1655367761767415046,/map,0.0759019702673,0.0,2.77625012398,0.000485772121465,0.0
1655367761869126291,501,1655367761868009090,/map,0.0759016275406,0.0,2.77629780769,0.000476759945741,0.0
1655367761972131104,502,1655367761971251964,/map,0.0759012922645,0.0,2.77634453773,0.000467721634777,0.0
1655367762085771160,503,1655367762084369897,/map,0.0759009644389,0.0,2.77639055252,0.00045866749133,0.0
1655367762173597283,504,1655367762172327041,/map,0.0759006366134,0.0,2.77643537521,0.000449607410701,0.0
1655367762289464642,505,1655367762288539886,/map,0.0759003162384,0.0,2.77647948265,0.00044055073522,0.0
1655367762374501742,506,1655367762373662948,/map,0.075900003314,0.0,2.77652263641,0.000431506312452,0.0
1655367762470505774,507,1655367762469690084,/map,0.0758996978402,0.0,2.7765648365,0.000422482611611,0.0
1655367762565542099,508,1655367762564682006,/map,0.0758993923664,0.0,2.77660632133,0.000413487636251,0.0
1655367762664402248,509,1655367762663641929,/map,0.0758991017938,0.0,2.77664661407,0.00040452889516,0.0
1655367762792050340,510,1655367762790582895,/map,0.0758988112211,0.0,2.77668619156,0.000395613576984,0.0
1655367762876365656,511,1655367762875451087,/map,0.0758985206485,0.0,2.77672481537,0.000386748404708,0.0
1655367762964533631,512,1655367762962893962,/map,0.075898244977,0.0,2.77676272392,0.00037793975207,0.0
1655367763071946613,513,1655367763070924043,/map,0.0758979693055,0.0,2.7767996788,0.000369193585357,0.0
1655367763176246483,514,1655367763174916028,/map,0.0758977010846,0.0,2.77683568001,0.00036051555071,0.0
1655367763280022813,515,1655367763278516054,/map,0.0758974403143,0.0,2.77687096596,0.00035191088682,0.0
1655367763368080974,516,1655367763366996049,/map,0.075897179544,0.0,2.77690529823,0.000343384541338,0.0
1655367763465935831,517,1655367763464668035,/map,0.0758969262242,0.0,2.77693867683,0.000334941112669,0.0
1655367763567114709,518,1655367763565922021,/map,0.0758966803551,0.0,2.77697134018,0.000326584937284,0.0
1655367763678952656,519,1655367763678097963,/map,0.0758964419365,0.0,2.77700328827,0.000318320002407,0.0
1655367763765056654,520,1655367763763705968,/map,0.0758962035179,0.0,2.77703428268,0.000310149975121,0.0
1655367763882615870,521,1655367763881519079,/map,0.0758959725499,0.0,2.77706432343,0.000302078289678,0.0
1655367763982957049,522,1655367763978522062,/map,0.0758957490325,0.0,2.77709388733,0.000294108118396,0.0
1655367764073662188,523,1655367764072753906,/map,0.0758955329657,0.0,2.77712249756,0.000286242342554,0.0
1655367764165003941,524,1655367764163810014,/map,0.0758953168988,0.0,2.77715039253,0.0002784836106,0.0
1655367764272744756,525,1655367764271855115,/map,0.0758951082826,0.0,2.77717733383,0.000270834338153,0.0
1655367764367744249,526,1655367764366985082,/map,0.0758949071169,0.0,2.77720379829,0.000263296707999,0.0
1655367764529274395,527,1655367764527911901,/map,0.0758947059512,0.0,2.77722930908,0.000255872640992,0.0
1655367764616328948,528,1655367764613708972,/map,0.0758945122361,0.0,2.77725410461,0.000248563912464,0.0
1655367764703087247,529,1655367764701415061,/map,0.0758943259716,0.0,2.77727818489,0.00024137206492,0.0
1655367764791121686,530,1655367764789199113,/map,0.0758941397071,0.0,2.77730178833,0.000234298437135,0.0
1655367764884187867,531,1655367764882899045,/map,0.0758939683437,0.0,2.7773244381,0.000227344178711,0.0
1655367764968306817,532,1655367764967392921,/map,0.0758937895298,0.0,2.77734661102,0.000220510308282,0.0
1655367765063386793,533,1655367765062647104,/map,0.075893625617,0.0,2.77736783028,0.000213797597098,0.0
1655367765173305921,534,1655367765172410011,/map,0.0758934617043,0.0,2.77738857269,0.000207206743653,0.0
1655367765276758472,535,1655367765275794982,/map,0.0758932977915,0.0,2.77740859985,0.000200738213607,0.0
1655367765368283642,536,1655367765367389917,/map,0.0758931413293,0.0,2.77742815018,0.00019439238531,0.0
1655367765472041693,537,1655367765471226930,/map,0.0758929923177,0.0,2.77744698524,0.000188169447938,0.0
1655367765613347010,538,1655367765609494924,/map,0.0758928507566,0.0,2.77746510506,0.000182069488801,0.0
1655367765708263070,539,1655367765707130908,/map,0.0758927091956,0.0,2.77748274803,0.000176092449692,0.0
1655367765797239540,540,1655367765794991970,/map,0.0758925676346,0.0,2.77749967575,0.000170238185092,0.0
1655367765885674157,541,1655367765884932994,/map,0.0758924335241,0.0,2.77751612663,0.00016450638941,0.0
1655367765973359850,542,1655367765972349882,/map,0.0758923068643,0.0,2.77753210068,0.000158896669745,0.0
1655367766063665034,543,1655367766062679052,/map,0.0758921802044,0.0,2.77754735947,0.000153408545884,0.0
1655367766178676263,544,1655367766177839994,/map,0.0758920609951,0.0,2.77756214142,0.000148041421198,0.0
1655367766267540613,545,1655367766266422986,/map,0.0758919417858,0.0,2.77757644653,0.000142794611747,0.0
1655367766382602899,546,1655367766381494045,/map,0.0758918300271,0.0,2.77759027481,0.00013766734628,0.0
1655367766470719217,547,1655367766469696998,/map,0.0758917182684,0.0,2.77760362625,0.000132658766233,0.0
1655367766565518949,548,1655367766564388036,/map,0.0758916139603,0.0,2.77761626244,0.000127767969389,0.0
1655367766668242590,549,1655367766667216062,/map,0.0758915096521,0.0,2.7776286602,0.000122993937111,0.0
1655367766765799171,550,1655367766764887094,/map,0.0758914127946,0.0,2.77764058113,0.000118335621664,0.0
1655367766866850266,551,1655367766865875959,/map,0.075891315937,0.0,2.7776517868,0.000113791880722,0.0
1655367766999444512,552,1655367766996983051,/map,0.0758912265301,0.0,2.77766275406,0.000109361535579,0.0
1655367767084942041,553,1655367767082700967,/map,0.0758911371231,0.0,2.77767324448,0.000105043349322,0.0
1655367767189089868,554,1655367767187706947,/map,0.0758910477161,0.0,2.77768325806,0.000100836026832,0.0
1655367767283894332,555,1655367767282455921,/map,0.0758909657598,0.0,2.77769303322,9.67382293311e-05,0.0
1655367767405269447,556,1655367767402384042,/map,0.0758908838034,0.0,2.77770233154,9.27485889406e-05,0.0
1655367767526366557,557,1655367767524427890,/map,0.0758908092976,0.0,2.77771115303,8.88656795723e-05,0.0
1655367767616909240,558,1655367767615495920,/map,0.0758907347918,0.0,2.7777197361,8.50880533108e-05,0.0
1655367767701736127,559,1655367767700967073,/map,0.0758906677365,0.0,2.77772784233,8.14142185845e-05,0.0
1655367767793204975,560,1655367767792193889,/map,0.0758905932307,0.0,2.77773571014,7.78426619945e-05,0.0
1655367767885628283,561,1655367767884406089,/map,0.0758905336261,0.0,2.77774310112,7.43718410376e-05,0.0
1655367767973182713,562,1655367767971808910,/map,0.0758904665709,0.0,2.77775025368,7.10001841071e-05,0.0
1655367768063072984,563,1655367768062196969,/map,0.0758904069662,0.0,2.7777569294,6.77261123201e-05,0.0
1655367768193234750,564,1655367768191312074,/map,0.0758903473616,0.0,2.7777633667,6.45480249659e-05,0.0
1655367768287253414,565,1655367768285559892,/map,0.0758902952075,0.0,2.77776956558,6.14642849541e-05,0.0
1655367768378350279,566,1655367768377408027,/map,0.0758902430534,0.0,2.77777528763,5.84732733842e-05,0.0
1655367768477873063,567,1655367768476478099,/map,0.0758901908994,0.0,2.77778100967,5.55733349756e-05,0.0
1655367768601247491,568,1655367768599956035,/map,0.0758901387453,0.0,2.77778625488,5.27628217242e-05,0.0
1655367768692027593,569,1655367768689160108,/map,0.0758900940418,0.0,2.77779126167,5.00400710735e-05,0.0
1655367768778571250,570,1655367768777468919,/map,0.0758900493383,0.0,2.77779603004,4.74034204672e-05,0.0
1655367768866282095,571,1655367768864892959,/map,0.0758900120854,0.0,2.77780056,4.4851196435e-05,0.0
1655367768967062755,572,1655367768965991020,/map,0.075889967382,0.0,2.77780461311,4.23817327828e-05,0.0
1655367769065991239,573,1655367769064645051,/map,0.0758899301291,0.0,2.77780866623,3.99933596782e-05,0.0
1655367769173962046,574,1655367769173146009,/map,0.0758898928761,0.0,2.77781248093,3.76844109269e-05,0.0
1655367769278260146,575,1655367769277255058,/map,0.0758898556232,0.0,2.77781605721,3.54532276106e-05,0.0
1655367769372864892,576,1655367769371965885,/map,0.0758898258209,0.0,2.77781939507,3.32981508109e-05,0.0
1655367769478428458,577,1655367769477385997,/map,0.0758897960186,0.0,2.77782249451,3.12175288855e-05,0.0
1655367769567281297,578,1655367769566335916,/map,0.0758897662163,0.0,2.77782535553,2.92097192869e-05,0.0
1655367769668811954,579,1655367769667839050,/map,0.075889736414,0.0,2.77782821655,2.72730922006e-05,0.0
1655367769767450645,580,1655367769766237020,/map,0.0758897066116,0.0,2.77783060074,2.54060214502e-05,0.0
1655367769889356290,581,1655367769886928081,/map,0.0758896842599,0.0,2.77783298492,2.36069008679e-05,0.0
1655367769986212703,582,1655367769984263896,/map,0.0758896619081,0.0,2.77783513069,2.18741279241e-05,0.0
1655367770077245578,583,1655367770076351881,/map,0.0764476284385,0.0,2.77783727646,2.0206118279e-05,0.0
1655367770167524450,584,1655367770166559934,/map,0.0764476060867,0.0,2.77783918381,1.86013039638e-05,0.0
1655367770270634825,585,1655367770269725084,/map,0.0908297747374,0.0,2.77784085274,1.70581297425e-05,0.0
1655367770369818037,586,1655367770368963003,/map,0.0942121818662,0.0,2.77784228325,1.55750549311e-05,0.0
1655367770467722173,587,1655367770466865062,/map,0.0663775056601,0.0,2.77784371376,1.41505597639e-05,0.0
1655367770596449487,588,1655367770595525979,/map,0.089084431529,0.0,2.77784514427,1.27831390273e-05,0.0
1655367770684830259,589,1655367770683831930,/map,0.0744164660573,0.0,2.77784609795,1.14713056973e-05,0.0
1655367770810299536,590,1655367770807996034,/map,0.0744164511561,0.0,2.77784729004,1.02135927591e-05,0.0
1655367770910733042,591,1655367770909162998,/map,0.0528245978057,0.0,2.77784800529,9.00855138752e-06,0.0
1655367771003343794,592,1655367771002125978,/map,0.0973272249103,0.0,2.77784895897,7.85475367593e-06,0.0
1655367771092619874,593,1655367771091582059,/map,0.0973272174597,0.0,2.77784967422,6.75079172652e-06,0.0
1655367771185029465,594,1655367771184170007,/map,0.0898031741381,0.0,2.77785015106,5.69527674088e-06,0.0
1655367771275829159,595,1655367771274854898,/map,0.0597090944648,0.0,2.7778506279,4.68684220323e-06,0.0
1655367771370283076,596,1655367771367053031,/map,0.0597090907395,0.0,2.77785110474,3.72414274352e-06,0.0
1655367771466627226,597,1655367771465081930,/map,0.0690441131592,0.0,2.77785134315,2.8058539101e-06,0.0
1655367771567469508,598,1655367771566601991,/map,0.060973007232,0.0,2.77785134315,1.93067376131e-06,0.0
1655367771697344298,599,1655367771695498943,/map,0.0573753155768,0.0,2.77785158157,1.09732172859e-06,0.0
1655367771787680088,600,1655367771784225940,/map,0.0433147028089,0.0,2.77785158157,3.04540179741e-07,0.0
1655367771870721628,601,1655367771869893074,/map,0.0562469139695,0.0,2.77785158157,-4.4890688855e-07,0.0
1655367771969996762,602,1655367771969192981,/map,0.0562469139695,0.0,2.77785134315,-1.16423268537e-06,0.0
1655367772073736994,603,1655367772071466922,/map,0.093948893249,0.0,2.77785134315,-1.84262796665e-06,0.0
1655367772177725574,604,1655367772176503896,/map,0.0607007369399,0.0,2.77785110474,-2.48526089308e-06,0.0
1655367772266493237,605,1655367772264930009,/map,0.05724940449,0.0,2.7778506279,-3.09327674586e-06,0.0
1655367772371358443,606,1655367772370452880,/map,0.0661534368992,0.0,2.77785038948,-3.66779863725e-06,0.0
1655367772467303010,607,1655367772466516017,/map,0.0573573969305,0.0,2.77784991264,-4.20992682848e-06,0.0
1655367772564407786,608,1655367772563587903,/map,0.0570053905249,0.0,2.77784943581,-4.72073861602e-06,0.0
1655367772672662302,609,1655367772671329021,/map,0.0554961301386,0.0,2.77784895897,-5.20128878634e-06,0.0
1655367772782852521,610,1655367772782027006,/map,0.0851083472371,0.0,2.77784824371,-5.65261052543e-06,0.0
1655367772878660076,611,1655367772877768039,/map,0.0730152577162,0.0,2.77784776688,-6.07571337241e-06,0.0
1655367772996770575,612,1655367772994934082,/map,0.0730152651668,0.0,2.77784705162,-6.47158503853e-06,0.0
1655367773076489685,613,1655367773075527906,/map,-2.92432355881,0.0,2.77784705162,0.0,0.0
1655367773176074091,614,1655367773175158977,/map,-2.92432355881,0.0,2.77784705162,0.0,0.0
1655367773248186784,615,1655367773247447967,/map,-2.92432355881,0.0,2.77784705162,0.0,0.0
1655367773367076300,616,1655367773366260051,/map,0.0642317086458,0.0,2.77784633636,-6.84119186189e-06,0.0
1655367773475864076,617,1655367773474426031,/map,0.0642317160964,0.0,2.77784562111,-7.18547744327e-06,0.0
1655367773601242649,618,1655367773593955039,/map,0.0630059689283,0.0,2.77784490585,-7.50536310079e-06,0.0
1655367773702967809,619,1655367773701672077,/map,0.0630059763789,0.0,2.7778441906,-7.8017492342e-06,0.0
1655367773796234289,620,1655367773795156955,/map,0.0630059838295,0.0,2.77784323692,-8.0755135059e-06,0.0
1655367773884547940,621,1655367773883682012,/map,0.0630059912801,0.0,2.77784252167,-8.32751447888e-06,0.0
1655367773970994747,622,1655367773969317913,/map,0.0630059987307,0.0,2.77784156799,-8.55858797877e-06,0.0
1655367774067952208,623,1655367774067070007,/map,0.0630060061812,0.0,2.77784085274,-8.76954982232e-06,0.0
1655367774198807733,624,1655367774195661067,/map,0.0630060136318,0.0,2.77783989906,-8.96119308891e-06,0.0
1655367774285842272,625,1655367774284763097,/map,0.0630060210824,0.0,2.77783894539,-9.13429357752e-06,0.0
1655367774379188084,626,1655367774377657890,/map,0.063006028533,0.0,2.77783799171,-9.28960434976e-06,0.0
1655367774469310682,627,1655367774468435049,/map,0.0630060359836,0.0,2.77783703804,-9.42786027736e-06,0.0
1655367774570012619,628,1655367774568682909,/map,0.0630060508847,0.0,2.77783608437,-9.54977531364e-06,0.0
1655367774672255222,629,1655367774670994997,/map,0.0630060583353,0.0,2.77783513069,-9.65604522207e-06,0.0
1655367774792727839,630,1655367774791239023,/map,0.061214659363,0.0,2.77783417702,-9.74734484771e-06,0.0
1655367774886079507,631,1655367774884483098,/map,0.0612146705389,0.0,2.77783322334,-9.82433266472e-06,0.0
1655367774977056141,632,1655367774975985050,/map,0.0612146779895,0.0,2.77783226967,-9.88764713838e-06,0.0
1655367775067647734,633,1655367775066776037,/map,0.0612146854401,0.0,2.77783131599,-9.93790763459e-06,0.0
1655367775167397535,634,1655367775166516065,/map,0.0612146928906,0.0,2.77783036232,-9.97571714834e-06,0.0
1655367775274399412,635,1655367775273206949,/map,0.0612147040665,0.0,2.77782917023,-1.00016613942e-05,0.0
1655367775372226768,636,1655367775371155977,/map,0.0612147115171,0.0,2.77782821655,-1.00163060779e-05,0.0
1655367775467213968,637,1655367775465780019,/map,0.0612147189677,0.0,2.77782726288,-1.00202023532e-05,0.0
1655367775587895968,638,1655367775587089061,/map,0.0612147301435,0.0,2.7778263092,-1.0013883184e-05,0.0
1655367775702534129,639,1655367775699743032,/map,0.0612147375941,0.0,2.77782535553,-9.99786607281e-06,0.0
1655367775790721940,640,1655367775788681030,/map,0.0612147450447,0.0,2.77782416344,-9.97265215119e-06,0.0
1655367775887169133,641,1655367775885782003,/map,0.0612147562206,0.0,2.77782320976,-9.93872708932e-06,0.0
1655367776001799809,642,1655367776001019954,/map,0.0612147636712,0.0,2.77782225609,-9.89655836747e-06,0.0
1655367776101965820,643,1655367776100706100,/map,0.0612147711217,0.0,2.77782130241,-9.84660255199e-06,0.0
1655367776196332847,644,1655367776195311069,/map,0.0612147785723,0.0,2.77782034874,-9.78929710982e-06,0.0
1655367776309100001,645,1655367776308015108,/map,0.0612147897482,0.0,2.77781939507,-9.72506768449e-06,0.0
1655367776436719141,646,1655367776434956073,/map,0.0612147971988,0.0,2.77781844139,-9.65432536759e-06,0.0
1655367776517951923,647,1655367776516926050,/map,0.0612148046494,0.0,2.77781748772,-9.57746487984e-06,0.0
1655367776603984661,648,1655367776602396965,/map,0.0612148120999,0.0,2.77781653404,-9.49487093749e-06,0.0
1655367776692214911,649,1655367776690388917,/map,0.0612148232758,0.0,2.77781558037,-9.4069109764e-06,0.0
1655367776783376777,650,1655367776781131982,/map,0.0624399408698,0.0,2.77781462669,-9.31394242798e-06,0.0
1655367776885419242,651,1655367776880935907,/map,0.0624399483204,0.0,2.77781367302,-9.21630817174e-06,0.0
1655367776971884261,652,1655367776970837116,/map,0.0624399594963,0.0,2.77781271935,-9.11434017326e-06,0.0
1655367777066643057,653,1655367777064807891,/map,0.0624399669468,0.0,2.77781176567,-9.00835493667e-06,0.0
1655367777173041114,654,1655367777172193050,/map,0.0624399743974,0.0,2.77781105042,-8.89866169018e-06,0.0
1655367777267844588,655,1655367777266886949,/map,0.062439981848,0.0,2.77781009674,-8.78555420059e-06,0.0
1655367777371466199,656,1655367777370477914,/map,0.0624399892986,0.0,2.77780914307,-8.66931623023e-06,0.0
1655367777467113413,657,1655367777466106891,/map,0.0624399967492,0.0,2.77780842781,-8.55022062751e-06,0.0
1655367777566835045,658,1655367777565659046,/map,0.061214890331,0.0,2.77780747414,-8.42853023642e-06,0.0
1655367777667814828,659,1655367777666635990,/map,0.0612148977816,0.0,2.77780675888,-8.30449516798e-06,0.0
1655367777772508019,660,1655367777771301984,/map,0.0624400228262,0.0,2.77780580521,-8.17835825728e-06,0.0
1655367777868580900,661,1655367777867716073,/map,0.0624400302768,0.0,2.77780508995,-8.050348697e-06,0.0
1655367778000693902,662,1655367777999291896,/map,0.0624400377274,0.0,2.77780437469,-7.92069022282e-06,0.0
1655367778090965235,663,1655367778089222908,/map,0.0624400414526,0.0,2.77780342102,-7.78959383751e-06,0.0
1655367778177159414,664,1655367778176215887,/map,0.0624400489032,0.0,2.77780270576,-7.65726235841e-06,0.0
1655367778267679196,665,1655367778266710996,/map,0.0624400563538,0.0,2.77780199051,-7.52388996261e-06,0.0
1655367778371692401,666,1655367778370517969,/map,0.0624400638044,0.0,2.77780127525,-7.3896626418e-06,0.0
1655367778469439893,667,1655367778468434095,/map,0.062440071255,0.0,2.77780056,-7.25475683794e-06,0.0
1655367778565875789,668,1655367778564968109,/map,0.0624400787055,0.0,2.77779984474,-7.11934171704e-06,0.0
1655367778662961279,669,1655367778662106037,/map,0.0624400824308,0.0,2.77779912949,-6.98357825968e-06,0.0
1655367778768977394,670,1655367778767966032,/map,0.0624400898814,0.0,2.77779841423,-6.84761926095e-06,0.0
1655367778873521395,671,1655367778872606039,/map,0.062440097332,0.0,2.77779769897,-6.71161024002e-06,0.0
1655367778968322146,672,1655367778967394113,/map,0.0624401010573,0.0,2.77779698372,-6.57569034956e-06,0.0
1655367779112951105,673,1655367779109968900,/map,0.0624401085079,0.0,2.77779650688,-6.43999101158e-06,0.0
1655367779195603018,674,1655367779193886041,/map,0.0624401122332,0.0,2.77779579163,-6.30463637208e-06,0.0
1655367779284426936,675,1655367779283591985,/map,0.0624401196837,0.0,2.77779507637,-6.16974466539e-06,0.0
1655367779372308271,676,1655367779371207952,/map,0.062440123409,0.0,2.77779459953,-6.03542775934e-06,0.0
1655367779482993281,677,1655367779481659889,/map,0.0624401308596,0.0,2.77779388428,-5.90179161009e-06,0.0
1655367779576628990,678,1655367779575334072,/map,0.0624401345849,0.0,2.77779340744,-5.76893535253e-06,0.0
1655367779666714066,679,1655367779665846109,/map,0.0623473189771,0.0,2.7777929306,-5.63695311939e-06,0.0
1655367779769866774,680,1655367779768950939,/map,0.0623473264277,0.0,2.77779221535,-5.5059326769e-06,0.0
1655367779866649412,681,1655367779865797042,/map,0.062347330153,0.0,2.77779173851,-5.37595769856e-06,0.0
1655367779979717601,682,1655367779978178977,/map,0.0623473338783,0.0,2.77779126167,-5.24710503669e-06,0.0
1655367780071045806,683,1655367780070126056,/map,0.0623473376036,0.0,2.77779078484,-5.11944836035e-06,0.0
1655367780179873613,684,1655367780179004907,/map,0.0623473450541,0.0,2.777790308,-4.99305497215e-06,0.0
1655367780274997365,685,1655367780274331092,/map,0.0623473487794,0.0,2.77778983116,-4.86798808197e-06,0.0
1655367780370576270,686,1655367780369708061,/map,0.0623473525047,0.0,2.77778935432,-4.74430680697e-06,0.0
1655367780486271825,687,1655367780485024929,/map,0.06234735623,0.0,2.77778887749,-4.62206480734e-06,0.0
1655367780573181273,688,1655367780572113037,/map,0.0623473599553,0.0,2.77778840065,-4.50131346952e-06,0.0
1655367780675089715,689,1655367780673686027,/map,0.0623473636806,0.0,2.77778792381,-4.3820978135e-06,0.0
1655367780762975364,690,1655367780762052059,/map,0.0623473711312,0.0,2.77778744698,-4.26446104029e-06,0.0
1655367780871273152,691,1655367780870335102,/map,0.0623473748565,0.0,2.77778697014,-4.14844180341e-06,0.0
1655367780977957264,692,1655367780976095914,/map,0.0623473785818,0.0,2.77778673172,-4.03407466365e-06,0.0
1655367781068840339,693,1655367781068010091,/map,0.0623473823071,0.0,2.77778625488,-3.92139236283e-06,0.0
1655367781170215621,694,1655367781169147014,/map,0.0623473823071,0.0,2.77778601646,-3.81042241315e-06,0.0
1655367781271808913,695,1655367781270656108,/map,0.0623473860323,0.0,2.77778553963,-3.70119073523e-06,0.0
1655367781382745580,696,1655367781381552934,/map,0.0623473897576,0.0,2.77778506279,-3.5937193843e-06,0.0
1655367781470202096,697,1655367781469522953,/map,0.0623473934829,0.0,2.77778482437,-3.4880279145e-06,0.0
1655367781569019386,698,1655367781567951917,/map,0.0623473972082,0.0,2.77778458595,-3.38413292411e-06,0.0
1655367781666690941,699,1655367781665726900,/map,0.0623474009335,0.0,2.77778410912,-3.2820485103e-06,0.0
1655367781768589259,700,1655367781767693042,/map,0.0623474046588,0.0,2.7777838707,-3.18178626912e-06,0.0
1655367781867291364,701,1655367781866111993,/map,0.0623474046588,0.0,2.77778363228,-3.0833555229e-06,0.0
1655367781970545440,702,1655367781969603061,/map,0.0623474083841,0.0,2.77778315544,-2.9867626381e-06,0.0
1655367782066353217,703,1655367782063793897,/map,0.0623474121094,0.0,2.77778291702,-2.89201284431e-06,0.0
1655367782166970086,704,1655367782165831089,/map,0.0623474158347,0.0,2.7777826786,-2.79910864265e-06,0.0
1655367782284025232,705,1655367782281333923,/map,0.0623474158347,0.0,2.77778244019,-2.70805048785e-06,0.0
1655367782393847469,706,1655367782392364978,/map,0.06234741956,0.0,2.77778220177,-2.61883701569e-06,0.0
1655367782500105508,707,1655367782495944976,/map,0.0623474232852,0.0,2.77778196335,-2.53146549767e-06,0.0
1655367782591626842,708,1655367782589973926,/map,0.0623474232852,0.0,2.77778172493,-2.44593115895e-06,0.0
1655367782706502401,709,1655367782704186916,/map,0.0623474270105,0.0,2.77778148651,-2.36222740568e-06,0.0
1655367782804774101,710,1655367782803455114,/map,0.0623474270105,0.0,2.77778124809,-2.28034673455e-06,0.0
1655367782897931681,711,1655367782896146059,/map,0.0623474307358,0.0,2.77778100967,-2.20027982323e-06,0.0
1655367782992842997,712,1655367782991779088,/map,0.0623474307358,0.0,2.77778077126,-2.12201598515e-06,0.0
1655367783100952186,713,1655367783099320888,/map,0.0623474344611,0.0,2.77778053284,-2.04554316952e-06,0.0
1655367783214929035,714,1655367783211739063,/map,0.0623474344611,0.0,2.77778029442,-1.97084841602e-06,0.0
1655367783369128894,715,1655367783367609977,/map,0.0623474381864,0.0,2.777780056,-1.89791774119e-06,0.0
1655367783477770498,716,1655367783476342916,/map,0.0623474381864,0.0,2.777780056,-1.82673556992e-06,0.0
1655367783594465629,717,1655367783592963933,/map,0.0623474419117,0.0,2.77777981758,-1.75728587237e-06,0.0
1655367783687835585,718,1655367783686917066,/map,0.0623474419117,0.0,2.77777957916,-1.68955125446e-06,0.0
1655367783782802889,719,1655367783781826972,/map,0.062347445637,0.0,2.77777934074,-1.62351386734e-06,0.0
1655367783875703776,720,1655367783874387025,/map,0.062347445637,0.0,2.77777934074,-1.55915483901e-06,0.0
1655367783973012953,721,1655367783971106052,/map,0.062347445637,0.0,2.77777910233,-1.49645461534e-06,0.0
