%time,field.header.seq,field.header.stamp,field.header.frame_id,field.drive.steering_angle,field.drive.steering_angle_velocity,field.drive.speed,field.drive.acceleration,field.drive.jerk
1655367492182140532,560,1655367492181340932,/map,3.10441827774,0.0,1.38887429237,0.0,0.0
1655367492277685914,561,1655367492275784015,/map,3.10441827774,0.0,1.38887429237,0.0,0.0
1655367492382344724,562,1655367492380557060,/map,3.10441827774,0.0,1.38887429237,0.0,0.0
1655367492468698305,563,1655367492467802047,/map,3.10441827774,0.0,1.38887429237,0.0,0.0
1655367492580728399,564,1655367492577744007,/map,3.10441827774,0.0,1.38887429237,0.0,0.0
1655367492669506798,565,1655367492668698072,/map,3.10441827774,0.0,1.38887429237,0.0,0.0
1655367492766669923,566,1655367492764950037,/map,3.10441827774,0.0,1.38887429237,0.0,0.0
1655367492864053500,567,1655367492862663030,/map,3.10441827774,0.0,1.38887429237,0.0,0.0
1655367492983399201,568,1655367492982229948,/map,3.10441827774,0.0,1.38887429237,0.0,0.0
1655367493068562548,569,1655367493067265987,/map,3.10441827774,0.0,1.38887429237,0.0,0.0
1655367493160918711,570,1655367493159977912,/map,3.10441827774,0.0,1.38887429237,0.0,0.0
1655367493258445086,571,1655367493257592916,/map,3.10441827774,0.0,1.38887429237,0.0,0.0
1655367493363397085,572,1655367493362524986,/map,3.10441827774,0.0,1.38887429237,0.0,0.0
1655367493459563187,573,1655367493458753108,/map,3.10441827774,0.0,1.38887429237,0.0,0.0
1655367493564310418,574,1655367493563340902,/map,3.10441827774,0.0,1.38887429237,0.0,0.0
1655367493661170451,575,1655367493660017013,/map,3.10441827774,0.0,1.38887429237,0.0,0.0
1655367493783373194,576,1655367493781563043,/map,3.10441827774,0.0,1.38887429237,0.0,0.0
1655367493878504079,577,1655367493877567052,/map,3.10441827774,0.0,1.38887429237,0.0,0.0
1655367493969854519,578,1655367493968868970,/map,3.10441827774,0.0,1.38887429237,0.0,0.0
1655367494081455324,579,1655367494080274105,/map,3.10441827774,0.0,1.38887429237,0.0,0.0
1655367494165331602,580,1655367494164077997,/map,3.10441827774,0.0,1.38887429237,0.0,0.0
1655367494284629004,581,1655367494283595085,/map,3.10441827774,0.0,1.38887429237,0.0,0.0
1655367494379836681,582,1655367494378793001,/map,3.10441827774,0.0,1.38887429237,0.0,0.0
1655367494462140757,583,1655367494461055040,/map,3.10441827774,0.0,1.38887429237,0.0,0.0
1655367494567898743,584,1655367494566800117,/map,3.10441827774,0.0,1.38887429237,0.0,0.0
1655367494661511496,585,1655367494660239934,/map,3.10441827774,0.0,1.38887429237,0.0,0.0
1655367494759385165,586,1655367494758160114,/map,3.10441827774,0.0,1.38887429237,0.0,0.0
1655367494880787764,587,1655367494879730939,/map,3.10441827774,0.0,1.38887429237,0.0,0.0
1655367494982575051,588,1655367494981759071,/map,3.10441827774,0.0,1.38887429237,0.0,0.0
1655367495058625954,589,1655367495057116985,/map,3.10441827774,0.0,1.38887429237,0.0,0.0
1655367495162947904,590,1655367495161969900,/map,3.10441827774,0.0,1.38887429237,0.0,0.0
1655367495264447098,591,1655367495262969970,/map,3.10441827774,0.0,1.38887429237,0.0,0.0
1655367495364103254,592,1655367495362387895,/map,3.10441827774,0.0,1.38887429237,0.0,0.0
1655367495464155196,593,1655367495463304042,/map,3.10441827774,0.0,1.38887429237,0.0,0.0
1655367495563627218,594,1655367495562402963,/map,3.10441827774,0.0,1.38887429237,0.0,0.0
1655367495665953942,595,1655367495664479970,/map,3.10441827774,0.0,1.38887429237,0.0,0.0
1655367495767459213,596,1655367495766613960,/map,3.10441827774,0.0,1.38887429237,0.0,0.0
1655367495880940071,597,1655367495880088090,/map,3.10441827774,0.0,1.38887429237,0.0,0.0
1655367495980260624,598,1655367495979283094,/map,3.10441827774,0.0,1.38887429237,0.0,0.0
1655367496084319480,599,1655367496083399057,/map,3.10441827774,0.0,1.38887429237,0.0,0.0
1655367496162197378,600,1655367496160976886,/map,3.10441827774,0.0,1.38887429237,0.0,0.0
1655367496263857910,601,1655367496262855052,/map,3.10441827774,0.0,1.38887429237,0.0,0.0
1655367496390549896,602,1655367496389446973,/map,3.10441827774,0.0,1.38887429237,0.0,0.0
1655367496463580627,603,1655367496462515115,/map,3.10441827774,0.0,1.38887429237,0.0,0.0
1655367496565534050,604,1655367496563872098,/map,3.10441827774,0.0,1.38887429237,0.0,0.0
1655367496693580262,605,1655367496692255973,/map,3.10441827774,0.0,1.38887429237,0.0,0.0
1655367496765278222,606,1655367496764400005,/map,3.10441827774,0.0,1.38887429237,0.0,0.0
1655367496860663479,607,1655367496859858036,/map,3.10441827774,0.0,1.38887429237,0.0,0.0
1655367496958795176,608,1655367496957138061,/map,3.10441827774,0.0,1.38887429237,0.0,0.0
1655367497073914055,609,1655367497070061922,/map,3.10441827774,0.0,1.38887429237,0.0,0.0
1655367497168121148,610,1655367497167342901,/map,3.10441827774,0.0,1.38887429237,0.0,0.0
1655367497254804748,611,1655367497253982067,/map,3.10441827774,0.0,1.38887429237,0.0,0.0
1655367497361825608,612,1655367497360136985,/map,3.10441827774,0.0,1.38887429237,0.0,0.0
1655367497465957566,613,1655367497464829921,/map,3.10441827774,0.0,1.38887429237,0.0,0.0
1655367497561087842,614,1655367497559956073,/map,3.10441827774,0.0,1.38887429237,0.0,0.0
1655367497657231609,615,1655367497656158924,/map,3.10441827774,0.0,1.38887429237,0.0,0.0
1655367497761501678,616,1655367497760555028,/map,3.10441827774,0.0,1.38887429237,0.0,0.0
1655367497857369943,617,1655367497856470108,/map,3.10441827774,0.0,1.38887429237,0.0,0.0
1655367497956510854,618,1655367497955622911,/map,3.10441827774,0.0,1.38887429237,0.0,0.0
1655367498073899264,619,1655367498072976112,/map,3.10441827774,0.0,1.38887429237,0.0,0.0
1655367498154772268,620,1655367498153881072,/map,3.10441827774,0.0,1.38887429237,0.0,0.0
1655367498288968357,621,1655367498287590026,/map,3.10441827774,0.0,1.38887429237,0.0,0.0
1655367498366146286,622,1655367498365283966,/map,3.10441827774,0.0,1.38887429237,0.0,0.0
1655367498488661415,623,1655367498487459897,/map,3.10441827774,0.0,1.38887429237,0.0,0.0
1655367498560614234,624,1655367498559425115,/map,3.10441827774,0.0,1.38887429237,0.0,0.0
1655367498664410097,625,1655367498661514043,/map,3.10441827774,0.0,1.38887429237,0.0,0.0
1655367498769519623,626,1655367498768536090,/map,3.10441827774,0.0,1.38887429237,0.0,0.0
1655367498859370858,627,1655367498858303070,/map,3.10441827774,0.0,1.38887429237,0.0,0.0
1655367498959471700,628,1655367498958524942,/map,3.10441827774,0.0,1.38887429237,0.0,0.0
1655367499055665089,629,1655367499054300069,/map,3.10441827774,0.0,1.38887429237,0.0,0.0
1655367499168852289,630,1655367499167885065,/map,3.10441827774,0.0,1.38887429237,0.0,0.0
1655367499267364973,631,1655367499266339063,/map,3.10441827774,0.0,1.38887429237,0.0,0.0
1655367499403534207,632,1655367499402612924,/map,3.10441827774,0.0,1.38887429237,0.0,0.0
1655367499472902239,633,1655367499471965074,/map,3.10441827774,0.0,1.38887429237,0.0,0.0
1655367499564336063,634,1655367499563039064,/map,3.10441827774,0.0,1.38887429237,0.0,0.0
1655367499654327982,635,1655367499653079032,/map,3.10441827774,0.0,1.38887429237,0.0,0.0
1655367499758968618,636,1655367499758090019,/map,3.10441827774,0.0,1.38887429237,0.0,0.0
1655367499853741918,637,1655367499852813959,/map,3.10441827774,0.0,1.38887429237,0.0,0.0
1655367499958709358,638,1655367499957467079,/map,3.10441827774,0.0,1.38887429237,0.0,0.0
1655367500070215027,639,1655367500069129943,/map,3.10441827774,0.0,1.38887429237,0.0,0.0
1655367500180849763,640,1655367500180052995,/map,3.10441827774,0.0,1.38887429237,0.0,0.0
1655367500259292021,641,1655367500258193969,/map,3.10441827774,0.0,1.38887429237,0.0,0.0
1655367500355633136,642,1655367500354727029,/map,3.10441827774,0.0,1.38887429237,0.0,0.0
1655367500454899229,643,1655367500453936100,/map,3.10441827774,0.0,1.38887429237,0.0,0.0
1655367500554344767,644,1655367500553390026,/map,3.10441827774,0.0,1.38887429237,0.0,0.0
1655367500654999727,645,1655367500654145002,/map,3.10441827774,0.0,1.38887429237,0.0,0.0
1655367500763914770,646,1655367500763084888,/map,3.10441827774,0.0,1.38887429237,0.0,0.0
1655367500855161536,647,1655367500854167938,/map,3.10441827774,0.0,1.38887429237,0.0,0.0
1655367500961027321,648,1655367500960066080,/map,3.10441827774,0.0,1.38887429237,0.0,0.0
1655367501067095152,649,1655367501066071987,/map,3.10441827774,0.0,1.38887429237,0.0,0.0
1655367501173087727,650,1655367501171983957,/map,3.10441827774,0.0,1.38887429237,0.0,0.0
1655367501265298515,651,1655367501263511896,/map,3.10441827774,0.0,1.38887429237,0.0,0.0
1655367501361499312,652,1655367501360373973,/map,3.10441827774,0.0,1.38887429237,0.0,0.0
1655367501458695686,653,1655367501457777023,/map,3.10441827774,0.0,1.38887429237,0.0,0.0
1655367501556832200,654,1655367501555887937,/map,3.10441827774,0.0,1.38887429237,0.0,0.0
1655367501654651218,655,1655367501653601884,/map,3.10441827774,0.0,1.38887429237,0.0,0.0
1655367501762267026,656,1655367501761055946,/map,3.10441827774,0.0,1.38887429237,0.0,0.0
1655367501907321244,657,1655367501905108928,/map,3.10441827774,0.0,1.38887429237,0.0,0.0
1655367501977827663,658,1655367501976795911,/map,3.10441827774,0.0,1.38887429237,0.0,0.0
1655367502058391752,659,1655367502057488918,/map,3.10441827774,0.0,1.38887429237,0.0,0.0
1655367502172174733,660,1655367502170969963,/map,3.10441827774,0.0,1.38887429237,0.0,0.0
1655367502265874158,661,1655367502264950990,/map,3.10441827774,0.0,1.38887429237,0.0,0.0
1655367502359320112,662,1655367502358448028,/map,3.10441827774,0.0,1.38887429237,0.0,0.0
1655367502456865328,663,1655367502455919981,/map,3.10441827774,0.0,1.38887429237,0.0,0.0
1655367502560066750,664,1655367502559118986,/map,3.10441827774,0.0,1.38887429237,0.0,0.0
1655367502659710699,665,1655367502658508062,/map,3.10441827774,0.0,1.38887429237,0.0,0.0
1655367502767277219,666,1655367502766541004,/map,3.10441827774,0.0,1.38887429237,0.0,0.0
1655367502856969326,667,1655367502855144977,/map,3.10441827774,0.0,1.38887429237,0.0,0.0
1655367502963277203,668,1655367502962132930,/map,3.10441827774,0.0,1.38887429237,0.0,0.0
1655367503058712913,669,1655367503057733058,/map,3.10441827774,0.0,1.38887429237,0.0,0.0
1655367503158202185,670,1655367503157068014,/map,3.10441827774,0.0,1.38887429237,0.0,0.0
1655367503260399174,671,1655367503259350061,/map,3.10441827774,0.0,1.38887429237,0.0,0.0
1655367503365971843,672,1655367503364329099,/map,3.10441827774,0.0,1.38887429237,0.0,0.0
1655367503462701989,673,1655367503461141109,/map,3.10441827774,0.0,1.38887429237,0.0,0.0
1655367503560169724,674,1655367503559421062,/map,3.10441827774,0.0,1.38887429237,0.0,0.0
1655367503657539694,675,1655367503656747102,/map,3.10441827774,0.0,1.38887429237,0.0,0.0
1655367503756243913,676,1655367503755393028,/map,3.10441827774,0.0,1.38887429237,0.0,0.0
1655367503857300710,677,1655367503856007099,/map,3.10441827774,0.0,1.38887429237,0.0,0.0
1655367503959086535,678,1655367503957535028,/map,3.10441827774,0.0,1.38887429237,0.0,0.0
1655367504059019087,679,1655367504057722091,/map,3.10441827774,0.0,1.38887429237,0.0,0.0
1655367504176172017,680,1655367504174930095,/map,3.10441827774,0.0,1.38887429237,0.0,0.0
1655367504278434383,681,1655367504277448892,/map,3.10441827774,0.0,1.38887429237,0.0,0.0
1655367504355396816,682,1655367504354094982,/map,3.10441827774,0.0,1.38887429237,0.0,0.0
1655367504459282616,683,1655367504458391904,/map,3.10441827774,0.0,1.38887429237,0.0,0.0
1655367504572127173,684,1655367504570971012,/map,3.10441827774,0.0,1.38887429237,0.0,0.0
1655367504663995330,685,1655367504663079977,/map,3.10441827774,0.0,1.38887429237,0.0,0.0
1655367504771400198,686,1655367504770446062,/map,3.10441827774,0.0,1.38887429237,0.0,0.0
1655367504875923362,687,1655367504875243902,/map,0.0351898111403,0.0,1.38887619972,1.86130109796e-05,0.0
1655367504973500414,688,1655367504972531080,/map,-0.288548827171,0.0,1.38887798786,1.78093596332e-05,0.0
1655367505072475531,689,1655367505071542978,/map,-0.00688474345952,0.0,1.38887965679,1.70280818566e-05,0.0
1655367505165823526,690,1655367505164969921,/map,9.05383130885e-05,0.0,1.38888132572,1.62688393175e-05,0.0
1655367505269966687,691,1655367505269165039,/map,-0.303639560938,0.0,1.38888287544,1.55312900461e-05,0.0
1655367505371161682,692,1655367505370402097,/map,-0.208983719349,0.0,1.38888430595,1.48150875248e-05,0.0
1655367505482850386,693,1655367505481947898,/map,-0.13163459301,0.0,1.38888573647,1.41198797792e-05,0.0
1655367505613288402,694,1655367505611865043,/map,0.0125608090311,0.0,1.38888704777,1.34453121063e-05,0.0
1655367505697042349,695,1655367505695765972,/map,0.0182622075081,0.0,1.38888835907,1.27910279843e-05,0.0
1655367505796879161,696,1655367505796014070,/map,0.0827695652843,0.0,1.38888955116,1.21566672533e-05,0.0
1655367505877063319,697,1655367505876027107,/map,0.00955418776721,0.0,1.38889074326,1.15418670248e-05,0.0
1655367505971560505,698,1655367505970711946,/map,0.0666270852089,0.0,1.38889181614,1.09462653199e-05,0.0
1655367506074806339,699,1655367506073992967,/map,0.0374880097806,0.0,1.38889288902,1.03694983409e-05,0.0
1655367506176833190,700,1655367506175880908,/map,0.0872149839997,0.0,1.3888938427,9.81119865173e-06,0.0
1655367506273918517,701,1655367506272568941,/map,0.0303999558091,0.0,1.38889479637,9.27100427361e-06,0.0
1655367506371078930,702,1655367506370222091,/map,-0.0848730131984,0.0,1.38889563084,8.74854777067e-06,0.0
1655367506472434707,703,1655367506471503973,/map,0.0104813585058,0.0,1.3888964653,8.243465345e-06,0.0
1655367506592974711,704,1655367506592082977,/map,-0.0120610818267,0.0,1.38889729977,7.75539410824e-06,0.0
1655367506676552760,705,1655367506675443887,/map,0.00900418311357,0.0,1.38889801502,7.28397026251e-06,0.0
1655367506779075718,706,1655367506777424097,/map,0.027239754796,0.0,1.38889861107,6.82883455738e-06,0.0
1655367506878432042,707,1655367506877630949,/map,0.0436851009727,0.0,1.38889932632,6.38962637822e-06,0.0
1655367506976298632,708,1655367506975303888,/map,0.0640357881784,0.0,1.38889992237,5.96598874836e-06,0.0
1655367507070162006,709,1655367507069382905,/map,0.0221624188125,0.0,1.38890039921,5.5575674196e-06,0.0
1655367507172589385,710,1655367507171637058,/map,0.0476620644331,0.0,1.38890099525,5.16400950801e-06,0.0
1655367507275809311,711,1655367507274969100,/map,0.0365719683468,0.0,1.38890147209,4.78496531287e-06,0.0
1655367507375925083,712,1655367507374531984,/map,0.00331245199777,0.0,1.38890194893,4.42008831669e-06,0.0
1655367507475270799,713,1655367507474303960,/map,0.0485951080918,0.0,1.38890230656,4.06903518524e-06,0.0
1655367507577231500,714,1655367507576410055,/map,0.059773683548,0.0,1.38890266418,3.73146576749e-06,0.0
1655367507672075577,715,1655367507670530080,/map,-0.0542532168329,0.0,1.38890302181,3.40704332302e-06,0.0
1655367507785491149,716,1655367507784605026,/map,-0.0953080281615,0.0,1.38890337944,3.09543497679e-06,0.0
1655367507868865747,717,1655367507868068933,/map,-0.023834740743,0.0,1.38890361786,2.79631171907e-06,0.0
1655367508007421959,718,1655367508006033897,/map,-0.0594725608826,0.0,1.38890385628,2.50934817814e-06,0.0
1655367508088813009,719,1655367508087655067,/map,-0.0637148395181,0.0,1.3889040947,2.23422330237e-06,0.0
1655367508169120918,720,1655367508168273925,/map,-0.196319371462,0.0,1.38890433311,1.9706205876e-06,0.0
1655367508272733252,721,1655367508271804094,/map,0.0317604728043,0.0,1.38890445232,1.71822750872e-06,0.0
1655367508370806347,722,1655367508369709968,/map,-0.118725702167,0.0,1.38890457153,1.47673574702e-06,0.0
1655367508473119072,723,1655367508472103118,/map,0.052225921303,0.0,1.38890469074,1.24584175865e-06,0.0
1655367508574706700,724,1655367508571151971,/map,-0.121989123523,0.0,1.38890480995,1.02524677459e-06,0.0
1655367508668888294,725,1655367508668158054,/map,-0.0705333352089,0.0,1.38890492916,8.14656232251e-07,0.0
1655367508776121378,726,1655367508775084018,/map,0.0108329523355,0.0,1.38890492916,6.13780514414e-07,0.0
1655367508874416786,727,1655367508873233079,/map,-0.0857131555676,0.0,1.38890504837,4.2233486397e-07,0.0
1655367508970744764,728,1655367508968667984,/map,-0.0857131555676,0.0,1.38890504837,2.4003912813e-07,0.0
1655367509078381335,729,1655367509077239036,/map,-0.193653181195,0.0,1.38890504837,6.66181634301e-08,0.0
1655367509168779180,730,1655367509167905092,/map,-0.0282112322748,0.0,1.38890504837,-9.8198384535e-08,0.0
1655367509283635404,731,1655367509282550096,/map,-0.061006218195,0.0,1.38890504837,-2.54675910583e-07,0.0
1655367509402190617,732,1655367509400429010,/map,0.0264258831739,0.0,1.38890492916,-4.03074864153e-07,0.0
1655367509483975650,733,1655367509483226060,/map,-0.0660265907645,0.0,1.38890492916,-5.43650799045e-07,0.0
1655367509588234788,734,1655367509586879014,/map,-0.0235422998667,0.0,1.38890480995,-6.76654281051e-07,0.0
1655367509692196659,735,1655367509691401958,/map,0.0472019314766,0.0,1.38890480995,-8.02330987426e-07,0.0
1655367509786723883,736,1655367509785839080,/map,-0.109508767724,0.0,1.38890469074,-9.20921479519e-07,0.0
1655367509892051916,737,1655367509891204118,/map,0.0926444157958,0.0,1.38890457153,-1.03266154383e-06,0.0
1655367509973347064,738,1655367509972408056,/map,0.0254607331008,0.0,1.38890445232,-1.13778196464e-06,0.0
1655367510072062298,739,1655367510070677995,/map,0.0244650393724,0.0,1.38890433311,-1.23650852402e-06,0.0
1655367510193565256,740,1655367510192367076,/map,-0.137913689017,0.0,1.38890421391,-1.32906222916e-06,0.0
1655367510278181370,741,1655367510277113914,/map,0.103559218347,0.0,1.3889040947,-1.41565931244e-06,0.0
1655367510368232808,742,1655367510367221117,/map,-0.152217462659,0.0,1.38890385628,-1.49651077663e-06,0.0
1655367510465785830,743,1655367510464708089,/map,0.0626337602735,0.0,1.38890373707,-1.57182319072e-06,0.0
1655367510575315259,744,1655367510574428081,/map,0.042694427073,0.0,1.38890361786,-1.64179812145e-06,0.0
1655367510671119878,745,1655367510669985055,/map,-0.0663434565067,0.0,1.38890337944,-1.70663258814e-06,0.0
1655367510782751988,746,1655367510780775070,/map,0.128851234913,0.0,1.38890326023,-1.76651860784e-06,0.0
1655367510881327252,747,1655367510880419969,/map,-0.13348531723,0.0,1.38890302181,-1.82164387752e-06,0.0
1655367510967672758,748,1655367510967032909,/map,0.0200001299381,0.0,1.3889029026,-1.87219120562e-06,0.0
1655367511073261849,749,1655367511070302009,/map,0.0129765486345,0.0,1.38890266418,-1.91833896679e-06,0.0
1655367511173917004,750,1655367511172960042,/map,0.0201268084347,0.0,1.38890242577,-1.9602609882e-06,0.0
1655367511277200303,751,1655367511276118993,/map,-0.113959252834,0.0,1.38890230656,-1.99812666324e-06,0.0
1655367511378200288,752,1655367511377182960,/map,0.0592531785369,0.0,1.38890206814,-2.0321010652e-06,0.0
1655367511475425309,753,1655367511473711967,/map,-0.0156118506566,0.0,1.38890182972,-2.06234449251e-06,0.0
1655367511571611040,754,1655367511570601940,/map,-0.0727776139975,0.0,1.38890171051,-2.08901337828e-06,0.0
1655367511679200247,755,1655367511678447961,/map,0.110440127552,0.0,1.38890147209,-2.11225983549e-06,0.0
1655367511838805626,756,1655367511837583065,/map,-0.120689362288,0.0,1.38890123367,-2.13223188439e-06,0.0
1655367511929768657,757,1655367511928299903,/map,-0.000627429806627,0.0,1.38890099525,-2.14907277041e-06,0.0
1655367512011710112,758,1655367512010111093,/map,-0.0590012967587,0.0,1.38890075684,-2.1629227831e-06,0.0
1655367512091513719,759,1655367512090677976,/map,-0.0590012930334,0.0,1.38890063763,-2.1739172098e-06,0.0
1655367512177558846,760,1655367512176491022,/map,-0.0932264477015,0.0,1.38890039921,-2.18218815462e-06,0.0
1655367512276854221,761,1655367512276098966,/map,0.0525000207126,0.0,1.38890016079,-2.18786340156e-06,0.0
1655367512374365741,762,1655367512372814893,/map,0.0731312856078,0.0,1.38889992237,-2.19106686927e-06,0.0
1655367512475682056,763,1655367512474766969,/map,-0.168110147119,0.0,1.38889968395,-2.19191906581e-06,0.0
1655367512576238605,764,1655367512574672937,/map,0.0995394065976,0.0,1.38889944553,-2.19053686124e-06,0.0
1655367512682457951,765,1655367512681340932,/map,-0.0246002394706,0.0,1.38889932632,-2.18703326027e-06,0.0
1655367512780182377,766,1655367512779361963,/map,0.0736250653863,0.0,1.38889908791,-2.18151762965e-06,0.0
1655367512889544507,767,1655367512888668060,/map,0.12110491097,0.0,1.38889884949,-2.17409638026e-06,0.0
1655367512972257381,768,1655367512971551895,/map,0.00709556275979,0.0,1.38889861107,-2.16487205762e-06,0.0
1655367513077520473,769,1655367513076333045,/map,0.0430820733309,0.0,1.38889837265,-2.1539442514e-06,0.0
1655367513177439798,770,1655367513176635026,/map,0.0871833488345,0.0,1.38889813423,-2.14140868593e-06,0.0
1655367513269795439,771,1655367513268862009,/map,0.14428922534,0.0,1.38889801502,-2.1273585844e-06,0.0
1655367513390239688,772,1655367513389552116,/map,0.0665717050433,0.0,1.3888977766,-2.11188353205e-06,0.0
1655367513468222901,773,1655367513467206001,/map,0.0848142728209,0.0,1.38889753819,-2.09507038562e-06,0.0
1655367513578498688,774,1655367513577683925,/map,0.0964181125164,0.0,1.38889729977,-2.07700281862e-06,0.0
1655367513666092473,775,1655367513665355920,/map,0.0412788838148,0.0,1.38889718056,-2.05776177609e-06,0.0
1655367513773453218,776,1655367513772428035,/map,0.0724125728011,0.0,1.38889694214,-2.03742501981e-06,0.0
1655367513875958289,777,1655367513875119924,/map,0.0925696641207,0.0,1.38889670372,-2.01606735573e-06,0.0
1655367513971898679,778,1655367513970643043,/map,0.0566776506603,0.0,1.38889658451,-1.99376177079e-06,0.0
1655367514081508370,779,1655367514080426931,/map,0.0265563372523,0.0,1.38889634609,-1.97057761397e-06,0.0
1655367514167570470,780,1655367514166488885,/map,-0.00278340885416,0.0,1.38889610767,-1.94658218788e-06,0.0
1655367514271879932,781,1655367514270376920,/map,0.02883669734,0.0,1.38889598846,-1.92183983927e-06,0.0
1655367514372478872,782,1655367514370754003,/map,0.0248164925724,0.0,1.38889575005,-1.89641286852e-06,0.0
1655367514468489365,783,1655367514467154026,/map,0.0799554660916,0.0,1.38889563084,-1.87036084753e-06,0.0
1655367514567084669,784,1655367514566147089,/map,-0.0810795277357,0.0,1.38889539242,-1.84374096079e-06,0.0
1655367514671262827,785,1655367514670538902,/map,-0.0209902990609,0.0,1.388895154,-1.81660834642e-06,0.0
1655367514795802764,786,1655367514794718980,/map,0.0302387401462,0.0,1.38889503479,-1.78901575509e-06,0.0
1655367514873908049,787,1655367514873090028,/map,-0.0496652461588,0.0,1.38889491558,-1.76101377747e-06,0.0
1655367514977880377,788,1655367514976944923,/map,0.0613454468548,0.0,1.38889467716,-1.73265095782e-06,0.0
1655367515074647936,789,1655367515073503971,/map,-0.0323251895607,0.0,1.38889455795,-1.70397356669e-06,0.0
1655367515173404746,790,1655367515172029972,/map,-0.0185829047114,0.0,1.38889431953,-1.67502605564e-06,0.0
1655367515268314647,791,1655367515267502069,/map,-0.0303156897426,0.0,1.38889420033,-1.64585094353e-06,0.0
1655367515372698329,792,1655367515371812105,/map,0.0816094651818,0.0,1.38889396191,-1.61648870289e-06,0.0
1655367515478782460,793,1655367515477754116,/map,0.0112163051963,0.0,1.3888938427,-1.58697810093e-06,0.0
1655367515573394602,794,1655367515572437047,/map,0.00778513075784,0.0,1.38889372349,-1.55735608587e-06,0.0
1655367515702276583,795,1655367515701489925,/map,0.134705990553,0.0,1.38889360428,-1.52765778694e-06,0.0
1655367515783281325,796,1655367515782447099,/map,-0.13363006711,0.0,1.38889336586,-1.49791674176e-06,0.0
1655367515870750390,797,1655367515869854927,/map,0.0978704616427,0.0,1.38889324665,-1.46816478264e-06,0.0
1655367515967139534,798,1655367515966196060,/map,-0.0707284063101,0.0,1.38889312744,-1.43843226397e-06,0.0
1655367516073653047,799,1655367516072746038,/map,0.0464274995029,0.0,1.38889300823,-1.40874794852e-06,0.0
1655367516173778728,800,1655367516172977924,/map,0.0116425631568,0.0,1.38889288902,-1.37913912113e-06,0.0
1655367516265637747,801,1655367516264915943,/map,0.117419630289,0.0,1.3888926506,-1.34963158871e-06,0.0
1655367516370963704,802,1655367516369889020,/map,-0.0468467436731,0.0,1.38889253139,-1.32024990762e-06,0.0
1655367516472465143,803,1655367516471149921,/map,-0.00213274196722,0.0,1.38889241219,-1.29101692892e-06,0.0
1655367516573679195,804,1655367516572881937,/map,0.106745131314,0.0,1.38889229298,-1.26195459416e-06,0.0
1655367516674091084,805,1655367516673285961,/map,-0.0896431431174,0.0,1.38889217377,-1.23308348066e-06,0.0
1655367516781466978,806,1655367516780534029,/map,0.158524975181,0.0,1.38889205456,-1.20442280149e-06,0.0
1655367516869927357,807,1655367516868518114,/map,-0.0522418990731,0.0,1.38889193535,-1.17599074656e-06,0.0
1655367516972135148,808,1655367516971398115,/map,0.0167186651379,0.0,1.38889181614,-1.1478042552e-06,0.0
1655367517087615596,809,1655367517084955930,/map,0.0474691875279,0.0,1.38889169693,-1.11987935725e-06,0.0
1655367517171971657,810,1655367517171086072,/map,0.11794155091,0.0,1.38889157772,-1.09223071831e-06,0.0
1655367517273709401,811,1655367517272706031,/map,-0.0513766221702,0.0,1.38889145851,-1.06487243556e-06,0.0
1655367517374097033,812,1655367517373265027,/map,-0.0040474794805,0.0,1.38889145851,-1.03781712824e-06,0.0
1655367517471320389,813,1655367517470395088,/map,0.138271793723,0.0,1.3888913393,-1.01107673345e-06,0.0
1655367517575753105,814,1655367517572355031,/map,-0.0482384040952,0.0,1.38889122009,-9.84662278825e-07,0.0
1655367517680254689,815,1655367517679414033,/map,0.111005850136,0.0,1.38889110088,-9.58583882493e-07,0.0
1655367517772871796,816,1655367517771985054,/map,0.0866043493152,0.0,1.38889098167,-9.32850866775e-07,0.0
1655367517875471233,817,1655367517874389886,/map,0.014025661163,0.0,1.38889098167,-9.07471644496e-07,0.0
1655367517976636129,818,1655367517975919008,/map,0.022331347689,0.0,1.38889086246,-8.82453889517e-07,0.0
1655367518058895900,819,1655367518058053016,/map,0.0261289272457,0.0,1.38889086246,0.0,0.0
1655367518158827294,820,1655367518158235073,/map,-0.112698167562,0.0,1.38889074326,-8.57804593579e-07,0.0
1655367518259139413,821,1655367518258464097,/map,-0.111766286194,0.0,1.38889062405,-8.33529895772e-07,0.0
1655367518378295073,822,1655367518377566099,/map,-0.0937028452754,0.0,1.38889062405,-8.09635480437e-07,0.0
1655367518470618288,823,1655367518470061063,/map,-0.130224153399,0.0,1.38889050484,-7.86126122421e-07,0.0
1655367518565768158,824,1655367518565179109,/map,0.0285959932953,0.0,1.38889038563,-7.63006084981e-07,0.0
1655367518666793902,825,1655367518666150093,/map,-0.145744085312,0.0,1.38889038563,-7.40279062938e-07,0.0
1655367518764438640,826,1655367518763936042,/map,-0.103021286428,0.0,1.38889026642,-7.17948125839e-07,0.0
1655367518865693824,827,1655367518864885091,/map,-0.0970107540488,0.0,1.38889026642,-6.96015774793e-07,0.0
1655367518999480723,828,1655367518998198032,/map,-0.0940239205956,0.0,1.38889014721,-6.74483999319e-07,0.0
1655367519070210568,829,1655367519069308996,/map,0.097413174808,0.0,1.388890028,-6.5335433419e-07,0.0
1655367519181509716,830,1655367519180844068,/map,-0.0989485532045,0.0,1.388890028,-6.32627859432e-07,0.0
1655367519262290881,831,1655367519261754035,/map,-0.0540080405772,0.0,1.38888990879,-6.1230502979e-07,0.0
1655367519387201635,832,1655367519386549949,/map,-0.104525908828,0.0,1.38888990879,-5.92386015796e-07,0.0
1655367519463818208,833,1655367519463175058,/map,-0.0510880239308,0.0,1.38888978958,-5.72870590076e-07,0.0
1655367519564224212,834,1655367519563447952,/map,-0.0500732883811,0.0,1.38888978958,-5.5375807051e-07,0.0
1655367519665798369,835,1655367519664983987,/map,0.0352191217244,0.0,1.38888978958,-5.35047433914e-07,0.0
1655367519763455912,836,1655367519762532949,/map,-0.0428532287478,0.0,1.38888967037,-5.16737259204e-07,0.0
1655367519869503107,837,1655367519868098020,/map,-0.0368633009493,0.0,1.38888967037,-4.98825841078e-07,0.0
1655367519965097917,838,1655367519964039087,/map,-0.0164172518998,0.0,1.38888955116,-4.81311190015e-07,0.0
1655367520064314690,839,1655367520063714981,/map,-0.0686415433884,0.0,1.38888955116,-4.64190975435e-07,0.0
1655367520164664526,840,1655367520163945913,/map,-0.056373886764,0.0,1.38888955116,-4.47462554121e-07,0.0
1655367520266184997,841,1655367520265337944,/map,0.061433441937,0.0,1.38888943195,-4.31123112321e-07,0.0
1655367520362296926,842,1655367520361421108,/map,-0.0216699838638,0.0,1.38888943195,-4.15169495227e-07,0.0
1655367520466173754,843,1655367520465435981,/map,0.000385283434298,0.0,1.38888931274,-3.9959840592e-07,0.0
1655367520564853591,844,1655367520563868999,/map,0.01800217852,0.0,1.38888931274,-3.84406263265e-07,0.0
1655367520668195987,845,1655367520667397975,/map,0.0297733005136,0.0,1.38888931274,-3.69589344018e-07,0.0
1655367520768460861,846,1655367520767744064,/map,0.0670157968998,0.0,1.38888931274,-3.5514366914e-07,0.0
1655367520872560432,847,1655367520871937036,/map,0.192429900169,0.0,1.38888919353,-3.41065117482e-07,0.0
1655367520990038975,848,1655367520989532947,/map,0.00331897754222,0.0,1.38888919353,-3.2734945421e-07,0.0
1655367521075786285,849,1655367521074912071,/map,0.0101895248517,0.0,1.38888919353,-3.13992188694e-07,0.0
1655367521190865339,850,1655367521189275979,/map,0.062036126852,0.0,1.38888907433,-3.00988830304e-07,0.0
1655367521308453517,851,1655367521307213068,/map,-0.0734288841486,0.0,1.38888907433,-2.88334632614e-07,0.0
1655367521382427315,852,1655367521381633043,/map,0.0408720001578,0.0,1.38888907433,-2.76024820778e-07,0.0
1655367521463045864,853,1655367521462388038,/map,0.108729235828,0.0,1.38888907433,-2.64054477839e-07,0.0
1655367521562652497,854,1655367521561806917,/map,0.110921315849,0.0,1.38888907433,-2.52418573155e-07,0.0
1655367521699533155,855,1655367521698828935,/map,0.157243162394,0.0,1.38888895512,-2.41112076083e-07,0.0
1655367521775554671,856,1655367521774683952,/map,0.191741749644,0.0,1.38888895512,-2.30129771239e-07,0.0
1655367521865910488,857,1655367521865103960,/map,0.163070946932,0.0,1.38888895512,-2.19466457452e-07,0.0
1655367521966763316,858,1655367521966074943,/map,0.209547266364,0.0,1.38888895512,-2.09116834071e-07,0.0
1655367522066421820,859,1655367522065593957,/map,0.256844609976,0.0,1.38888895512,-1.99075586238e-07,0.0
1655367522172332317,860,1655367522171566963,/map,0.277595847845,0.0,1.38888883591,-1.89337328038e-07,0.0
1655367522272497278,861,1655367522271651029,/map,0.222300350666,0.0,1.38888883591,-1.79896630925e-07,0.0
1655367522366243586,862,1655367522365451097,/map,0.215245828032,0.0,1.38888883591,-1.70748080563e-07,0.0
1655367522471350949,863,1655367522470658063,/map,0.174722313881,0.0,1.38888883591,-1.61886219985e-07,0.0
1655367522571448846,864,1655367522570733070,/map,0.268492549658,0.0,1.38888883591,-1.53305549588e-07,0.0
1655367522696929450,865,1655367522695646047,/map,0.316442161798,0.0,1.38888883591,-1.45000612406e-07,0.0
1655367522775042286,866,1655367522773715019,/map,0.173443853855,0.0,1.38888883591,-1.36965923048e-07,0.0
1655367522885308822,867,1655367522884135961,/map,0.14392991364,0.0,1.38888883591,-1.29196010334e-07,0.0
1655367522989320422,868,1655367522988636970,/map,0.225125074387,0.0,1.3888887167,-1.21685388876e-07,0.0
1655367523070463744,869,1655367523069710969,/map,0.238058626652,0.0,1.3888887167,-1.14428608811e-07,0.0
1655367523173855447,870,1655367523173126935,/map,0.327586889267,0.0,1.3888887167,-1.07420241591e-07,0.0
1655367523269208594,871,1655367523268605947,/map,0.303284615278,0.0,1.3888887167,-1.00654879986e-07,0.0
1655367523374052819,872,1655367523373219013,/map,0.313257902861,0.0,1.3888887167,-9.4127123873e-08,0.0
1655367523473744264,873,1655367523472255945,/map,0.334745466709,0.0,1.3888887167,-8.78316299691e-08,0.0
1655367523566307203,874,1655367523565608024,/map,0.345065176487,0.0,1.3888887167,-8.17630834149e-08,0.0
1655367523692461934,875,1655367523690908908,/map,0.351213157177,0.0,1.3888887167,-7.59161977726e-08,0.0
1655367523774327465,876,1655367523773528099,/map,0.227667465806,0.0,1.3888887167,-7.02857363422e-08,0.0
1655367523896274269,877,1655367523894301891,/map,0.201972708106,0.0,1.3888887167,-6.48665192671e-08,0.0
1655367524010624843,878,1655367524009526968,/map,0.207786470652,0.0,1.3888887167,-5.96533880071e-08,0.0
1655367524086767012,879,1655367524085838079,/map,0.212809503078,0.0,1.3888887167,-5.46412657343e-08,0.0
1655367524169374728,880,1655367524168510913,/map,0.200334995985,0.0,1.3888887167,-4.98251075953e-08,0.0
1655367524264341835,881,1655367524263531923,/map,0.226723760366,0.0,1.3888887167,-4.51999326856e-08,0.0
1655367524381958982,882,1655367524380996942,/map,0.00957520864904,0.0,1.3888887167,-4.07608169439e-08,0.0
1655367524476047712,883,1655367524474579095,/map,0.0800078138709,0.0,1.3888887167,-3.65028967053e-08,0.0
1655367524569672104,884,1655367524569010019,/map,0.29449570179,0.0,1.3888887167,-3.24213687009e-08,0.0
1655367524671825113,885,1655367524671047925,/map,0.270103603601,0.0,1.3888887167,-2.85114936105e-08,0.0
1655367524771331605,886,1655367524770622014,/map,0.0709886401892,0.0,1.38888859749,-2.47686031685e-08,0.0
1655367524869005424,887,1655367524868133068,/map,0.129029691219,0.0,1.38888859749,-2.11880877288e-08,0.0
1655367525002789405,888,1655367525001560926,/map,0.227463543415,0.0,1.38888859749,-1.7765410476e-08,0.0
1655367525083099393,889,1655367525082310914,/map,0.247778311372,0.0,1.38888859749,-1.44961012083e-08,0.0
1655367525171859954,890,1655367525170691013,/map,0.269114941359,0.0,1.38888859749,-1.1375761666e-08,0.0
1655367525270596058,891,1655367525269618988,/map,0.333299636841,0.0,1.38888859749,-8.40006286751e-09,0.0
1655367525402801401,892,1655367525400280952,/map,0.182535275817,0.0,1.38888859749,-5.56474955005e-09,0.0
1655367525489841601,893,1655367525488802909,/map,0.186258003116,0.0,1.38888859749,-2.86563683893e-09,0.0
1655367525577530701,894,1655367525576905965,/map,0.168781220913,0.0,1.38888859749,-2.98614188932e-10,0.0
1655367525672974364,895,1655367525671572923,/map,0.156038165092,0.0,1.38888859749,2.14035589252e-09,0.0
1655367525771469758,896,1655367525770514965,/map,0.142909362912,0.0,1.38888859749,4.45523706816e-09,0.0
1655367525872250417,897,1655367525871656894,/map,-0.0790639966726,0.0,1.38888859749,6.6499192819e-09,0.0
1655367525977743038,898,1655367525976923942,/map,-0.00806494336575,0.0,1.38888859749,8.72821726006e-09,0.0
1655367526070817731,899,1655367526070084095,/map,0.154232829809,0.0,1.38888859749,1.06938724542e-08,0.0
1655367526172283373,900,1655367526171545028,/map,0.129513889551,0.0,1.38888859749,1.25505499327e-08,0.0
1655367526300782046,901,1655367526299073934,/map,0.105082854629,0.0,1.38888859749,1.43018441534e-08,0.0
1655367526381829475,902,1655367526381081104,/map,0.244850888848,0.0,1.38888859749,1.59512705267e-08,0.0
1655367526518761599,903,1655367526517858028,/map,0.0659428760409,0.0,1.38888859749,1.75022751847e-08,0.0
1655367526596178228,904,1655367526595487117,/map,0.302118510008,0.0,1.3888887167,1.89582287646e-08,0.0
1655367526680534068,905,1655367526679721117,/map,0.302118510008,0.0,1.3888887167,2.0322424632e-08,0.0
1655367526775888334,906,1655367526774816036,/map,0.237214893103,0.0,1.3888887167,2.15980886509e-08,0.0
1655367526871272606,907,1655367526870309114,/map,0.304351985455,0.0,1.3888887167,2.27883720783e-08,0.0
1655367527014617582,908,1655367527012361049,/map,0.236552879214,0.0,1.3888887167,2.38963515642e-08,0.0
1655367527104731030,909,1655367527104052066,/map,0.20904096961,0.0,1.3888887167,2.49250362572e-08,0.0
1655367527184142556,910,1655367527183329105,/map,0.23365868628,0.0,1.3888887167,2.58773624751e-08,0.0
1655367527324933056,911,1655367527323002099,/map,0.190379410982,0.0,1.3888887167,2.67561937051e-08,0.0
1655367527425482803,912,1655367527424700975,/map,0.0592493228614,0.0,1.3888887167,2.75643277092e-08,0.0
1655367527501388784,913,1655367527500386953,/map,-0.0698901116848,0.0,1.3888887167,2.83044911953e-08,0.0
1655367527615765173,914,1655367527614847898,/map,-0.0698901116848,0.0,1.3888887167,2.89793415931e-08,0.0
1655367527696776080,915,1655367527695251941,/map,0.0267605800182,0.0,1.3888887167,2.95914706072e-08,0.0
1655367527773274813,916,1655367527772588968,/map,0.0267605818808,0.0,1.3888887167,3.01434006644e-08,0.0
1655367527871411615,917,1655367527870618104,/map,0.0140854651108,0.0,1.3888887167,3.06375902426e-08,0.0
1655367527971028969,918,1655367527970086097,/map,0.0282515622675,0.0,1.3888887167,3.1076435647e-08,0.0
1655367528071537637,919,1655367528070749998,/map,0.0570256598294,0.0,1.3888887167,3.14622603526e-08,0.0
1655367528175805386,920,1655367528174794912,/map,0.0758512094617,0.0,1.3888887167,3.17973309905e-08,0.0
1655367528277633951,921,1655367528276922941,/map,0.160632506013,0.0,1.3888887167,3.20838537959e-08,0.0
1655367528378508061,922,1655367528377675056,/map,0.251300245523,0.0,1.3888887167,3.23239639499e-08,0.0
1655367528478023143,923,1655367528477330923,/map,0.29803827405,0.0,1.3888887167,3.25197433426e-08,0.0
1655367528571396004,924,1655367528570277929,/map,0.295518875122,0.0,1.3888887167,3.26732170208e-08,0.0
1655367528674908650,925,1655367528674199104,/map,0.331882476807,0.0,1.3888887167,3.27863425298e-08,0.0
1655367528786476533,926,1655367528785707950,/map,0.359831929207,0.0,1.3888887167,3.2861024124e-08,0.0
1655367528879680839,927,1655367528878545999,/map,0.477529734373,0.0,1.3888887167,3.28991127674e-08,0.0
1655367528975077896,928,1655367528974158048,/map,0.363561183214,0.0,1.3888887167,3.29023990275e-08,0.0
1655367529074834095,929,1655367529073905944,/map,0.346067130566,0.0,1.3888887167,3.28726166288e-08,0.0
1655367529174239571,930,1655367529172599077,/map,0.286114931107,0.0,1.3888887167,3.28114495574e-08,0.0
1655367529283477687,931,1655367529282675981,/map,0.31086230278,0.0,1.3888887167,3.27205285089e-08,0.0
1655367529374858505,932,1655367529373970031,/map,0.263132750988,0.0,1.3888887167,3.26014379937e-08,0.0
1655367529471771773,933,1655367529470973968,/map,0.099509999156,0.0,1.3888887167,3.24556950204e-08,0.0
1655367529578181003,934,1655367529576556921,/map,0.233268305659,0.0,1.3888887167,3.22847881762e-08,0.0
1655367529685952571,935,1655367529684806108,/map,0.196346312761,0.0,1.3888887167,3.20901385464e-08,0.0
1655367529774415190,936,1655367529773598909,/map,0.0491954907775,0.0,1.3888887167,3.18731316895e-08,0.0
1655367529881605497,937,1655367529880639076,/map,0.185379177332,0.0,1.3888887167,3.16351034257e-08,0.0
1655367529979071442,938,1655367529977873086,/map,0.0578878223896,0.0,1.3888887167,3.13773398375e-08,0.0
1655367530079246511,939,1655367530078054904,/map,0.0819459706545,0.0,1.3888887167,3.110109148e-08,0.0
1655367530176740078,940,1655367530175681114,/map,0.0931499004364,0.0,1.3888887167,3.08075485123e-08,0.0
1655367530311532963,941,1655367530307107925,/map,0.121447585523,0.0,1.3888887167,3.04978797772e-08,0.0
1655367530396694123,942,1655367530395905971,/map,0.106553703547,0.0,1.3888887167,3.01731937213e-08,0.0
1655367530478452874,943,1655367530477267980,/map,0.16326366365,0.0,1.3888887167,2.98345703698e-08,0.0
1655367530595833900,944,1655367530593771934,/map,0.134154036641,0.0,1.38888883591,2.94830417857e-08,0.0
1655367530688587007,945,1655367530687405109,/map,0.0722150504589,0.0,1.38888883591,2.91196080582e-08,0.0
1655367530779169201,946,1655367530778314113,/map,0.11357357353,0.0,1.38888883591,2.87452266434e-08,0.0
1655367530877220055,947,1655367530876396894,/map,0.117759056389,0.0,1.38888883591,2.83608176943e-08,0.0
1655367530972984436,948,1655367530972090005,/map,0.0746167600155,0.0,1.38888883591,2.79672693893e-08,0.0
1655367531081157700,949,1655367531079957962,/map,0.0388922803104,0.0,1.38888883591,2.75654308268e-08,0.0
1655367531174448043,950,1655367531173168897,/map,0.0790263190866,0.0,1.38888883591,2.71561191312e-08,0.0
1655367531279252883,951,1655367531278434038,/map,0.0362584888935,0.0,1.38888883591,2.67401158993e-08,0.0
1655367531401672260,952,1655367531397130966,/map,0.0280827619135,0.0,1.38888883591,2.63181743065e-08,0.0
1655367531486985132,953,1655367531485835075,/map,0.0332620851696,0.0,1.38888883591,2.58910102247e-08,0.0
1655367531580281781,954,1655367531579493999,/map,0.113423980772,0.0,1.38888883591,2.54593146565e-08,0.0
1655367531674316058,955,1655367531673451900,/map,0.0560812801123,0.0,1.38888883591,2.50237430777e-08,0.0
1655367531781338082,956,1655367531777797937,/map,0.116643980145,0.0,1.38888883591,2.45849278713e-08,0.0
1655367531879745386,957,1655367531878822088,/map,0.0880956053734,0.0,1.38888883591,2.41434676695e-08,0.0
1655367532008586057,958,1655367532006835937,/map,0.0714384615421,0.0,1.38888883591,2.36999362357e-08,0.0
1655367532103983779,959,1655367532096551895,/map,0.0679431706667,0.0,1.38888883591,2.32548824641e-08,0.0
1655367532188000174,960,1655367532187139034,/map,0.0859042778611,0.0,1.38888883591,2.28088268273e-08,0.0
1655367532275501286,961,1655367532274236917,/map,0.0833097696304,0.0,1.38888883591,2.23622649287e-08,0.0
1655367532384055529,962,1655367532383085966,/map,0.0241160653532,0.0,1.38888883591,2.1915667503e-08,0.0
1655367532504168610,963,1655367532502931118,/map,0.109339386225,0.0,1.38888883591,2.14694857448e-08,0.0
1655367532591456623,964,1655367532590538978,/map,-0.049988374114,0.0,1.38888883591,2.1024142427e-08,0.0
1655367532679989741,965,1655367532679076910,/map,0.0816656798124,0.0,1.38888883591,2.05800443354e-08,0.0
1655367532785218851,966,1655367532784133911,/map,0.108029223979,0.0,1.38888883591,2.01375680575e-08,0.0
1655367532920012332,967,1655367532916487932,/map,0.0308204069734,0.0,1.38888883591,1.9697079523e-08,0.0
1655367533008375936,968,1655367533002229928,/map,0.0824788734317,0.0,1.38888883591,1.92589197923e-08,0.0
1655367533102886409,969,1655367533101843118,/map,0.0824788734317,0.0,1.38888883591,1.88234068332e-08,0.0
1655367533189167261,970,1655367533187829971,/map,-0.047208160162,0.0,1.38888883591,1.83908479556e-08,0.0
1655367533275914453,971,1655367533275096893,/map,0.0338528268039,0.0,1.38888883591,1.79615238238e-08,0.0
1655367533384064159,972,1655367533383158922,/map,-0.0181666072458,0.0,1.38888883591,1.75357062204e-08,0.0
1655367533476218916,973,1655367533474530935,/map,-0.0557518452406,0.0,1.38888883591,1.71136438354e-08,0.0
1655367533574073704,974,1655367533573407888,/map,-0.0206160619855,0.0,1.38888883591,1.66955711478e-08,0.0
1655367533683278945,975,1655367533682440996,/map,-0.031456720084,0.0,1.38888883591,1.62817048732e-08,0.0
1655367533787494295,976,1655367533786310911,/map,-0.117653205991,0.0,1.38888883591,1.5872251069e-08,0.0
1655367533899536879,977,1655367533897279024,/map,-0.0665245130658,0.0,1.38888883591,1.5467398029e-08,0.0
1655367533997355945,978,1655367533996277093,/map,-0.0879910737276,0.0,1.38888883591,1.50673198362e-08,0.0
1655367534102747311,979,1655367534101578950,/map,-0.000622204039246,0.0,1.38888883591,1.46721781391e-08,0.0
1655367534191607078,980,1655367534190488100,/map,-0.0205334033817,0.0,1.38888883591,1.42821221516e-08,0.0
1655367534311282564,981,1655367534309778928,/map,-0.0205334033817,0.0,1.38888883591,1.38972859887e-08,0.0
1655367534411203487,982,1655367534410410881,/map,0.0142313148826,0.0,1.38888883591,1.35177948835e-08,0.0
1655367534493862580,983,1655367534493122100,/map,0.0349297970533,0.0,1.38888883591,1.31437598583e-08,0.0
1655367534582090653,984,1655367534579113960,/map,0.0473803952336,0.0,1.38888883591,1.27752839418e-08,0.0
1655367534678265470,985,1655367534677165985,/map,0.128088459373,0.0,1.38888883591,1.2412455952e-08,0.0
1655367534789967201,986,1655367534788733959,/map,0.11857098341,0.0,1.38888883591,1.20553567129e-08,0.0
1655367534879371670,987,1655367534878467082,/map,0.0982332155108,0.0,1.38888883591,1.17040572789e-08,0.0
1655367534976853381,988,1655367534975948095,/map,0.133328929543,0.0,1.38888883591,1.13586180461e-08,0.0
1655367535077180105,989,1655367535076441049,/map,0.105264514685,0.0,1.38888883591,1.10190931935e-08,0.0
1655367535176219633,990,1655367535175354957,/map,0.15849712491,0.0,1.38888883591,1.06855253534e-08,0.0
1655367535277382911,991,1655367535276498079,/map,0.148521706462,0.0,1.38888883591,1.03579500532e-08,0.0
1655367535379844416,992,1655367535378631114,/map,0.147266924381,0.0,1.38888883591,1.00363957145e-08,0.0
1655367535489515696,993,1655367535487003087,/map,0.123138383031,0.0,1.38888883591,9.72088276541e-09,0.0
1655367535581643930,994,1655367535580809116,/map,0.101925730705,0.0,1.38888883591,9.41142452859e-09,0.0
1655367535684482305,995,1655367535682775020,/map,0.0445141680539,0.0,1.38888883591,9.10802722132e-09,0.0
1655367535779446104,996,1655367535778609991,/map,0.0923901423812,0.0,1.38888883591,8.81069261993e-09,0.0
1655367535877133813,997,1655367535876286029,/map,-0.0464023239911,0.0,1.38888883591,8.51941361901e-09,0.0
1655367535972520766,998,1655367535971710920,/map,0.0303635932505,0.0,1.38888883591,8.23417867224e-09,0.0
1655367536114730443,999,1655367536109395027,/map,0.0673143565655,0.0,1.38888883591,7.9549717924e-09,0.0
1655367536196946948,1000,1655367536195650100,/map,-0.00268950080499,0.0,1.38888883591,7.68177077504e-09,0.0
1655367536284627373,1001,1655367536283715009,/map,-0.0295025426894,0.0,1.38888883591,7.41454719844e-09,0.0
1655367536383941144,1002,1655367536383157968,/map,-0.155706271529,0.0,1.38888883591,7.15327086453e-09,0.0
1655367536483487482,1003,1655367536482573032,/map,-0.0271800179034,0.0,1.38888883591,6.89790446984e-09,0.0
1655367536572046768,1004,1655367536571322917,/map,0.0429871827364,0.0,1.38888883591,6.6484089345e-09,0.0
1655367536680606047,1005,1655367536679811954,/map,-0.0347568243742,0.0,1.38888883591,6.40473984959e-09,0.0
1655367536782147559,1006,1655367536781260013,/map,-0.14433978498,0.0,1.38888883591,6.16684925347e-09,0.0
1655367536913803643,1007,1655367536912228107,/map,-0.0506949983537,0.0,1.38888883591,5.93468651999e-09,0.0
1655367537001872277,1008,1655367537001002073,/map,-0.082073122263,0.0,1.38888883591,5.70819702617e-09,0.0
1655367537105706478,1009,1655367537102555990,/map,-0.0884668678045,0.0,1.38888883591,5.48732392858e-09,0.0
1655367537191315060,1010,1655367537190167903,/map,0.100746572018,0.0,1.38888883591,5.27200727518e-09,0.0
1655367537278057816,1011,1655367537277045011,/map,-0.0340626500547,0.0,1.38888883591,5.0621844494e-09,0.0
1655367537381573764,1012,1655367537380811929,/map,0.110586971045,0.0,1.38888883591,4.85779017012e-09,0.0
1655367537484842908,1013,1655367537483758926,/map,0.199029445648,0.0,1.38888883591,4.65875826805e-09,0.0
1655367537576630162,1014,1655367537575444936,/map,0.123033180833,0.0,1.38888883591,4.46501902118e-09,0.0
1655367537690471737,1015,1655367537689603090,/map,0.219591289759,0.0,1.38888883591,4.27650181933e-09,0.0
1655367537779359514,1016,1655367537778469085,/map,0.153214722872,0.0,1.38888883591,4.09313383187e-09,0.0
1655367537880265289,1017,1655367537879395961,/map,0.099883235991,0.0,1.38888883591,3.9148408959e-09,0.0
1655367538003223563,1018,1655367538002278089,/map,0.144906848669,0.0,1.38888883591,3.74154796035e-09,0.0
1655367538086881747,1019,1655367538086107969,/map,0.15891431272,0.0,1.38888883591,3.57317841981e-09,0.0
1655367538178213006,1020,1655367538177367925,/map,0.129835784435,0.0,1.38888883591,3.40965389256e-09,0.0
1655367538274100858,1021,1655367538273191928,/map,0.13228328526,0.0,1.38888883591,3.25089599684e-09,0.0
1655367538375238399,1022,1655367538374258041,/map,0.114458218217,0.0,1.38888883591,3.09682501864e-09,0.0
1655367538486239862,1023,1655367538485276937,/map,0.0857219621539,0.0,1.38888883591,2.94736079987e-09,0.0
1655367538582898233,1024,1655367538581988096,/map,0.120702035725,0.0,1.38888883591,2.80242251627e-09,0.0
1655367538680551453,1025,1655367538679744958,/map,0.143363043666,0.0,1.38888883591,2.66192867748e-09,0.0
1655367538775512323,1026,1655367538774754047,/map,0.100122630596,0.0,1.38888883591,2.5257975711e-09,0.0
1655367538875770386,1027,1655367538874875068,/map,0.076392993331,0.0,1.38888883591,2.39394726265e-09,0.0
1655367538986494782,1028,1655367538985294103,/map,0.186260923743,0.0,1.38888883591,2.26629559563e-09,0.0
1655367539094098085,1029,1655367539091492891,/map,0.356239169836,0.0,1.38888883591,2.1427601915e-09,0.0
1655367539181549649,1030,1655367539180485010,/map,0.364547163248,0.0,1.38888883591,2.02325867171e-09,0.0
1655367539274866981,1031,1655367539274020910,/map,-2.89823961258,0.0,1.38888883591,0.0,0.0
1655367539365762004,1032,1655367539364681005,/map,-2.89823961258,0.0,1.38888883591,0.0,0.0
1655367539468056116,1033,1655367539467236042,/map,-2.89823961258,0.0,1.38888883591,0.0,0.0
1655367539566752905,1034,1655367539565892934,/map,-2.89823961258,0.0,1.38888883591,0.0,0.0
1655367539663643138,1035,1655367539662807941,/map,-2.80664372444,0.0,1.38888883591,0.0,0.0
1655367539765851015,1036,1655367539764957904,/map,-2.80664372444,0.0,1.38888883591,0.0,0.0
1655367539863969253,1037,1655367539862365961,/map,-2.80664372444,0.0,1.38888883591,0.0,0.0
1655367539966628760,1038,1655367539965831041,/map,-2.80664372444,0.0,1.38888883591,0.0,0.0
1655367540065070258,1039,1655367540064271926,/map,-2.80664372444,0.0,1.38888883591,0.0,0.0
1655367540159925274,1040,1655367540159128904,/map,-2.80664372444,0.0,1.38888883591,0.0,0.0
1655367540264164017,1041,1655367540262836933,/map,-2.80664372444,0.0,1.38888883591,0.0,0.0
1655367540368451122,1042,1655367540366961002,/map,-2.80664372444,0.0,1.38888883591,0.0,0.0
1655367540463034350,1043,1655367540462299108,/map,-2.80664372444,0.0,1.38888883591,0.0,0.0
1655367540559277393,1044,1655367540558506011,/map,-2.80664372444,0.0,1.38888883591,0.0,0.0
1655367540673023746,1045,1655367540672110080,/map,-2.80664372444,0.0,1.38888883591,0.0,0.0
1655367540764288311,1046,1655367540763427972,/map,-2.80664372444,0.0,1.38888883591,0.0,0.0
1655367540867150837,1047,1655367540866281032,/map,-2.80664372444,0.0,1.38888883591,0.0,0.0
1655367540964859268,1048,1655367540963782072,/map,-2.80664372444,0.0,1.38888883591,0.0,0.0
1655367541066724251,1049,1655367541065841913,/map,-2.80664372444,0.0,1.38888883591,0.0,0.0
1655367541164743060,1050,1655367541163866996,/map,-2.80664372444,0.0,1.38888883591,0.0,0.0
1655367541269537665,1051,1655367541268402099,/map,-2.80664372444,0.0,1.38888883591,0.0,0.0
1655367541386756468,1052,1655367541385622024,/map,-2.80664372444,0.0,1.38888883591,0.0,0.0
1655367541463876089,1053,1655367541462927103,/map,-2.80664372444,0.0,1.38888883591,0.0,0.0
1655367541568415632,1054,1655367541567725896,/map,-2.80664372444,0.0,1.38888883591,0.0,0.0
1655367541663654503,1055,1655367541662837028,/map,-2.80664372444,0.0,1.38888883591,0.0,0.0
1655367541765499153,1056,1655367541764523983,/map,-2.80664372444,0.0,1.38888883591,0.0,0.0
1655367541867798993,1057,1655367541867018938,/map,-2.80664372444,0.0,1.38888883591,0.0,0.0
1655367541968151200,1058,1655367541966995954,/map,-2.80664372444,0.0,1.38888883591,0.0,0.0
1655367542066706317,1059,1655367542065628051,/map,-2.80664372444,0.0,1.38888883591,0.0,0.0
1655367542162582134,1060,1655367542160514116,/map,-2.80664372444,0.0,1.38888883591,0.0,0.0
1655367542265983280,1061,1655367542264817953,/map,-2.80664372444,0.0,1.38888883591,0.0,0.0
1655367542365053426,1062,1655367542364315986,/map,-2.80664372444,0.0,1.38888883591,0.0,0.0
1655367542499443503,1063,1655367542498303890,/map,-2.80664372444,0.0,1.38888883591,0.0,0.0
1655367542597564504,1064,1655367542593452930,/map,-2.80664372444,0.0,1.38888883591,0.0,0.0
1655367542675057591,1065,1655367542674154996,/map,-2.80664372444,0.0,1.38888883591,0.0,0.0
1655367542768572772,1066,1655367542767311096,/map,-2.80664372444,0.0,1.38888883591,0.0,0.0
1655367542863269900,1067,1655367542862476110,/map,-2.80664372444,0.0,1.38888883591,0.0,0.0
1655367542972237650,1068,1655367542971086978,/map,-2.80664372444,0.0,1.38888883591,0.0,0.0
1655367543072380885,1069,1655367543071485996,/map,-2.80664372444,0.0,1.38888883591,0.0,0.0
1655367543167817203,1070,1655367543166861057,/map,-2.80664372444,0.0,1.38888883591,0.0,0.0
1655367543266048926,1071,1655367543265266895,/map,-2.80664372444,0.0,1.38888883591,0.0,0.0
1655367543369355558,1072,1655367543368582963,/map,-2.80664372444,0.0,1.38888883591,0.0,0.0
1655367543466476425,1073,1655367543464925050,/map,-2.80664372444,0.0,1.38888883591,0.0,0.0
1655367543565792897,1074,1655367543564559936,/map,-2.80664372444,0.0,1.38888883591,0.0,0.0
1655367543687674286,1075,1655367543686126947,/map,-2.80664372444,0.0,1.38888883591,0.0,0.0
1655367543799800269,1076,1655367543799160957,/map,-2.80664372444,0.0,1.38888883591,0.0,0.0
1655367543896291402,1077,1655367543895311117,/map,-2.80664372444,0.0,1.38888883591,0.0,0.0
1655367543968968882,1078,1655367543967880964,/map,-2.80664372444,0.0,1.38888883591,0.0,0.0
1655367544096629584,1079,1655367544095760107,/map,-2.80664372444,0.0,1.38888883591,0.0,0.0
1655367544192689844,1080,1655367544189526081,/map,-2.80664372444,0.0,1.38888883591,0.0,0.0
1655367544271279805,1081,1655367544270179033,/map,-2.80664372444,0.0,1.38888883591,0.0,0.0
1655367544366985826,1082,1655367544366213083,/map,-2.80664372444,0.0,1.38888883591,0.0,0.0
1655367544475286041,1083,1655367544474046945,/map,-2.80664372444,0.0,1.38888883591,0.0,0.0
1655367544569666027,1084,1655367544568718910,/map,-2.80664372444,0.0,1.38888883591,0.0,0.0
1655367544688413549,1085,1655367544687043905,/map,-2.80664372444,0.0,1.38888883591,0.0,0.0
1655367544771481800,1086,1655367544770411014,/map,-2.80664372444,0.0,1.38888883591,0.0,0.0
1655367544869276427,1087,1655367544868136882,/map,-2.80664372444,0.0,1.38888883591,0.0,0.0
1655367544966114337,1088,1655367544965110063,/map,-2.80664372444,0.0,1.38888883591,0.0,0.0
1655367545073335848,1089,1655367545072381973,/map,-2.80664372444,0.0,1.38888883591,0.0,0.0
