%time,field.header.seq,field.header.stamp,field.header.frame_id,field.drive.steering_angle,field.drive.steering_angle_velocity,field.drive.speed,field.drive.acceleration,field.drive.jerk
1655121958977023379,1,1655121958976459980,/map,-0.104407198727,0.0,1.10989940166,0.168395608664,0.0
1655121959065384060,2,1655121959064889907,/map,-0.102705419064,0.0,1.12617599964,0.162765711546,0.0
1655121959167317333,3,1655121959166980981,/map,-0.101107135415,0.0,1.14190137386,0.157254561782,0.0
1655121959262364920,4,1655121959262003898,/map,-0.0996052399278,0.0,1.15708756447,0.151861712337,0.0
1655121959425437979,5,1655121959425029993,/map,-0.0981932505965,0.0,1.17174625397,0.146586641669,0.0
1655121959503170509,6,1655121959502671003,/map,-0.0968652591109,0.0,1.18588912487,0.141428738832,0.0
1655121959569692405,7,1655121959569309949,/map,-0.0956158563495,0.0,1.19952785969,0.13638728857,0.0
1655121959664579988,8,1655121959664144039,/map,-0.0944401025772,0.0,1.21267402172,0.131461545825,0.0
1655121959762581011,9,1655121959762204885,/map,-0.0933334305882,0.0,1.22533905506,0.126650616527,0.0
1655121959863955074,10,1655121959863553047,/map,-0.0922916606069,0.0,1.2375344038,0.121953576803,0.0
1655121959964608326,11,1655121959964116096,/map,-0.0913109257817,0.0,1.24927139282,0.117369443178,0.0
1655121960066351270,12,1655121960065563917,/map,-0.0903876647353,0.0,1.26056110859,0.112897150218,0.0
1655121960168093726,13,1655121960167419910,/map,-0.0895185619593,0.0,1.27141463757,0.108535565436,0.0
1655121960259452299,14,1655121960258932113,/map,-0.0887005627155,0.0,1.28184294701,0.10428353399,0.0
1655121960358516813,15,1655121960358063936,/map,-0.0879308208823,0.0,1.29185700417,0.100139811635,0.0
1655121960467545621,16,1655121960467093944,/map,-0.0872066840529,0.0,1.30146729946,0.0961031466722,0.0
1655121960563262546,17,1655121960562841892,/map,-0.0353908203542,0.0,1.31068444252,0.0921722054482,0.0
1655121960664717465,18,1655121960664340972,/map,-0.0351183786988,0.0,1.31951904297,0.0883456394076,0.0
1655121960763771250,19,1655121960763294935,/map,-0.0852840691805,0.0,1.3279812336,0.0846220552921,0.0
1655121960869181108,20,1655121960868551015,/map,-0.0847192779183,0.0,1.3360812664,0.0810000225902,0.0
1655121961043070467,21,1655121961042164087,/map,-0.0841892808676,0.0,1.34382903576,0.0774781033397,0.0
1655121961112181518,22,1655121961110982894,/map,-0.08369230479,0.0,1.35123455524,0.0740547925234,0.0
1655121961179252398,23,1655121961178854942,/map,-0.0832266956568,0.0,1.3583073616,0.0707286000252,0.0
1655121961263643721,24,1655121961263088941,/map,-0.0827908739448,0.0,1.36505723,0.0674979835749,0.0
1655121961362837300,25,1655121961362365007,/map,-0.0823833793402,0.0,1.37149333954,0.0643614009023,0.0
1655121961462905791,26,1655121961462480068,/map,-0.0265739876777,0.0,1.37762510777,0.0613172836602,0.0
1655121961569807194,27,1655121961569339036,/map,-0.0264568403363,0.0,1.38346147537,0.0583640597761,0.0
1655121961664397487,28,1655121961663891077,/map,-0.0263476110995,0.0,1.38901150227,0.0555001311004,0.0
1655121961761964471,29,1655121961761349916,/map,-0.0262459237128,0.0,1.39428389072,0.0527238957584,0.0
1655121961863698014,30,1655121961863069057,/map,-0.0261514168233,0.0,1.39928722382,0.0500337518752,0.0
1655121961966775561,31,1655121961966305017,/map,-0.026063753292,0.0,1.40403008461,0.0474280826747,0.0
1655121962069861014,32,1655121962069284915,/map,-0.025982607156,0.0,1.40852057934,0.0449052639306,0.0
1655121962167395692,33,1655121962166870117,/map,-0.0259076729417,0.0,1.41276693344,0.0424636863172,0.0
1655121962262696432,34,1655121962262159109,/map,-0.0258386619389,0.0,1.41677713394,0.0401017181575,0.0
1655121962366767722,35,1655121962366239070,/map,-0.0257752966136,0.0,1.42055892944,0.0378177501261,0.0
1655121962460646501,36,1655121962460050106,/map,-0.0257173124701,0.0,1.42411994934,0.0356101617217,0.0
1655121962562414250,37,1655121962561634063,/map,-0.0256644580513,0.0,1.42746770382,0.0334773436189,0.0
1655121962661919361,38,1655121962661318063,/map,-0.0256164949387,0.0,1.43060946465,0.0314176902175,0.0
1655121962764334844,39,1655121962763860940,/map,-0.0255731958896,0.0,1.43355238438,0.0294295996428,0.0
1655121962861321613,40,1655121962860789060,/map,-0.0255343411118,0.0,1.43630349636,0.027511484921,0.0
1655121962964933824,41,1655121962964415073,/map,-0.0254997238517,0.0,1.43886971474,0.0256617628038,0.0
1655121963067361165,42,1655121963066754102,/map,-0.0254691448063,0.0,1.44125759602,0.0238788668066,0.0
1655121963164349727,43,1655121963164004087,/map,-0.0254424139857,0.0,1.44347369671,0.0221612360328,0.0
1655121963262608290,44,1655121963262202978,/map,-0.0254193488508,0.0,1.44552445412,0.0205073263496,0.0
1655121963360977776,45,1655121963360533952,/map,-0.025399774313,0.0,1.44741606712,0.0189156048,0.0
1655121963462506383,46,1655121963462112903,/map,-0.025383522734,0.0,1.44915449619,0.0173845533282,0.0
1655121963559461348,47,1655121963558978080,/map,-0.0253704339266,0.0,1.45074570179,0.0159126687795,0.0
1655121963662427583,48,1655121963662038087,/map,-0.0253603570163,0.0,1.45219564438,0.0144984666258,0.0
1655121963763930390,49,1655121963763494968,/map,-0.025353141129,0.0,1.45350968838,0.0131404763088,0.0
1655121963864597982,50,1655121963864059925,/map,-0.0253486447036,0.0,1.45469331741,0.0118372449651,0.0
1655121963963338003,51,1655121963962886095,/map,-0.0253467354923,0.0,1.45575213432,0.0105873383582,0.0
1655121964062564602,52,1655121964062103033,/map,-0.0253472793847,0.0,1.45669102669,0.00938933901489,0.0
1655121964182089476,53,1655121964181638956,/map,-0.0253501497209,0.0,1.45751523972,0.00824185088277,0.0
1655121964260219270,54,1655121964259619951,/map,-0.0253552291542,0.0,1.45822954178,0.00714349467307,0.0
1655121964363267897,55,1655121964362844944,/map,-0.0253624003381,0.0,1.45883882046,0.00609291298315,0.0
1655121964464639080,56,1655121964464181900,/map,-0.0253715515137,0.0,1.45934772491,0.00508876796812,0.0
1655121964563693785,57,1655121964563121080,/map,-0.0253825765103,0.0,1.45976066589,0.00412974087521,0.0
1655121964661775116,58,1655121964661293983,/map,-0.0253953691572,0.0,1.46008217335,0.00321453553624,0.0
1655121964762454530,59,1655121964762027978,/map,-0.0254098325968,0.0,1.46031630039,0.00234187603928,0.0
1655121964865708747,60,1655121964865242958,/map,-0.0254258699715,0.0,1.46046745777,0.00151050765999,0.0
1655121964966118530,61,1655121964965538024,/map,-0.0254433900118,0.0,1.46053934097,0.00071919709444,0.0
1655121965065636313,62,1655121965065119981,/map,-0.0254623033106,0.0,1.46053600311,-3.32671370415e-05,0.0
1655121965170822268,63,1655121965170119047,/map,-0.0258577167988,0.0,1.46046113968,-0.000748074846342,0.0
1655121965265220302,64,1655121965264821052,/map,-0.0258792713284,0.0,1.46031856537,-0.00142639409751,0.0
1655121965364095215,65,1655121965363351106,/map,-0.025901986286,0.0,1.46011161804,-0.00206937105395,0.0
1655121965466272634,66,1655121965465828895,/map,-0.0259257815778,0.0,1.45984375477,-0.00267812982202,0.0
1655121965567555441,67,1655121965567043066,/map,-0.0259505864233,0.0,1.45951843262,-0.00325377238914,0.0
1655121965664209123,68,1655121965663700103,/map,-0.0259763281792,0.0,1.45913863182,-0.00379737908952,0.0
1655121965767308470,69,1655121965766660928,/map,-0.0260029379278,0.0,1.45870769024,-0.00431000813842,0.0
1655121965867463867,70,1655121965867001056,/map,-0.0260303523391,0.0,1.45822846889,-0.00479269586504,0.0
1655121965967459244,71,1655121965967036962,/map,-0.0260585024953,0.0,1.45770382881,-0.00524645624682,0.0
1655121966065818574,72,1655121966065166950,/map,-0.0331130363047,0.0,1.4571365118,-0.00567228207365,0.0
1655121966167210495,73,1655121966166670083,/map,-0.0331417247653,0.0,1.45652937889,-0.00607114471495,0.0
1655121966263202977,74,1655121966262813091,/map,-0.0297917667776,0.0,1.45588505268,-0.00644399272278,0.0
1655121966363085085,75,1655121966362412929,/map,-0.0195901989937,0.0,1.45520579815,-0.00679175462574,0.0
1655121966464970721,76,1655121966464515924,/map,-0.0196217782795,0.0,1.45449435711,-0.00711533660069,0.0
1655121966561989446,77,1655121966561239004,/map,-0.0025301084388,0.0,1.45375275612,-0.00741562386975,0.0
1655121966736868009,78,1655121966736268043,/map,-0.0139410924166,0.0,1.45298337936,-0.00769348116592,0.0
1655121966816553640,79,1655121966814730882,/map,-0.0175456311554,0.0,1.45218849182,-0.00794975273311,0.0
1655121966885373551,80,1655121966884738922,/map,-0.0175769608468,0.0,1.45136988163,-0.00818525999784,0.0
1655121966961077348,81,1655121966960640907,/map,-0.00251757772639,0.0,1.45052981377,-0.00840080715716,0.0
1655121967069007930,82,1655121967068468093,/map,-0.01205773931,0.0,1.44967007637,-0.00859717652202,0.0
1655121967165452438,83,1655121967164961099,/map,-0.0128405084834,0.0,1.44879257679,-0.00877512991428,0.0
1655121967260812730,84,1655121967260392904,/map,-0.021832216531,0.0,1.44789910316,-0.00893541052938,0.0
1655121967362803810,85,1655121967362406969,/map,-0.0107588199899,0.0,1.44699120522,-0.00907874200493,0.0
1655121967462696680,86,1655121967462275028,/map,-0.0161931850016,0.0,1.44607055187,-0.0092058274895,0.0
1655121967563912006,87,1655121967563457012,/map,-0.0298290308565,0.0,1.44513881207,-0.00931735336781,0.0
1655121967666724341,88,1655121967666223049,/map,-0.0376793779433,0.0,1.44419741631,-0.0094139855355,0.0
1655121967764635247,89,1655121967764064073,/map,-0.0366431884468,0.0,1.4432477951,-0.00949637126178,0.0
1655121967870761374,90,1655121967870261907,/map,-0.0177515614778,0.0,1.44229125977,-0.00956514291465,0.0
1655121967964258306,91,1655121967963754892,/map,-0.0314103476703,0.0,1.4413292408,-0.0096209095791,0.0
1655121968063115111,92,1655121968062688112,/map,-0.00743051571772,0.0,1.44036281109,-0.00966426730156,0.0
1655121968164984635,93,1655121968164381980,/map,-0.0348905399442,0.0,1.43939316273,-0.00969579350203,0.0
1655121968260643538,94,1655121968260189056,/map,-0.0398984514177,0.0,1.43842160702,-0.00971604697406,0.0
1655121968363188944,95,1655121968362728118,/map,-0.0367120318115,0.0,1.43744909763,-0.00972557161003,0.0
1655121968461824340,96,1655121968461335897,/map,-0.0179273746908,0.0,1.43647658825,-0.00972489453852,0.0
1655121968563262009,97,1655121968562736988,/map,-0.0415891744196,0.0,1.43550515175,-0.00971452705562,0.0
1655121968663863366,98,1655121968663428068,/map,-0.0434436909854,0.0,1.4345356226,-0.0096949627623,0.0
1655121968761194782,99,1655121968760736942,/map,0.00603489903733,0.0,1.43356895447,-0.00966668128967,0.0
1655121968869739539,100,1655121968869081974,/map,-0.0277975127101,0.0,1.43260598183,-0.00963014829904,0.0
1655121968962788953,101,1655121968962181091,/map,-0.0427942611277,0.0,1.43164730072,-0.00958581082523,0.0
1655121969065953070,102,1655121969065392017,/map,-0.0232521109283,0.0,1.43069398403,-0.00953410565853,0.0
1655121969161111385,103,1655121969160703897,/map,-0.0271682888269,0.0,1.42974638939,-0.00947545096278,0.0
1655121969265935673,104,1655121969265424013,/map,-0.00190789927728,0.0,1.42880535126,-0.00941025279462,0.0
1655121969373281288,105,1655121969372838973,/map,-0.0250359419733,0.0,1.42787146568,-0.0093389051035,0.0
1655121969459893751,106,1655121969459284067,/map,0.00586598971859,0.0,1.42694532871,-0.00926178600639,0.0
1655121969560525971,107,1655121969560153007,/map,-0.0217446088791,0.0,1.42602741718,-0.00917926058173,0.0
1655121969666413814,108,1655121969665879011,/map,-0.0222247932106,0.0,1.42511820793,-0.00909168273211,0.0
1655121969846975011,109,1655121969846082925,/map,-0.00776739232242,0.0,1.424218297,-0.00899939145893,0.0
1655121969916839736,110,1655121969913614034,/map,-0.00877652410418,0.0,1.42332804203,-0.00890271551907,0.0
1655121969985706359,111,1655121969985150098,/map,-0.00881554093212,0.0,1.42244780064,-0.00880197156221,0.0
1655121970064049663,112,1655121970063410997,/map,-0.0106015047058,0.0,1.42157804966,-0.00869746133685,0.0
1655121970167194354,113,1655121970166599988,/map,-0.0157570280135,0.0,1.42071914673,-0.00858948007226,0.0
1655121970266687915,114,1655121970266235113,/map,-0.0192229934037,0.0,1.41987133026,-0.00847830809653,0.0
1655121970367777125,115,1655121970367311000,/map,0.0189108662307,0.0,1.41903483868,-0.00836421642452,0.0
1655121970463934469,116,1655121970463505983,/map,0.0081684095785,0.0,1.41821014881,-0.00824746582657,0.0
1655121970564529074,117,1655121970564024925,/map,-0.00762366969138,0.0,1.41739726067,-0.00812830403447,0.0
1655121970667777392,118,1655121970667329072,/map,-0.00829498749226,0.0,1.41659653187,-0.0080069731921,0.0
1655121970766735924,119,1655121970766256093,/map,-0.00230186246336,0.0,1.41580820084,-0.00788370147347,0.0
1655121970865872175,120,1655121970865422010,/map,0.437130361795,0.0,1.41580820084,0.0,0.0
1655121970965073509,121,1655121970964340925,/map,0.00665129814297,0.0,1.41503238678,-0.00775870960206,0.0
1655121971064238403,122,1655121971063663959,/map,0.0043991622515,0.0,1.4142690897,-0.00763220852241,0.0
1655121971168856888,123,1655121971168399095,/map,-0.00288670929149,0.0,1.41351866722,-0.00750440033153,0.0
1655121971261123100,124,1655121971260664939,/map,0.0280555188656,0.0,1.41278111935,-0.00737547827885,0.0
1655121971364657288,125,1655121971364212036,/map,0.0120269954205,0.0,1.41205656528,-0.00724562676623,0.0
1655121971459560746,126,1655121971459059953,/map,0.0225984677672,0.0,1.41134500504,-0.00711502227932,0.0
1655121971570264914,127,1655121971569660902,/map,0.0274864342064,0.0,1.41064667702,-0.00698383292183,0.0
1655121971666288159,128,1655121971665781021,/map,-0.0428321734071,0.0,1.40996146202,-0.00685221888125,0.0
1655121971762508583,129,1655121971762090921,/map,0.0453216023743,0.0,1.40928947926,-0.0067203338258,0.0
1655121971950067282,130,1655121971946542978,/map,0.0299821160734,0.0,1.40863060951,-0.00658832257614,0.0
1655121972014420447,131,1655121972013928890,/map,0.0139974653721,0.0,1.407984972,-0.00645632343367,0.0
1655121972083605754,132,1655121972083132028,/map,0.0138148339465,0.0,1.40735256672,-0.00632446771488,0.0
1655121972168446292,133,1655121972167643070,/map,0.138826161623,0.0,1.40673327446,-0.00619288068265,0.0
1655121972269455085,134,1655121972268933057,/map,0.123841248453,0.0,1.40612709522,-0.00606168014929,0.0
1655121972366132513,135,1655121972365459918,/map,0.15323074162,0.0,1.4055339098,-0.0059309778735,0.0
1655121972461136937,136,1655121972460603952,/map,0.154214307666,0.0,1.40495383739,-0.00580087956041,0.0
1655121972566218580,137,1655121972565677881,/map,0.212636306882,0.0,1.4043867588,-0.00567148532718,0.0
1655121972665336139,138,1655121972664871931,/map,0.235465437174,0.0,1.40383243561,-0.00554288970307,0.0
1655121972764751711,139,1655121972764302968,/map,0.286552488804,0.0,1.40329086781,-0.00541518023238,0.0
1655121972869889532,140,1655121972869297027,/map,0.295976191759,0.0,1.4027620554,-0.00528844166547,0.0
1655121972966125391,141,1655121972965598106,/map,0.259734779596,0.0,1.40224575996,-0.00516275130212,0.0
1655121973067854122,142,1655121973067289113,/map,0.345835000277,0.0,1.40174198151,-0.00503818318248,0.0
1655121973170117739,143,1655121973169588088,/map,0.441506654024,0.0,1.40125048161,-0.00491480482742,0.0
1655121973271163720,144,1655121973270431041,/map,0.442918241024,0.0,1.40077126026,-0.00479268049821,0.0
1655121973366940793,145,1655121973366355895,/map,0.425210297108,0.0,1.40077126026,0.0,0.0
1655121973464751341,146,1655121973464263916,/map,0.155533120036,0.0,1.40030407906,-0.00467186979949,0.0
1655121973568564721,147,1655121973567995071,/map,0.256326109171,0.0,1.39984881878,-0.00455242814496,0.0
1655121973661345320,148,1655121973660940885,/map,0.249197542667,0.0,1.39940536022,-0.00443440582603,0.0
1655121973770877372,149,1655121973770189046,/map,0.335111945868,0.0,1.39897358418,-0.00431785034016,0.0
1655121973864601877,150,1655121973864098072,/map,0.433651357889,0.0,1.39855325222,-0.00420280452818,0.0
1655121973966198100,151,1655121973965651035,/map,0.388393491507,0.0,1.39814436436,-0.00408930843696,0.0
1655121974066471711,152,1655121974065970897,/map,0.396471351385,0.0,1.39774668217,-0.00397739745677,0.0
1655121974169439817,153,1655121974168662071,/map,0.469336628914,0.0,1.39735996723,-0.00386710511521,0.0
1655121974269202356,154,1655121974268670082,/map,0.548528432846,0.0,1.39698410034,-0.00375846005045,0.0
1655121974369090276,155,1655121974368474960,/map,0.552979648113,0.0,1.39661896229,-0.00365148880519,0.0
1655121974468039807,156,1655121974467468023,/map,0.370508223772,0.0,1.39626431465,-0.00354621466249,0.0
1655121974562065707,157,1655121974561501979,/map,0.326615005732,0.0,1.39592003822,-0.00344265811145,0.0
1655121974674083966,158,1655121974673554897,/map,0.39734646678,0.0,1.39558589458,-0.00334083661437,0.0
1655121974772275718,159,1655121974771658897,/map,0.413949877024,0.0,1.39526188374,-0.00324076530524,0.0
1655121974870301285,160,1655121974869611978,/map,0.422635793686,0.0,1.39494764805,-0.0031424567569,0.0
1655121974966710868,161,1655121974966296911,/map,0.0502536930144,0.0,1.39464306831,-0.00304592144676,0.0
1655121975065864356,162,1655121975065275907,/map,0.0568042881787,0.0,1.39434790611,-0.00295116682537,0.0
1655121975168756708,163,1655121975168193101,/map,0.0591605752707,0.0,1.39406204224,-0.00285819871351,0.0
1655121975343307009,164,1655121975342617034,/map,0.228313580155,0.0,1.39378535748,-0.00276702083647,0.0
1655121975415002524,165,1655121975412539958,/map,-5.89190006256,0.0,1.39378535748,0.0,0.0
1655121975482452367,166,1655121975481918096,/map,-5.89190006256,0.0,1.39378535748,0.0,0.0
1655121975571551621,167,1655121975570867061,/map,0.327744871378,0.0,1.39351761341,-0.00267763482407,0.0
1655121975675485987,168,1655121975674860000,/map,0.356300711632,0.0,1.39325857162,-0.00259004044347,0.0
1655121975768385843,169,1655121975767797946,/map,0.389510840178,0.0,1.39300823212,-0.00250423583202,0.0
1655121975865206278,170,1655121975864749908,/map,0.490868091583,0.0,1.39276623726,-0.00242021726444,0.0
1655121975961125108,171,1655121975960760116,/map,0.657944917679,0.0,1.39253234863,-0.00233797938563,0.0
1655121976060196869,172,1655121976059787988,/map,0.585045456886,0.0,1.39230668545,-0.00225751521066,0.0
1655121976199060834,173,1655121976197215080,/map,0.585034310818,0.0,1.39208877087,-0.00217881682329,0.0
1655121976271482457,174,1655121976271147012,/map,0.726705849171,0.0,1.39187860489,-0.00210187467746,0.0
1655121976362523416,175,1655121976362049102,/map,0.618464410305,0.0,1.3916759491,-0.00202667759731,0.0
1655121976464246095,176,1655121976463949918,/map,0.648899316788,0.0,1.39148056507,-0.00195321394131,0.0
1655121976566650825,177,1655121976566152095,/map,-5.75863361359,0.0,1.39148056507,0.0,0.0
1655121976666325249,178,1655121976665885925,/map,-5.81205224991,0.0,1.39148056507,0.0,0.0
1655121976765281435,179,1655121976764892101,/map,-5.88102722168,0.0,1.39148056507,0.0,0.0
1655121976868114961,180,1655121976867583036,/map,-5.85676670074,0.0,1.39148056507,0.0,0.0
1655121976962039581,181,1655121976961507081,/map,0.0539171844721,0.0,1.39129245281,-0.00188146997243,0.0
1655121977066807333,182,1655121977066309928,/map,0.265945106745,0.0,1.39111125469,-0.00181143195368,0.0
1655121977168687513,183,1655121977168338060,/map,0.252876341343,0.0,1.39093697071,-0.00174308428541,0.0
1655121977264555338,184,1655121977264116048,/map,0.286665797234,0.0,1.39093697071,0.0,0.0
1655121977370624251,185,1655121977369895935,/map,0.337822556496,0.0,1.39076936245,-0.00167641090229,0.0
1655121977469320595,186,1655121977468846082,/map,0.420438706875,0.0,1.39060819149,-0.0016113948077,0.0
1655121977564309869,187,1655121977563857078,/map,0.403007477522,0.0,1.39045333862,-0.00154801807366,0.0
1655121977670692076,188,1655121977669727087,/map,0.563251078129,0.0,1.39030480385,-0.00148626219016,0.0
1655121977776648361,189,1655121977776010990,/map,0.339760184288,0.0,1.39016211033,-0.00142610794865,0.0
1655121977881769745,190,1655121977881087064,/map,0.306214720011,0.0,1.39002537727,-0.00136753520928,0.0
1655121977971006523,191,1655121977970576047,/map,0.15653385222,0.0,1.38989436626,-0.00131052359939,0.0
1655121978069338749,192,1655121978068829059,/map,0.234845727682,0.0,1.38976883888,-0.00125505193137,0.0
1655121978174789430,193,1655121978174107074,/map,0.202742859721,0.0,1.38964867592,-0.00120109890122,0.0
1655121978286751464,194,1655121978285979032,/map,-0.00267303711735,0.0,1.38953387737,-0.00114864250645,0.0
1655121978368471705,195,1655121978367858886,/map,0.0134414443746,0.0,1.38942408562,-0.00109766016249,0.0
1655121978472301200,196,1655121978471645116,/map,0.154148995876,0.0,1.38931930065,-0.00104812928475,0.0
1655121978572581024,197,1655121978572001934,/map,0.00744252465665,0.0,1.38921928406,-0.00100002682302,0.0
1655121978674175059,198,1655121978673507928,/map,0.159579604864,0.0,1.38912391663,-0.000953329494223,0.0
1655121978893612314,199,1655121978893121004,/map,0.220160350204,0.0,1.38903319836,-0.000908013724256,0.0
1655121978974452563,200,1655121978973834037,/map,0.30939373374,0.0,1.38894677162,-0.00086405564798,0.0
1655121979045874460,201,1655121979044476985,/map,0.0331419222057,0.0,1.38894677162,0.0,0.0
1655121979125800099,202,1655121979125049114,/map,0.504483401775,0.0,1.38886463642,-0.000821431458462,0.0
1655121979207061677,203,1655121979205244064,/map,0.559996068478,0.0,1.38878655434,-0.00078011705773,0.0
1655121979285788573,204,1655121979284795045,/map,0.559987783432,0.0,1.38871264458,-0.000740088289604,0.0
1655121979377784954,205,1655121979377234935,/map,0.638634741306,0.0,1.38864243031,-0.000701320823282,0.0
1655121979470638585,206,1655121979469897031,/map,0.544604539871,0.0,1.38857603073,-0.000663790444378,0.0
1655121979572103435,207,1655121979571316957,/map,0.982934951782,0.0,1.38851332664,-0.000627472763881,0.0
1655121979673477073,208,1655121979672656059,/map,0.689983308315,0.0,1.38845407963,-0.000592343509197,0.0
1655121979773823601,209,1655121979773056983,/map,0.820168614388,0.0,1.38839828968,-0.000558378349524,0.0
1655121979876030894,210,1655121979875296115,/map,0.856499552727,0.0,1.38834571838,-0.000525553070474,0.0
1655121979971994738,211,1655121979971278905,/map,0.593279242516,0.0,1.38829636574,-0.000493843515869,0.0
1655121980074505531,212,1655121980073805093,/map,0.691333353519,0.0,1.38824999332,-0.000463225616841,0.0
1655121980175512892,213,1655121980174786090,/map,0.614833474159,0.0,1.38820660114,-0.000433675362729,0.0
1655121980271199812,214,1655121980270541906,/map,0.200254574418,0.0,1.38816606998,-0.000405168975703,0.0
1655121980372251248,215,1655121980371603012,/map,0.195749357343,0.0,1.38812828064,-0.00037768270704,0.0
1655121980476113024,216,1655121980475532054,/map,0.276518732309,0.0,1.38809323311,-0.000351193069946,0.0
1655121980577578907,217,1655121980576948881,/map,0.776846945286,0.0,1.38806068897,-0.000325676752254,0.0
1655121980682458092,218,1655121980681819915,/map,0.0681608170271,0.0,1.38803052902,-0.000301110529108,0.0
1655121980774824406,219,1655121980773704051,/map,0.0768589675426,0.0,1.38800275326,-0.000277471554,0.0
1655121980962564118,220,1655121980961256980,/map,0.0452276580036,0.0,1.38797736168,-0.000254737009527,0.0
1655121981046838463,221,1655121981046129941,/map,0.103109791875,0.0,1.38795399666,-0.00023288448574,0.0
1655121981125640893,222,1655121981123948097,/map,0.156847402453,0.0,1.38793289661,-0.000211891689105,0.0
1655121981203798721,223,1655121981202971935,/map,0.106320165098,0.0,1.38791370392,-0.000191736646229,0.0
1655121981283802024,224,1655121981282803058,/map,0.10631814599,0.0,1.38789641857,-0.000172397631104,0.0
1655121981375995493,225,1655121981375240087,/map,0.215211227536,0.0,1.38788104057,-0.00015385315055,0.0
1655121981474673926,226,1655121981473839998,/map,0.178536087275,0.0,1.38786745071,-0.000136082046083,0.0
1655121981581339531,227,1655121981580574989,/map,0.121919952333,0.0,1.38785552979,-0.000119063421153,0.0
1655121981676046600,228,1655121981675285100,/map,0.216812819242,0.0,1.38784527779,-0.000102776655694,0.0
1655121981774072028,229,1655121981773139953,/map,0.189858093858,0.0,1.38783657551,-8.72014570632e-05,0.0
1655121981877177481,230,1655121981876385927,/map,0.202811226249,0.0,1.38782930374,-7.23178163753e-05,0.0
1655121981977064028,231,1655121981976274013,/map,0.109259791672,0.0,1.38782346249,-5.81060376135e-05,0.0
1655121982101050865,232,1655121982100239038,/map,0.126770958304,0.0,1.38781905174,-4.45467449026e-05,0.0
1655121982178060225,233,1655121982177303075,/map,0.167183831334,0.0,1.38781583309,-3.16208679578e-05,0.0
1655121982274223591,234,1655121982273258924,/map,0.0575083941221,0.0,1.38781392574,-1.93096620933e-05,0.0
1655121982373146189,235,1655121982372359991,/map,0.064245402813,0.0,1.38781321049,-7.59470958656e-06,0.0
1655121982472066490,236,1655121982471342086,/map,0.073360607028,0.0,1.38781356812,3.54209055331e-06,0.0
1655121982579222980,237,1655121982578049898,/map,0.0832173600793,0.0,1.38781499863,1.41185082612e-05,0.0
1655121982678883862,238,1655121982678194999,/map,0.106562905014,0.0,1.38781738281,2.41519865085e-05,0.0
1655121982777219773,239,1655121982776437044,/map,0.130575150251,0.0,1.38782072067,3.3659638575e-05,0.0
1655121982876535401,240,1655121982875977993,/map,0.106432273984,0.0,1.38782501221,4.2658251914e-05,0.0
1655121982982534716,241,1655121982981738090,/map,0.120018787682,0.0,1.38783013821,5.11642720085e-05,0.0
1655121983077277300,242,1655121983076399087,/map,0.144948899746,0.0,1.38783597946,5.91938296566e-05,0.0
1655121983183990074,243,1655121983183270931,/map,0.156063169241,0.0,1.38784265518,6.67627100484e-05,0.0
1655121983278761694,244,1655121983278001070,/map,0.0867732092738,0.0,1.38785004616,7.38863891456e-05,0.0
1655121983380774741,245,1655121983379905939,/map,0.0476366616786,0.0,1.38785815239,8.05800009402e-05,0.0
1655121983515645015,246,1655121983514781951,/map,0.0725011005998,0.0,1.38786685467,8.685834473e-05,0.0
1655121983597496333,247,1655121983596777915,/map,0.0735482275486,0.0,1.38787615299,9.27359142224e-05,0.0
1655121983679849401,248,1655121983679189920,/map,0.0912347435951,0.0,1.38788592815,9.8226875707e-05,0.0
1655121983773551218,249,1655121983772831916,/map,0.152630567551,0.0,1.38789629936,0.000103345053503,0.0
1655121983879674195,250,1655121983878843069,/map,0.187533095479,0.0,1.3879070282,0.000108103988168,0.0
1655121983973734564,251,1655121983972949981,/map,0.228763952851,0.0,1.38791835308,0.000112516863737,0.0
1655121984075087282,252,1655121984074398040,/map,0.230868041515,0.0,1.38793003559,0.000116596580483,0.0
1655121984183085877,253,1655121984182327985,/map,0.241211727262,0.0,1.38794207573,0.00012035571126,0.0
1655121984272868546,254,1655121984271696090,/map,0.137225881219,0.0,1.38795435429,0.00012380653061,0.0
1655121984377906370,255,1655121984377265930,/map,0.11969269067,0.0,1.38796710968,0.000126961007481,0.0
1655121984499360810,256,1655121984496475934,/map,0.097550407052,0.0,1.38798010349,0.000129830805236,0.0
1655121984579612118,257,1655121984578430891,/map,0.104357071221,0.0,1.38799333572,0.000132427274366,0.0
1655121984680761851,258,1655121984679925918,/map,0.0905756130815,0.0,1.38800680637,0.00013476148888,0.0
1655121984780337480,259,1655121984779658079,/map,0.112899757922,0.0,1.38802051544,0.000136844231747,0.0
1655121984880116422,260,1655121984879364967,/map,0.10123680532,0.0,1.38803434372,0.000138685994898,0.0
1655121984981432022,261,1655121984980621099,/map,0.150263607502,0.0,1.38804841042,0.000140296993777,0.0
1655121985078635854,262,1655121985077878952,/map,0.152138367295,0.0,1.38806259632,0.000141687138239,0.0
1655121985180322994,263,1655121985179541110,/map,0.139788836241,0.0,1.38807690144,0.000142866076203,0.0
1655121985279027748,264,1655121985278243064,/map,0.182499811053,0.0,1.38809120655,0.000143843222759,0.0
1655121985374144791,265,1655121985373320102,/map,0.146696105599,0.0,1.38810575008,0.000144627658301,0.0
1655121985476745566,266,1655121985475936889,/map,0.146935775876,0.0,1.38812017441,0.000145228244946,0.0
1655121985575567407,267,1655121985574923992,/map,0.119085580111,0.0,1.38813483715,0.000145653568325,0.0
1655121985677743736,268,1655121985676641941,/map,0.0722534656525,0.0,1.38814938068,0.000145911981235,0.0
1655121985778300927,269,1655121985775722026,/map,0.114671342075,0.0,1.38816392422,0.000146011559991,0.0
1655121985877674326,270,1655121985877005100,/map,0.101682201028,0.0,1.38817858696,0.000145960148075,0.0
1655121985973787559,271,1655121985972887992,/map,0.0516948327422,0.0,1.38819313049,0.000145765341586,0.0
1655121986073872920,272,1655121986073024988,/map,-0.0292453039438,0.0,1.38820767403,0.000145434503793,0.0
1655121986181750999,273,1655121986180560111,/map,0.0697576850653,0.0,1.38822221756,0.000144974794239,0.0
1655121986304482931,274,1655121986303543090,/map,-0.0563840903342,0.0,1.38823664188,0.000144393081428,0.0
1655121986387726221,275,1655121986386985063,/map,-0.0280652716756,0.0,1.388250947,0.00014369605924,0.0
1655121986476479396,276,1655121986475722074,/map,-0.00761772179976,0.0,1.38826525211,0.000142890203279,0.0
1655121986585329935,277,1655121986584507942,/map,-0.025842320174,0.0,1.38827943802,0.000141981741763,0.0
1655121986681804800,278,1655121986681078910,/map,-0.0858675912023,0.0,1.38829362392,0.000140976713737,0.0
1655121986774488042,279,1655121986773735046,/map,0.0494402647018,0.0,1.38830757141,0.000139880969073,0.0
1655121986882186508,280,1655121986881174087,/map,0.0494382046163,0.0,1.38832139969,0.00013870013936,0.0
1655121986977111559,281,1655121986976428031,/map,0.111922837794,0.0,1.38833522797,0.000137439637911,0.0
1655121987079430993,282,1655121987078849077,/map,0.0818860009313,0.0,1.38834881783,0.000136104732519,0.0
1655121987180801068,283,1655121987179872035,/map,0.0763566270471,0.0,1.38836228848,0.000134700458148,0.0
1655121987287689572,284,1655121987286710977,/map,-0.058015756309,0.0,1.38837563992,0.00013323170424,0.0
1655121987377557654,285,1655121987376874923,/map,-0.057806391269,0.0,1.38838875294,0.000131703156512,0.0
1655121987513825545,286,1655121987512912034,/map,0.0120172128081,0.0,1.38840174675,0.000130119326059,0.0
1655121987597678334,287,1655121987596937894,/map,-0.157580703497,0.0,1.38841462135,0.000128484563902,0.0
1655121987684835468,288,1655121987684000968,/map,-0.000253063597484,0.0,1.38842725754,0.000126803060994,0.0
1655121987775024352,289,1655121987774283885,/map,-0.199343755841,0.0,1.38843977451,0.000125078833662,0.0
1655121987878300113,290,1655121987877571105,/map,-0.408659011126,0.0,1.38845217228,0.000123315738165,0.0
1655121987975806871,291,1655121987975120067,/map,-0.169188246131,0.0,1.38846433163,0.000121517477965,0.0
1655121988082453888,292,1655121988081691980,/map,-0.245495706797,0.0,1.38847625256,0.00011968761828,0.0
1655121988177859397,293,1655121988177153110,/map,-0.284283101559,0.0,1.38848805428,0.00011782956426,0.0
1655121988279078987,294,1655121988278285980,/map,-0.211720436811,0.0,1.38849961758,0.000115946575534,0.0
1655121988412873625,295,1655121988409682989,/map,0.0303835980594,0.0,1.38851106167,0.000114041795314,0.0
1655121988493004472,296,1655121988492238044,/map,-0.269437015057,0.0,1.38852226734,0.00011211821402,0.0
1655121988581171288,297,1655121988580421924,/map,-0.0933079943061,0.0,1.3885332346,0.000110178691102,0.0
1655121988680026453,298,1655121988679234027,/map,0.182912841439,0.0,1.38854408264,0.000108225962322,0.0
1655121988789123763,299,1655121988787940025,/map,0.182913199067,0.0,1.38855469227,0.000106262647023,0.0
1655121988900466304,300,1655121988898704051,/map,0.182913556695,0.0,1.38856518269,0.000104291240859,0.0
1655121988987606559,301,1655121988986798048,/map,0.182913899422,0.0,1.38857543468,0.000102314108517,0.0
1655121989086500845,302,1655121989085761070,/map,0.182914242148,0.0,1.38858544827,0.000100333512819,0.0
1655121989186636302,303,1655121989185705900,/map,0.182914569974,0.0,1.38859522343,9.83516220003e-05,0.0
1655121989284740314,304,1655121989283775091,/map,0.182914897799,0.0,1.38860487938,9.63704733294e-05,0.0
1655121989402640262,305,1655121989401844978,/map,0.182915210724,0.0,1.38861429691,9.43920094869e-05,0.0
1655121989505356132,306,1655121989504637956,/map,0.182915508747,0.0,1.38862359524,9.241807129e-05,0.0
1655121989593440051,307,1655121989592710018,/map,0.182915821671,0.0,1.38863265514,9.04504195205e-05,0.0
1655121989676518331,308,1655121989675793886,/map,0.182916104794,0.0,1.38864147663,8.84906985448e-05,0.0
1655121989782826726,309,1655121989782037019,/map,0.182916402817,0.0,1.3886500597,8.65404726937e-05,0.0
1655121989891640794,310,1655121989890886068,/map,0.182916671038,0.0,1.38865852356,8.46012189868e-05,0.0
1655121989982071510,311,1655121989981313943,/map,0.18291695416,0.0,1.38866686821,8.26743198559e-05,0.0
1655121990081331365,312,1655121990080539941,/map,0.182917222381,0.0,1.38867497444,8.07610995253e-05,0.0
1655121990189952877,313,1655121990189232110,/map,0.1829174757,0.0,1.38868284225,7.88627730799e-05,0.0
1655121990277411676,314,1655121990276623010,/map,0.18291772902,0.0,1.38869047165,7.6980504673e-05,0.0
1655121990385411325,315,1655121990384468078,/map,0.182917967439,0.0,1.38869798183,7.51153638703e-05,0.0
1655121990487040699,316,1655121990486303091,/map,0.182918205857,0.0,1.38870537281,7.32683693059e-05,0.0
1655121990580690622,317,1655121990579858064,/map,0.182918444276,0.0,1.38871252537,7.14404595783e-05,0.0
1655121990674087984,318,1655121990673310041,/map,0.182918667793,0.0,1.38871943951,6.96325005265e-05,0.0
1655121990858436805,319,1655121990857429981,/map,0.182918891311,0.0,1.38872623444,6.78453070577e-05,0.0
1655121990944795011,320,1655121990944019079,/map,0.182919099927,0.0,1.38873279095,6.60796213197e-05,0.0
1655121991034959578,321,1655121991034212112,/map,0.182919308543,0.0,1.38873922825,6.43361490802e-05,0.0
1655121991127647399,322,1655121991121994972,/map,0.182919502258,0.0,1.38874554634,6.26155160717e-05,0.0
1655121991220471831,323,1655121991219203948,/map,0.182919710875,0.0,1.38875162601,6.09182934568e-05,0.0
1655121991308251578,324,1655121991307136058,/map,0.182919889688,0.0,1.38875758648,5.92450123804e-05,0.0
1655121991405110175,325,1655121991404309034,/map,0.182920083404,0.0,1.38876330853,5.75961530558e-05,0.0
1655121991493854934,326,1655121991493107080,/map,0.182920247316,0.0,1.38876891136,5.59721411264e-05,0.0
1655121991590546689,327,1655121991589684009,/map,0.18292042613,0.0,1.38877439499,5.43733585801e-05,0.0
1655121991686763896,328,1655121991686028003,/map,0.182920590043,0.0,1.3887796402,5.28001401108e-05,0.0
1655121991780736780,329,1655121991779664993,/map,0.182920753956,0.0,1.3887847662,5.12527840328e-05,0.0
1655121991898123196,330,1655121991897320032,/map,0.182920917869,0.0,1.38878977299,4.97315413668e-05,0.0
1655121991990179012,331,1655121991989300012,/map,0.18292106688,0.0,1.38879454136,4.82366267534e-05,0.0
1655121992086504055,332,1655121992085536956,/map,0.182921215892,0.0,1.38879919052,4.67682257295e-05,0.0
1655121992186025381,333,1655121992185151100,/map,0.182921350002,0.0,1.38880372047,4.53264765383e-05,0.0
1655121992292062721,334,1655121992290604114,/map,0.182921484113,0.0,1.38880813122,4.39114846813e-05,0.0
1655121992390436826,335,1655121992389142036,/map,0.182921618223,0.0,1.38881242275,4.25233338319e-05,0.0
