%time,field.header.seq,field.header.stamp,field.header.frame_id,field.drive.steering_angle,field.drive.steering_angle_velocity,field.drive.speed,field.drive.acceleration,field.drive.jerk
1654772298842792639,1891,1654772298839431047,/map,-0.104074195027,0.0,1.3888887167,3.28991127674e-08,0.0
1654772298980500396,1892,1654772298979635000,/map,-0.104074195027,0.0,1.3888887167,3.29023990275e-08,0.0
1654772299116310710,1893,1654772299115149974,/map,-0.104074195027,0.0,1.3888887167,3.28726166288e-08,0.0
1654772299226895900,1894,1654772299225577116,/map,-0.104074195027,0.0,1.3888887167,3.28114495574e-08,0.0
1654772299349132139,1895,1654772299348243951,/map,-0.104074195027,0.0,1.3888887167,3.27205285089e-08,0.0
1654772299463148197,1896,1654772299461348056,/map,-0.104074195027,0.0,1.3888887167,3.26014379937e-08,0.0
1654772299564559663,1897,1654772299563406944,/map,-0.104074187577,0.0,1.3888887167,3.24556950204e-08,0.0
1654772299702333803,1898,1654772299693115949,/map,-0.104074187577,0.0,1.3888887167,3.22847881762e-08,0.0
1654772299811170777,1899,1654772299809770107,/map,-0.104074187577,0.0,1.3888887167,3.20901385464e-08,0.0
1654772299915300588,1900,1654772299912631034,/map,-0.104074187577,0.0,1.3888887167,3.18731316895e-08,0.0
1654772300017945820,1901,1654772300016784906,/map,-0.104074187577,0.0,1.3888887167,3.16351034257e-08,0.0
1654772300132258251,1902,1654772300131290912,/map,-0.104074187577,0.0,1.3888887167,3.13773398375e-08,0.0
1654772300246385379,1903,1654772300245188951,/map,-0.104074187577,0.0,1.3888887167,3.110109148e-08,0.0
1654772300388802666,1904,1654772300387895107,/map,-0.104074187577,0.0,1.3888887167,3.08075485123e-08,0.0
1654772300491028389,1905,1654772300488066911,/map,-0.104074187577,0.0,1.3888887167,3.04978797772e-08,0.0
1654772300601589914,1906,1654772300600518941,/map,-0.104074187577,0.0,1.3888887167,3.01731937213e-08,0.0
1654772300783101340,1907,1654772300781574010,/map,-0.104074187577,0.0,1.3888887167,2.98345703698e-08,0.0
1654772300877177866,1908,1654772300875094890,/map,-0.104074187577,0.0,1.38888883591,2.94830417857e-08,0.0
1654772300973727850,1909,1654772300971992015,/map,-0.104074187577,0.0,1.38888883591,2.91196080582e-08,0.0
1654772301075725079,1910,1654772301073385953,/map,-0.104074187577,0.0,1.38888883591,2.87452266434e-08,0.0
1654772301189743951,1911,1654772301188647031,/map,-0.104074187577,0.0,1.38888883591,2.83608176943e-08,0.0
1654772301280861007,1912,1654772301280040025,/map,-0.104074187577,0.0,1.38888883591,2.79672693893e-08,0.0
1654772301391345653,1913,1654772301388314962,/map,-0.104074187577,0.0,1.38888883591,2.75654308268e-08,0.0
1654772301509670438,1914,1654772301508184909,/map,-0.104074187577,0.0,1.38888883591,2.71561191312e-08,0.0
1654772301603477040,1915,1654772301602535963,/map,-0.104074187577,0.0,1.38888883591,2.67401158993e-08,0.0
1654772301702429325,1916,1654772301699810981,/map,-0.104074187577,0.0,1.38888883591,2.63181743065e-08,0.0
1654772301797018843,1917,1654772301795031070,/map,-0.104074187577,0.0,1.38888883591,2.58910102247e-08,0.0
1654772301888928022,1918,1654772301888128042,/map,-0.104074187577,0.0,1.38888883591,2.54593146565e-08,0.0
1654772301992074217,1919,1654772301987514972,/map,-0.104074187577,0.0,1.38888883591,2.50237430777e-08,0.0
1654772302104029465,1920,1654772302090713977,/map,-0.104074187577,0.0,1.38888883591,2.45849278713e-08,0.0
1654772302185780486,1921,1654772302184897899,/map,-0.104074187577,0.0,1.38888883591,2.41434676695e-08,0.0
1654772302274464328,1922,1654772302273705005,/map,-0.104074187577,0.0,1.38888883591,2.36999362357e-08,0.0
1654772302367034792,1923,1654772302365945100,/map,-0.104074187577,0.0,1.38888883591,2.32548824641e-08,0.0
1654772302475872705,1924,1654772302473568916,/map,-0.104074187577,0.0,1.38888883591,2.28088268273e-08,0.0
1654772302573333496,1925,1654772302572489023,/map,-0.104074187577,0.0,1.38888883591,2.23622649287e-08,0.0
1654772302683210192,1926,1654772302682393074,/map,-0.104074187577,0.0,1.38888883591,2.1915667503e-08,0.0
1654772302779719108,1927,1654772302776601076,/map,-0.104074187577,0.0,1.38888883591,2.14694857448e-08,0.0
1654772302864603400,1928,1654772302861943006,/map,-0.104074187577,0.0,1.38888883591,2.1024142427e-08,0.0
1654772302957548999,1929,1654772302956700086,/map,-0.104074187577,0.0,1.38888883591,2.05800443354e-08,0.0
1654772303053626646,1930,1654772303052350997,/map,-0.104074187577,0.0,1.38888883591,2.01375680575e-08,0.0
1654772303156372111,1931,1654772303155616044,/map,-0.104074187577,0.0,1.38888883591,1.9697079523e-08,0.0
1654772303265443170,1932,1654772303263151884,/map,-0.104074187577,0.0,1.38888883591,1.92589197923e-08,0.0
1654772303361257887,1933,1654772303360183954,/map,-0.104074187577,0.0,1.38888883591,1.88234068332e-08,0.0
1654772303456175689,1934,1654772303454643011,/map,-0.104074187577,0.0,1.38888883591,1.83908479556e-08,0.0
1654772303558720970,1935,1654772303557260990,/map,-0.104074187577,0.0,1.38888883591,1.79615238238e-08,0.0
1654772303656205834,1936,1654772303655426025,/map,-0.104074187577,0.0,1.38888883591,1.75357062204e-08,0.0
1654772303759410286,1937,1654772303758271932,/map,-0.104074187577,0.0,1.38888883591,1.71136438354e-08,0.0
1654772303847315240,1938,1654772303845077991,/map,-0.104074187577,0.0,1.38888883591,1.66955711478e-08,0.0
1654772303955585666,1939,1654772303954381942,/map,-0.104074180126,0.0,1.38888883591,1.62817048732e-08,0.0
1654772304059603118,1940,1654772304058260917,/map,-0.104074180126,0.0,1.38888883591,1.5872251069e-08,0.0
1654772304164173631,1941,1654772304163321971,/map,-0.104074180126,0.0,1.38888883591,1.5467398029e-08,0.0
1654772304266922224,1942,1654772304259167909,/map,-0.104074180126,0.0,1.38888883591,1.50673198362e-08,0.0
1654772304354837244,1943,1654772304354053974,/map,-0.104074180126,0.0,1.38888883591,1.46721781391e-08,0.0
1654772304444593871,1944,1654772304442238092,/map,-0.104074180126,0.0,1.38888883591,1.42821221516e-08,0.0
1654772304530113560,1945,1654772304527437925,/map,-0.104074180126,0.0,1.38888883591,1.38972859887e-08,0.0
1654772304624221608,1946,1654772304622817993,/map,-0.104074180126,0.0,1.38888883591,1.35177948835e-08,0.0
1654772304741275798,1947,1654772304740143060,/map,-0.104074180126,0.0,1.38888883591,1.31437598583e-08,0.0
1654772304829943264,1948,1654772304828996896,/map,-0.104074180126,0.0,1.38888883591,1.27752839418e-08,0.0
1654772304932482043,1949,1654772304931689023,/map,-0.104074180126,0.0,1.38888883591,1.2412455952e-08,0.0
1654772305033861336,1950,1654772305032643079,/map,-0.104074180126,0.0,1.38888883591,1.20553567129e-08,0.0
1654772305123882954,1951,1654772305123080015,/map,-0.104074180126,0.0,1.38888883591,1.17040572789e-08,0.0
1654772305219220199,1952,1654772305217890024,/map,-0.104074180126,0.0,1.38888883591,1.13586180461e-08,0.0
1654772305323097951,1953,1654772305322266101,/map,-0.104074180126,0.0,1.38888883591,1.10190931935e-08,0.0
1654772305418198330,1954,1654772305417443037,/map,-0.104074180126,0.0,1.38888883591,1.06855253534e-08,0.0
1654772305519127825,1955,1654772305516395092,/map,-0.104074180126,0.0,1.38888883591,1.03579500532e-08,0.0
1654772305604223434,1956,1654772305603159904,/map,-0.104074180126,0.0,1.38888883591,1.00363957145e-08,0.0
1654772305707805238,1957,1654772305706429958,/map,-0.104074180126,0.0,1.38888883591,9.72088276541e-09,0.0
1654772305807069964,1958,1654772305806140899,/map,-0.104074180126,0.0,1.38888883591,9.41142452859e-09,0.0
1654772305904754402,1959,1654772305903465032,/map,-0.104074180126,0.0,1.38888883591,9.10802722132e-09,0.0
1654772306000191952,1960,1654772305999406099,/map,-0.104074180126,0.0,1.38888883591,8.81069261993e-09,0.0
1654772306093313070,1961,1654772306092364072,/map,-0.104074180126,0.0,1.38888883591,8.51941361901e-09,0.0
1654772306197511528,1962,1654772306195197105,/map,-0.104074180126,0.0,1.38888883591,8.23417867224e-09,0.0
1654772306290005630,1963,1654772306289196014,/map,-0.104074180126,0.0,1.38888883591,7.9549717924e-09,0.0
1654772306385317075,1964,1654772306384520053,/map,-0.104074180126,0.0,1.38888883591,7.68177077504e-09,0.0
1654772306487214442,1965,1654772306485969066,/map,-0.104074180126,0.0,1.38888883591,7.41454719844e-09,0.0
1654772306584233923,1966,1654772306583024024,/map,-0.104074180126,0.0,1.38888883591,7.15327086453e-09,0.0
1654772306704361654,1967,1654772306703099012,/map,-0.104074180126,0.0,1.38888883591,6.89790446984e-09,0.0
1654772306808827521,1968,1654772306805273056,/map,-0.104074180126,0.0,1.38888883591,6.6484089345e-09,0.0
1654772306903619280,1969,1654772306902955055,/map,-0.104074180126,0.0,1.38888883591,6.40473984959e-09,0.0
1654772307009511865,1970,1654772307008598089,/map,-0.104074180126,0.0,1.38888883591,6.16684925347e-09,0.0
1654772307101209765,1971,1654772307099102020,/map,-0.104074180126,0.0,1.38888883591,5.93468651999e-09,0.0
1654772307237359450,1972,1654772307236336946,/map,-0.104074180126,0.0,1.38888883591,5.70819702617e-09,0.0
1654772307325490459,1973,1654772307323666095,/map,-0.104074180126,0.0,1.38888883591,5.48732392858e-09,0.0
1654772307423444517,1974,1654772307420891046,/map,-0.104074180126,0.0,1.38888883591,5.27200727518e-09,0.0
1654772307524386103,1975,1654772307521754026,/map,-0.104074180126,0.0,1.38888883591,5.0621844494e-09,0.0
1654772307614870737,1976,1654772307613353967,/map,-0.104074180126,0.0,1.38888883591,4.85779017012e-09,0.0
1654772307714415181,1977,1654772307713367938,/map,-0.104074180126,0.0,1.38888883591,4.65875826805e-09,0.0
1654772307829575210,1978,1654772307828507900,/map,-0.104074180126,0.0,1.38888883591,4.46501902118e-09,0.0
1654772307925937633,1979,1654772307924932956,/map,-0.104074180126,0.0,1.38888883591,4.27650181933e-09,0.0
1654772308026184750,1980,1654772308021326065,/map,-0.104074180126,0.0,1.38888883591,4.09313383187e-09,0.0
1654772308114573977,1981,1654772308113948106,/map,-0.104074180126,0.0,1.38888883591,3.9148408959e-09,0.0
1654772308208295984,1982,1654772308207458019,/map,-0.104074180126,0.0,1.38888883591,3.74154796035e-09,0.0
1654772308303937963,1983,1654772308303086996,/map,-0.104074180126,0.0,1.38888883591,3.57317841981e-09,0.0
1654772308392526202,1984,1654772308391726970,/map,-0.104074180126,0.0,1.38888883591,3.40965389256e-09,0.0
1654772308486330214,1985,1654772308484082937,/map,-0.104074180126,0.0,1.38888883591,3.25089599684e-09,0.0
1654772308578856730,1986,1654772308578003883,/map,-0.104074180126,0.0,1.38888883591,3.09682501864e-09,0.0
1654772308697383902,1987,1654772308695954084,/map,-0.104074180126,0.0,1.38888883591,2.94736079987e-09,0.0
1654772308784945654,1988,1654772308784116029,/map,-0.104074180126,0.0,1.38888883591,2.80242251627e-09,0.0
1654772308888205696,1989,1654772308887234926,/map,-0.104074180126,0.0,1.38888883591,2.66192867748e-09,0.0
1654772308988910776,1990,1654772308988078117,/map,-0.104074180126,0.0,1.38888883591,2.5257975711e-09,0.0
1654772309087187219,1991,1654772309086359977,/map,-0.104074180126,0.0,1.38888883591,2.39394726265e-09,0.0
1654772309177550079,1992,1654772309176733970,/map,-0.104074180126,0.0,1.38888883591,2.26629559563e-09,0.0
1654772309276268819,1993,1654772309274290084,/map,-0.104074180126,0.0,1.38888883591,2.1427601915e-09,0.0
1654772309385611241,1994,1654772309384756088,/map,-0.104074180126,0.0,1.38888883591,2.02325867171e-09,0.0
1654772309478093015,1995,1654772309476979017,/map,-0.104074180126,0.0,1.38888883591,1.9077091018e-09,0.0
1654772309578932001,1996,1654772309578314065,/map,-0.104074180126,0.0,1.38888883591,1.79602921424e-09,0.0
1654772309683714921,1997,1654772309682054996,/map,-0.104074180126,0.0,1.38888883591,1.6881371856e-09,0.0
1654772309794690387,1998,1654772309793107032,/map,-0.104074180126,0.0,1.38888883591,1.58395185856e-09,0.0
1654772309884965245,1999,1654772309883830070,/map,-0.104074180126,0.0,1.38888883591,1.48339174277e-09,0.0
1654772310000351820,2000,1654772309999370098,/map,-0.104074180126,0.0,1.38888883591,1.38637623603e-09,0.0
1654772310102083708,2001,1654772310101155996,/map,-0.104074180126,0.0,1.38888883591,1.29282518024e-09,0.0
1654772310191702928,2002,1654772310190682888,/map,-0.104074180126,0.0,1.38888883591,1.20265875037e-09,0.0
1654772310285270199,2003,1654772310284568071,/map,-0.104074180126,0.0,1.38888883591,1.11579812057e-09,0.0
1654772310383596000,2004,1654772310382733106,/map,-0.104074180126,0.0,1.38888883591,1.03216457603e-09,0.0
1654772310491254836,2005,1654772310488476037,/map,-0.104074180126,0.0,1.38888883591,9.51680623196e-10,0.0
1654772310575399750,2006,1654772310574404954,/map,-0.104074180126,0.0,1.38888883591,8.74269101558e-10,0.0
1654772310677190077,2007,1654772310676232099,/map,-0.104074180126,0.0,1.38888883591,7.99853960842e-10,0.0
1654772310795217816,2008,1654772310794163942,/map,-0.104074180126,0.0,1.38888883591,7.28359705882e-10,0.0
1654772310881592260,2009,1654772310880732059,/map,-0.104074180126,0.0,1.38888883591,6.59711840711e-10,0.0
1654772310981989405,2010,1654772310980434894,/map,-0.104074180126,0.0,1.38888883591,5.93836591012e-10,0.0
1654772311098584696,2011,1654772311097805023,/map,-0.104074180126,0.0,1.38888883591,5.30661348197e-10,0.0
1654772311190998782,2012,1654772311189610004,/map,-0.104074180126,0.0,1.38888883591,4.70114114304e-10,0.0
1654772311280758313,2013,1654772311279652118,/map,-0.104074180126,0.0,1.38888883591,4.1212414037e-10,0.0
1654772311378085083,2014,1654772311376948118,/map,-0.104074180126,0.0,1.38888883591,3.56621593367e-10,0.0
1654772311479813788,2015,1654772311478653907,/map,-0.104074180126,0.0,1.38888883591,3.03537556201e-10,0.0
1654772311573490398,2016,1654772311572664022,/map,-0.104074180126,0.0,1.38888883591,2.5280416649e-10,0.0
1654772311676364103,2017,1654772311674860000,/map,-0.104074180126,0.0,1.38888883591,2.0435463044e-10,0.0
1654772311786657330,2018,1654772311785640001,/map,-0.104074180126,0.0,1.38888883591,1.58123236726e-10,0.0
1654772311875982640,2019,1654772311875072956,/map,-0.104074180126,0.0,1.38888883591,1.14045321797e-10,0.0
1654772311975052479,2020,1654772311974308013,/map,-0.104074180126,0.0,1.38888883591,7.20572629342e-11,0.0
1654772312086398914,2021,1654772312085194110,/map,-0.104074180126,0.0,1.38888883591,3.20964678446e-11,0.0
1654772312228068110,2022,1654772312226818084,/map,-0.104074180126,0.0,1.38888883591,-5.89835515499e-12,0.0
1654772312324825184,2023,1654772312322388887,/map,-0.104074180126,0.0,1.38888883591,-4.198757661e-11,0.0
1654772312418924172,2024,1654772312416018009,/map,-0.106166295707,0.0,1.38888883591,-7.62302582169e-11,0.0
1654772312519964805,2025,1654772312517565011,/map,-0.106166295707,0.0,1.38888883591,-1.0868463074e-10,0.0
1654772312619549097,2026,1654772312618690013,/map,-0.106166295707,0.0,1.38888883591,-1.39407610455e-10,0.0
1654772312715818585,2027,1654772312714659929,/map,-0.106166295707,0.0,1.38888883591,-1.68454972194e-10,0.0
1654772312823593761,2028,1654772312822582960,/map,-0.106166295707,0.0,1.38888883591,-1.95881602605e-10,0.0
1654772312915270841,2029,1654772312914376974,/map,-0.106166295707,0.0,1.38888883591,-2.21741000561e-10,0.0
1654772313011461431,2030,1654772313010360002,/map,-0.106166295707,0.0,1.38888883591,-2.46085679612e-10,0.0
1654772313117078058,2031,1654772313115478038,/map,-0.106166295707,0.0,1.38888883591,-2.68967043082e-10,0.0
1654772313283479874,2032,1654772313282283067,/map,-0.106166295707,0.0,1.38888883591,-2.90435342443e-10,0.0
1654772313405737601,2033,1654772313400726079,/map,-0.106166295707,0.0,1.38888883591,-3.10539871595e-10,0.0
1654772313529865571,2034,1654772313528950929,/map,-0.106166295707,0.0,1.38888883591,-3.29328508908e-10,0.0
1654772313628075320,2035,1654772313627348899,/map,-0.108257055283,0.0,1.38888883591,-3.4684849437e-10,0.0
1654772313722408953,2036,1654772313721587896,/map,-0.108257055283,0.0,1.38888883591,-3.63145541415e-10,0.0
1654772313820780178,2037,1654772313818829059,/map,-0.0466064475477,0.0,1.38888883591,-3.78264641832e-10,0.0
1654772313930579425,2038,1654772313929516077,/map,-0.0566445887089,0.0,1.38888883591,-3.92249538406e-10,0.0
1654772314040118188,2039,1654772314037849903,/map,-0.0110079217702,0.0,1.38888883591,-4.05142974724e-10,0.0
1654772314137190411,2040,1654772314131373882,/map,-0.0397907271981,0.0,1.38888883591,-4.1698652864e-10,0.0
1654772314234312731,2041,1654772314233426094,/map,0.0826382562518,0.0,1.38888883591,-4.27820945337e-10,0.0
1654772314337748517,2042,1654772314336967945,/map,-0.0663143694401,0.0,1.38888883591,-4.37685832022e-10,0.0
1654772314424057784,2043,1654772314423264026,/map,-0.10609960556,0.0,1.38888883591,-4.46619768946e-10,0.0
1654772314528871845,2044,1654772314526361942,/map,-0.0402039885521,0.0,1.38888883591,-4.54660337157e-10,0.0
1654772314615786716,2045,1654772314614654064,/map,-0.0800476297736,0.0,1.38888883591,-4.61844257282e-10,0.0
1654772314706351870,2046,1654772314705522060,/map,-0.0241511594504,0.0,1.38888883591,-4.68207139726e-10,0.0
1654772314839395372,2047,1654772314834618091,/map,-0.0241511594504,0.0,1.38888883591,-4.73783623445e-10,0.0
1654772314927177774,2048,1654772314923461914,/map,-0.0648148432374,0.0,1.38888883591,-4.78607597998e-10,0.0
1654772315013843899,2049,1654772315013118028,/map,-0.057179082185,0.0,1.38888883591,-4.82711648431e-10,0.0
1654772315105089426,2050,1654772315101672887,/map,-0.0237649530172,0.0,1.38888883591,-4.86127860189e-10,0.0
1654772315196047771,2051,1654772315194966077,/map,-0.0237649530172,0.0,1.38888883591,-4.88887041961e-10,0.0
1654772315294150582,2052,1654772315292501926,/map,-0.0377109758556,0.0,1.38888883591,-4.91019502835e-10,0.0
1654772315414351323,2053,1654772315408647060,/map,-0.0435466654599,0.0,1.38888883591,-4.92554219633e-10,0.0
1654772315502870930,2054,1654772315502139091,/map,-0.0384754091501,0.0,1.38888883591,-4.93519614064e-10,0.0
1654772315598110116,2055,1654772315596443891,/map,-0.0384754091501,0.0,1.38888883591,-4.93943386193e-10,0.0
1654772315696726230,2056,1654772315693440914,/map,-0.0376660823822,0.0,1.38888883591,-4.93851959327e-10,0.0
1654772315786049783,2057,1654772315783435106,/map,-0.0303113982081,0.0,1.38888883591,-4.93271257174e-10,0.0
1654772315885637757,2058,1654772315883546113,/map,-0.0318479798734,0.0,1.38888883591,-4.92226259752e-10,0.0
1654772315983186115,2059,1654772315982260942,/map,-0.0482054427266,0.0,1.38888883591,-4.90741336456e-10,0.0
1654772316074469872,2060,1654772316073621988,/map,-0.0291333589703,0.0,1.38888883591,-4.88839912993e-10,0.0
1654772316169256783,2061,1654772316168225049,/map,-0.0355115123093,0.0,1.38888883591,-4.86544693423e-10,0.0
1654772316271780664,2062,1654772316271064996,/map,-0.0432075038552,0.0,1.38888883591,-4.83877771185e-10,0.0
1654772316361724939,2063,1654772316360784053,/map,-0.0124172307551,0.0,1.38888883591,-4.80860240515e-10,0.0
1654772316479251993,2064,1654772316478319883,/map,-0.0313112251461,0.0,1.38888883591,-4.77512807073e-10,0.0
1654772316575060713,2065,1654772316573653936,/map,-0.00359949423,0.0,1.38888883591,-4.73855121808e-10,0.0
1654772316674920342,2066,1654772316673635959,/map,-0.00715914322063,0.0,1.38888883591,-4.69906558109e-10,0.0
1654772316777628158,2067,1654772316775655984,/map,0.0913013070822,0.0,1.38888883591,-4.6568549017e-10,0.0
1654772316884273273,2068,1654772316882749080,/map,-0.0224817562848,0.0,1.38888883591,-4.61209764824e-10,0.0
1654772316973472568,2069,1654772316972484111,/map,-0.0187180228531,0.0,1.38888883591,-4.5649664604e-10,0.0
1654772317070103647,2070,1654772317068002939,/map,0.0732654854655,0.0,1.38888883591,-4.51562648385e-10,0.0
1654772317154887743,2071,1654772317153795957,/map,-0.0653334707022,0.0,1.38888883591,-4.46423786826e-10,0.0
1654772317249829731,2072,1654772317248218059,/map,0.0944442227483,0.0,1.38888883591,-4.41095493464e-10,0.0
1654772317342794772,2073,1654772317341836929,/map,-0.00541648594663,0.0,1.38888883591,-4.35592450998e-10,0.0
1654772317496853767,2074,1654772317490096092,/map,-0.0693895667791,0.0,1.38888883591,-4.29929064572e-10,0.0
1654772317597146742,2075,1654772317587771892,/map,-0.0693895667791,0.0,1.38888883591,-4.24118823394e-10,0.0
1654772317691044015,2076,1654772317689845085,/map,0.0463204719126,0.0,1.38888883591,-4.18175022388e-10,0.0
1654772317807336115,2077,1654772317806742906,/map,-0.0396866202354,0.0,1.38888883591,-4.12110262582e-10,0.0
1654772317902832172,2078,1654772317899369955,/map,-0.0904704257846,0.0,1.38888883591,-4.05936589898e-10,0.0
1654772317986996456,2079,1654772317986203908,/map,-0.100319944322,0.0,1.38888883591,-3.99665633921e-10,0.0
1654772318087458661,2080,1654772318084234952,/map,-0.0911532193422,0.0,1.38888883591,-3.9330863566e-10,0.0
1654772318168356134,2081,1654772318163252115,/map,-0.0677275285125,0.0,1.38888883591,-3.86876169989e-10,0.0
1654772318253080067,2082,1654772318252036094,/map,-0.0652668848634,0.0,1.38888883591,-3.80378367693e-10,0.0
1654772318345498609,2083,1654772318341650962,/map,-0.0412547811866,0.0,1.38888883591,-3.73825137512e-10,0.0
1654772318430020483,2084,1654772318429285049,/map,-0.019696097821,0.0,1.38888883591,-3.67225722053e-10,0.0
1654772318521006209,2085,1654772318520324945,/map,-0.019696097821,0.0,1.38888883591,-3.60589058612e-10,0.0
1654772318616542774,2086,1654772318613739013,/map,0.0269293468446,0.0,1.38888883591,-3.53923612639e-10,0.0
1654772318700400961,2087,1654772318699587106,/map,0.0469164848328,0.0,1.38888883591,-3.47237544274e-10,0.0
1654772318794107646,2088,1654772318790337085,/map,0.0469164848328,0.0,1.38888883591,-3.4053854181e-10,0.0
1654772318879137360,2089,1654772318878437042,/map,0.0477830283344,0.0,1.38888883591,-3.3383393272e-10,0.0
1654772318978785369,2090,1654772318977291107,/map,0.0782718062401,0.0,1.38888883591,-3.27130794675e-10,0.0
1654772319084788474,2091,1654772319084125041,/map,-0.0576630569994,0.0,1.38888883591,-3.20435566969e-10,0.0
1654772319183242166,2092,1654772319182344913,/map,-0.0618655383587,0.0,1.38888883591,-3.13754772163e-10,0.0
1654772319272478504,2093,1654772319271898984,/map,0.00549618247896,0.0,1.38888883591,-3.07094183416e-10,0.0
1654772319367401539,2094,1654772319366801023,/map,0.00549618247896,0.0,1.38888883591,-3.00459546132e-10,0.0
1654772319466569290,2095,1654772319465981006,/map,0.00938118156046,0.0,1.38888883591,-2.93856189382e-10,0.0
1654772319576841703,2096,1654772319575372934,/map,0.163198724389,0.0,1.38888883591,-2.8728916468e-10,0.0
1654772319682087977,2097,1654772319681293964,/map,0.273940384388,0.0,1.38888883591,-2.80763134963e-10,0.0
1654772319779896269,2098,1654772319779254913,/map,-0.0391911789775,0.0,1.38888883591,-2.74282735413e-10,0.0
1654772319869308419,2099,1654772319867418050,/map,0.0197067614645,0.0,1.38888883591,-2.67852046099e-10,0.0
1654772319970690631,2100,1654772319969919919,/map,-0.0316854417324,0.0,1.38888883591,-2.61475008312e-10,0.0
1654772320073030203,2101,1654772320072314977,/map,-0.0440062470734,0.0,1.38888883591,-2.551553413e-10,0.0
1654772320188886676,2102,1654772320188064098,/map,-0.00756517425179,0.0,1.38888883591,-2.4889651451e-10,0.0
1654772320282198927,2103,1654772320280973911,/map,-0.0150108449161,0.0,1.38888883591,-2.42701747588e-10,0.0
1654772320364825630,2104,1654772320364269018,/map,-0.00982560124248,0.0,1.38888883591,-2.36574010382e-10,0.0
1654772320461725856,2105,1654772320461029052,/map,0.0405989959836,0.0,1.38888883591,-2.30516147837e-10,0.0
1654772320584501392,2106,1654772320583831071,/map,0.0631118118763,0.0,1.38888883591,-2.24530644077e-10,0.0
1654772320678808181,2107,1654772320677803993,/map,0.0899258777499,0.0,1.38888883591,-2.18619802816e-10,0.0
1654772320778530072,2108,1654772320777790069,/map,0.084166392684,0.0,1.38888883591,-2.12785872256e-10,0.0
1654772320868565291,2109,1654772320867894887,/map,0.0369546078146,0.0,1.38888883591,-2.07030934063e-10,0.0
1654772320981374499,2110,1654772320976737976,/map,-0.0377339273691,0.0,1.38888883591,-2.0135673684e-10,0.0
1654772321073597676,2111,1654772321072793006,/map,0.0126365218312,0.0,1.38888883591,-1.95764848776e-10,0.0
1654772321174125221,2112,1654772321173360109,/map,0.0039197281003,0.0,1.38888883591,-1.90256740917e-10,0.0
1654772321269424094,2113,1654772321268537044,/map,0.0039197281003,0.0,1.38888883591,-1.84833828798e-10,0.0
1654772321371908293,2114,1654772321369602918,/map,0.0106543991715,0.0,1.38888883591,-1.79497194885e-10,0.0
1654772321464098950,2115,1654772321463395118,/map,-0.00891681667417,0.0,1.38888883591,-1.7424796328e-10,0.0
1654772321569687827,2116,1654772321568651914,/map,-0.00891681574285,0.0,1.38888883591,-1.69086938895e-10,0.0
1654772321673577716,2117,1654772321672966003,/map,0.080856487155,0.0,1.38888883591,-1.64014843373e-10,0.0
1654772321788636066,2118,1654772321787801980,/map,0.052821457386,0.0,1.38888883591,-1.59032315095e-10,0.0
1654772321876058536,2119,1654772321875257968,/map,0.0969370305538,0.0,1.38888883591,-1.54139881414e-10,0.0
1654772321974463859,2120,1654772321973783016,/map,0.0679819211364,0.0,1.38888883591,-1.49338000299e-10,0.0
1654772322069115987,2121,1654772322068417072,/map,0.0999678745866,0.0,1.38888883591,-1.44626810528e-10,0.0
1654772322191545324,2122,1654772322189052104,/map,0.193550467491,0.0,1.38888883591,-1.40006589655e-10,0.0
1654772322277314868,2123,1654772322276612997,/map,0.203807577491,0.0,1.38888883591,-1.35477393193e-10,0.0
1654772322368846388,2124,1654772322367971897,/map,0.0550717152655,0.0,1.38888883591,-1.31039096241e-10,0.0
1654772322476213437,2125,1654772322475683927,/map,0.0543818213046,0.0,1.38888883591,-1.26691698799e-10,0.0
1654772322595224810,2126,1654772322594444990,/map,0.0543818213046,0.0,1.38888883591,-1.22434978822e-10,0.0
1654772322676824911,2127,1654772322676141977,/map,0.0576185137033,0.0,1.38888883591,-1.18268658755e-10,0.0
1654772322784490317,2128,1654772322783818960,/map,0.0605762861669,0.0,1.38888883591,-1.14192467981e-10,0.0
1654772322878490423,2129,1654772322877543926,/map,0.109235733747,0.0,1.38888883591,-1.10205802817e-10,0.0
1654772322979874524,2130,1654772322979186058,/map,0.137949675322,0.0,1.38888883591,-1.06308330194e-10,0.0
1654772323074469428,2131,1654772323073657035,/map,0.137949675322,0.0,1.38888883591,-1.02499390919e-10,0.0
1654772323172015115,2132,1654772323171335935,/map,0.150617301464,0.0,1.38888883591,-9.87783535522e-11,0.0
1654772323273088751,2133,1654772323272504091,/map,0.203794047236,0.0,1.38888883591,-9.51446144093e-11,0.0
1654772323373341067,2134,1654772323372675895,/map,0.236831352115,0.0,1.38888883591,-9.15974796012e-11,0.0
1654772323481521241,2135,1654772323480361938,/map,0.266178637743,0.0,1.38888883591,-8.81360401328e-11,0.0
1654772323586526840,2136,1654772323585654020,/map,0.266178637743,0.0,1.38888883591,-8.47595535425e-11,0.0
1654772323672757396,2137,1654772323672034025,/map,0.215692996979,0.0,1.38888883591,-8.14671732852e-11,0.0
1654772323787750436,2138,1654772323786961078,/map,0.274584978819,0.0,1.38888883591,0.0,0.0
1654772323941262505,2139,1654772323936959028,/map,0.275438517332,0.0,1.38888883591,-7.82578585268e-11,0.0
1654772324030202158,2140,1654772324024102926,/map,0.309167951345,0.0,1.38888883591,-7.51308182334e-11,0.0
1654772324113694996,2141,1654772324113214969,/map,0.188356012106,0.0,1.38888883591,-7.20849768765e-11,0.0
1654772324200753771,2142,1654772324199853897,/map,0.151996895671,0.0,1.38888883591,-6.91193699498e-11,0.0
1654772324300510072,2143,1654772324298506975,/map,0.151996895671,0.0,1.38888883591,-6.62328525358e-11,0.0
1654772324395943750,2144,1654772324395225048,/map,0.157959222794,0.0,1.38888883591,-6.34244393116e-11,0.0
1654772324486646029,2145,1654772324485728025,/map,0.232862472534,0.0,1.38888883591,-6.0693033932e-11,0.0
1654772324578704836,2146,1654772324577965974,/map,0.232862472534,0.0,1.38888883591,-5.80375018877e-11,0.0
1654772324678333015,2147,1654772324677572011,/map,0.330979526043,0.0,1.38888883591,-5.54567086697e-11,0.0
1654772324779224715,2148,1654772324778460025,/map,0.303386896849,0.0,1.38888883591,-5.29495822188e-11,0.0
1654772324874348687,2149,1654772324873620033,/map,0.323047101498,0.0,1.38888883591,-5.0514849248e-11,0.0
1654772324988589743,2150,1654772324987574100,/map,0.323047101498,0.0,1.38888883591,-4.81512815731e-11,0.0
1654772325084874491,2151,1654772325084083080,/map,0.364137858152,0.0,1.38888883591,-4.58578036655e-11,0.0
1654772325177130115,2152,1654772325176278114,/map,0.35718229413,0.0,1.38888883591,-4.36330416242e-11,0.0
1654772325276366513,2153,1654772325275609970,/map,0.178770691156,0.0,1.38888883591,-4.14758886957e-11,0.0
1654772325374332670,2154,1654772325373500108,/map,0.211979687214,0.0,1.38888883591,-3.93851756764e-11,0.0
1654772325485286381,2155,1654772325484261989,/map,0.205177694559,0.0,1.38888883591,-3.73595460124e-11,0.0
1654772325581146440,2156,1654772325580163002,/map,0.182823583484,0.0,1.38888883591,-3.53979207057e-11,0.0
1654772325698479172,2157,1654772325694628000,/map,0.205123916268,0.0,1.38888883591,-3.34989327944e-11,0.0
1654772325802601237,2158,1654772325801696062,/map,0.224068060517,0.0,1.38888883591,-3.16613679718e-11,0.0
1654772325905577265,2159,1654772325904654026,/map,0.201452180743,0.0,1.38888883591,-2.98840674429e-11,0.0
1654772325996352149,2160,1654772325992753028,/map,0.0562978424132,0.0,1.38888883591,-2.81656989398e-11,0.0
1654772326091116523,2161,1654772326090121030,/map,0.234877765179,0.0,1.38888883591,-2.65050967285e-11,0.0
1654772326176198227,2162,1654772326175498962,/map,0.230420827866,0.0,1.38888883591,-2.49010326248e-11,0.0
1654772326274834103,2163,1654772326273735046,/map,0.218949705362,0.0,1.38888883591,-2.33523374249e-11,0.0
1654772326378908075,2164,1654772326377973079,/map,0.110427096486,0.0,1.38888883591,-2.18576736571e-11,0.0
1654772326480734286,2165,1654772326479594945,/map,0.255330502987,0.0,1.38888883591,-2.04158686484e-11,0.0
1654772326585622675,2166,1654772326584527969,/map,0.239130601287,0.0,1.38888883591,-1.90258139104e-11,0.0
1654772326687182735,2167,1654772326686131000,/map,0.248068720102,0.0,1.38888883591,-1.76862344214e-11,0.0
1654772326787098990,2168,1654772326786114931,/map,0.248068720102,0.0,1.38888883591,-1.6395915875e-11,0.0
1654772326893832280,2169,1654772326893033981,/map,0.248410359025,0.0,1.38888883591,-1.515370468e-11,0.0
1654772327013809159,2170,1654772327012900114,/map,0.189634233713,0.0,1.38888883591,-1.39584012751e-11,0.0
1654772327115061563,2171,1654772327113699913,/map,0.159235775471,0.0,1.38888883591,-1.28089804388e-11,0.0
1654772327209039901,2172,1654772327208231925,/map,0.152966484427,0.0,1.38888883591,-1.17041489348e-11,0.0
1654772327303345582,2173,1654772327302412033,/map,0.155497387052,0.0,1.38888883591,-1.0642902358e-11,0.0
1654772327412992428,2174,1654772327408499002,/map,0.155497387052,0.0,1.38888883591,-9.62408191335e-12,0.0
1654772327506536510,2175,1654772327505599021,/map,-0.00382527452894,0.0,1.38888883591,-8.64659645966e-12,0.0
1654772327602192312,2176,1654772327595135927,/map,-0.00382527452894,0.0,1.38888883591,-7.70931582461e-12,0.0
1654772327686611788,2177,1654772327685478925,/map,0.158007994294,0.0,1.38888883591,-6.81117618903e-12,0.0
1654772327778468387,2178,1654772327777133941,/map,0.12407951057,0.0,1.38888883591,-5.95119049526e-12,0.0
1654772327885930537,2179,1654772327884640932,/map,0.29407453537,0.0,1.38888883591,-5.12821989734e-12,0.0
1654772327984280763,2180,1654772327980724096,/map,0.0482615306973,0.0,1.38888883591,-4.3411984077e-12,0.0
1654772328102536822,2181,1654772328099371910,/map,0.120135135949,0.0,1.38888883591,-3.58924890677e-12,0.0
1654772328204520634,2182,1654772328200298070,/map,0.308353334665,0.0,1.38888883591,-2.87134769086e-12,0.0
1654772328289716441,2183,1654772328288628101,/map,0.231479868293,0.0,1.38888883591,-2.18643549446e-12,0.0
1654772328391459189,2184,1654772328389439105,/map,0.257190316916,0.0,1.38888883591,-1.53353111459e-12,0.0
1654772328496330891,2185,1654772328495306968,/map,0.139324486256,0.0,1.38888883591,-9.11732928738e-13,0.0
1654772328588535631,2186,1654772328587559938,/map,0.139324486256,0.0,1.38888883591,-3.20108387497e-13,0.0
1654772328682349129,2187,1654772328679663896,/map,0.270928859711,0.0,1.38888883591,2.42192930208e-13,0.0
1654772328792532256,2188,1654772328787758111,/map,0.0959922373295,0.0,1.38888883591,7.76163584359e-13,0.0
1654772328901503263,2189,1654772328900571107,/map,0.0603743009269,0.0,1.38888883591,1.28260065329e-12,0.0
1654772329007202745,2190,1654772329005886077,/map,-0.0293617751449,0.0,1.38888883591,1.76244132136e-12,0.0
1654772329126169898,2191,1654772329124829053,/map,0.101244568825,0.0,1.38888883591,2.21653815094e-12,0.0
1654772329225277462,2192,1654772329224442005,/map,0.0983728468418,0.0,1.38888883591,2.64577032158e-12,0.0
1654772329330850973,2193,1654772329329307079,/map,0.0460142567754,0.0,1.38888883591,3.0508174112e-12,0.0
1654772329432425634,2194,1654772329429557085,/map,0.0639869198203,0.0,1.38888883591,3.43260749686e-12,0.0
1654772329530764525,2195,1654772329524547100,/map,0.171403378248,0.0,1.38888883591,3.79186916241e-12,0.0
1654772329625309392,2196,1654772329624502897,/map,0.14780421555,0.0,1.38888883591,4.12935224209e-12,0.0
1654772329722408521,2197,1654772329720612049,/map,0.26004832983,0.0,1.38888883591,4.44583042256e-12,0.0
1654772329829131726,2198,1654772329828059911,/map,0.361351042986,0.0,1.38888883591,4.74209777349e-12,0.0
1654772329946718934,2199,1654772329940814018,/map,0.362947881222,0.0,1.38888883591,5.0187454019e-12,0.0
1654772330049164369,2200,1654772330047103881,/map,0.355017453432,0.0,1.38888883591,5.27660814348e-12,0.0
1654772330150128441,2201,1654772330147907018,/map,0.337746202946,0.0,1.38888883591,5.51631613652e-12,0.0
1654772330269377968,2202,1654772330267600059,/map,0.578155398369,0.0,1.38888883591,5.73851860128e-12,0.0
1654772330381779327,2203,1654772330379630088,/map,0.590754747391,0.0,1.38888883591,5.94388080422e-12,0.0
1654772330489636708,2204,1654772330482146978,/map,0.590754747391,0.0,1.38888883591,6.13297433671e-12,0.0
1654772330592659249,2205,1654772330590272903,/map,0.307460397482,0.0,1.38888883591,6.30649742497e-12,0.0
1654772330700800624,2206,1654772330699732065,/map,0.376440316439,0.0,1.38888883591,6.46505505381e-12,0.0
1654772330826426432,2207,1654772330815136909,/map,0.317272007465,0.0,1.38888883591,6.60915332878e-12,0.0
1654772330930434691,2208,1654772330929274082,/map,0.0698240548372,0.0,1.38888883591,6.73953774732e-12,0.0
1654772331050147898,2209,1654772331046478986,/map,0.0769414976239,0.0,1.38888883591,6.856632883e-12,0.0
1654772331148528964,2210,1654772331147239923,/map,0.033854406327,0.0,1.38888883591,6.9609873421e-12,0.0
1654772331249804431,2211,1654772331248928070,/map,0.0898864641786,0.0,1.38888883591,7.05316230767e-12,0.0
1654772331399418056,2212,1654772331397763013,/map,0.0722806677222,0.0,1.38888883591,7.13373370792e-12,0.0
1654772331511239118,2213,1654772331509315967,/map,0.0717115849257,0.0,1.38888883591,7.203062799e-12,0.0
1654772331613092579,2214,1654772331611819028,/map,0.164125651121,0.0,1.38888883591,7.26174675947e-12,0.0
1654772331723843007,2215,1654772331722238063,/map,0.131504505873,0.0,1.38888883591,7.31028345496e-12,0.0
1654772331820228802,2216,1654772331813637971,/map,0.156622067094,0.0,1.38888883591,7.34906840244e-12,0.0
1654772331936204943,2217,1654772331935193061,/map,0.198569476604,0.0,1.38888883591,7.37850405774e-12,0.0
1654772332040302443,2218,1654772332038911104,/map,0.192288950086,0.0,1.38888883591,7.39911951153e-12,0.0
1654772332146189797,2219,1654772332144963026,/map,0.14299172163,0.0,1.38888883591,7.41133630161e-12,0.0
1654772332270506468,2220,1654772332267945051,/map,0.14299172163,0.0,1.38888883591,7.41547448446e-12,0.0
1654772332377588507,2221,1654772332373929023,/map,0.130965545774,0.0,1.38888883591,7.41197554721e-12,0.0
1654772332495976776,2222,1654772332493443012,/map,0.125076502562,0.0,1.38888883591,7.40128618115e-12,0.0
1654772332613082260,2223,1654772332612220048,/map,0.125076502562,0.0,1.38888883591,7.38375159626e-12,0.0
1654772332717294710,2224,1654772332714514970,/map,0.105577833951,0.0,1.38888883591,7.35972133931e-12,0.0
1654772332834535442,2225,1654772332833518028,/map,0.0385549888015,0.0,1.38888883591,7.32944174103e-12,0.0
1654772332941023865,2226,1654772332937974929,/map,0.0557886250317,0.0,1.38888883591,7.29338551358e-12,0.0
1654772333050903251,2227,1654772333049451112,/map,0.0557886250317,0.0,1.38888883591,7.2518124318e-12,0.0
1654772333152765087,2228,1654772333151796102,/map,0.0409665517509,0.0,1.38888883591,7.20509632859e-12,0.0
1654772333267990906,2229,1654772333266755104,/map,0.0754386112094,0.0,1.38888883591,7.15350651978e-12,0.0
1654772333364780648,2230,1654772333362818956,/map,0.0868937447667,0.0,1.38888883591,7.09731622431e-12,0.0
1654772333478358412,2231,1654772333477231025,/map,0.0414891242981,0.0,1.38888883591,7.03691532128e-12,0.0
1654772333590606012,2232,1654772333585355997,/map,0.0414891242981,0.0,1.38888883591,6.972475982e-12,0.0
1654772333690102827,2233,1654772333688663959,/map,0.0518670082092,0.0,1.38888883591,6.90428400216e-12,0.0
1654772333790659868,2234,1654772333789299011,/map,0.0839394256473,0.0,1.38888883591,6.83262994794e-12,0.0
1654772333893003570,2235,1654772333891788959,/map,0.0215476360172,0.0,1.38888883591,6.75769683267e-12,0.0
1654772334004725955,2236,1654772334003310918,/map,0.000812143145595,0.0,1.38888883591,6.67978129407e-12,0.0
1654772334113955313,2237,1654772334112967014,/map,0.123229004443,0.0,1.38888883591,6.59907241699e-12,0.0
1654772334212543486,2238,1654772334209809064,/map,0.151257738471,0.0,1.38888883591,6.51576145469e-12,0.0
1654772334308598464,2239,1654772334307514905,/map,0.132743582129,0.0,1.38888883591,6.43015415219e-12,0.0
1654772334410828739,2240,1654772334409965991,/map,0.0863237977028,0.0,1.38888883591,6.34233551094e-12,0.0
1654772334513716451,2241,1654772334512799978,/map,0.0863237977028,0.0,1.38888883591,6.25261604645e-12,0.0
1654772334652929725,2242,1654772334648988962,/map,0.120441049337,0.0,1.38888883591,6.16108509696e-12,0.0
1654772334760889316,2243,1654772334759318113,/map,0.0838318318129,0.0,1.38888883591,6.06794389041e-12,0.0
1654772334877604804,2244,1654772334876637935,/map,0.0236060302705,0.0,1.38888883591,5.97339712416e-12,0.0
1654772334983599233,2245,1654772334982250928,/map,0.0236060302705,0.0,1.38888883591,5.87765166399e-12,0.0
1654772335077745193,2246,1654772335076735019,/map,-0.0273647736758,0.0,1.38888883591,5.78080248601e-12,0.0
1654772335176473926,2247,1654772335173497915,/map,-0.00408856850117,0.0,1.38888883591,5.68305862439e-12,0.0
1654772335282246100,2248,1654772335281033992,/map,-0.0284902863204,0.0,1.38888883591,5.58451722366e-12,0.0
1654772335389581249,2249,1654772335388099908,/map,-0.0862039849162,0.0,1.38888883591,5.48527672936e-12,0.0
1654772335514100917,2250,1654772335510548114,/map,-0.0198190063238,0.0,1.38888883591,5.38554747673e-12,0.0
1654772335620018387,2251,1654772335618527889,/map,-0.0452841185033,0.0,1.38888883591,5.28543007972e-12,0.0
1654772335742222614,2252,1654772335737341880,/map,-0.0470025800169,0.0,1.38888883591,5.18502341756e-12,0.0
1654772335837599747,2253,1654772335836152076,/map,-0.0450632423162,0.0,1.38888883591,5.08442853792e-12,0.0
1654772335939587375,2254,1654772335933850049,/map,-0.0964689701796,0.0,1.38888883591,4.98374432001e-12,0.0
1654772336072186553,2255,1654772336069597005,/map,0.067487873137,0.0,1.38888883591,4.88318500219e-12,0.0
1654772336178607478,2256,1654772336177292108,/map,0.0288256779313,0.0,1.38888883591,4.7827384414e-12,0.0
1654772336285174559,2257,1654772336284132003,/map,0.00343514257111,0.0,1.38888883591,4.68250568528e-12,0.0
1654772336391353331,2258,1654772336386810064,/map,0.0744173303246,0.0,1.38888883591,4.58258561306e-12,0.0
1654772336503279081,2259,1654772336502249956,/map,0.127774521708,0.0,1.38888883591,4.48307840503e-12,0.0
1654772336606205814,2260,1654772336603534936,/map,0.127774521708,0.0,1.38888883591,4.38408424147e-12,0.0
1654772336719529711,2261,1654772336717749118,/map,0.0959710627794,0.0,1.38888883591,4.28570286898e-12,0.0
1654772336845389132,2262,1654772336840035915,/map,0.0636122301221,0.0,1.38888883591,4.18792127713e-12,0.0
1654772336966430752,2263,1654772336962219953,/map,0.0740778148174,0.0,1.38888883591,4.09083661043e-12,0.0
1654772337071026113,2264,1654772337070103883,/map,0.000353800598532,0.0,1.38888883591,3.99454688077e-12,0.0
1654772337172170167,2265,1654772337170907020,/map,0.0376728028059,0.0,1.38888883591,3.89903647563e-12,0.0
1654772337311907331,2266,1654772337309860944,/map,-0.0956153050065,0.0,1.38888883591,3.80440123848e-12,0.0
1654772337434202898,2267,1654772337432843923,/map,0.0897872075438,0.0,1.38888883591,3.71073614544e-12,0.0
1654772337546405320,2268,1654772337544903993,/map,0.0897872075438,0.0,1.38888883591,3.61802363243e-12,0.0
1654772337683688308,2269,1654772337681149959,/map,0.0265854895115,0.0,1.38888883591,3.52635694083e-12,0.0
1654772337796923694,2270,1654772337795383930,/map,0.0265854895115,0.0,1.38888883591,3.43571612132e-12,0.0
1654772337961261000,2271,1654772337960231065,/map,-0.122173026204,0.0,1.38888883591,3.3461922469e-12,0.0
1654772338069960393,2272,1654772338067960023,/map,0.142514303327,0.0,1.38888883591,3.25776298299e-12,0.0
1654772338168739757,2273,1654772338166445016,/map,-0.0985808521509,0.0,1.38888883591,3.17051723417e-12,0.0
1654772338299821600,2274,1654772338297548055,/map,0.00795649550855,0.0,1.38888883591,3.08443049747e-12,0.0
1654772338404786490,2275,1654772338403274059,/map,-0.0311736706644,0.0,1.38888883591,2.99958950907e-12,0.0
1654772338557881495,2276,1654772338554825067,/map,0.0651153698564,0.0,1.38888883591,2.91596738075e-12,0.0
1654772338672797920,2277,1654772338670242071,/map,-0.0619520097971,0.0,1.38888883591,2.83364889712e-12,0.0
1654772338781973798,2278,1654772338780723094,/map,-0.092843234539,0.0,1.38888883591,2.75260478473e-12,0.0
1654772338890946262,2279,1654772338889461994,/map,-0.113522931933,0.0,1.38888883591,2.67280425223e-12,0.0
1654772339015830135,2280,1654772339014790058,/map,0.0716420561075,0.0,1.38888883591,2.59432688006e-12,0.0
1654772339159697562,2281,1654772339157284975,/map,-0.0296802166849,0.0,1.38888883591,2.51725311602e-12,0.0
1654772339247690830,2282,1654772339246685028,/map,-3.18829369545,0.0,1.38888883591,0.0,0.0
1654772339335101797,2283,1654772339334171056,/map,-3.18829369545,0.0,1.38888883591,0.0,0.0
1654772339443140120,2284,1654772339442179918,/map,0.248831704259,0.0,1.38888883591,2.4414359423e-12,0.0
1654772339550669755,2285,1654772339549380064,/map,0.248831704259,0.0,1.38888883591,2.36695103621e-12,0.0
1654772339649681321,2286,1654772339647922992,/map,0.248831704259,0.0,1.38888883591,2.29387407506e-12,0.0
1654772339763204615,2287,1654772339761842966,/map,0.248831704259,0.0,1.38888883591,2.22216689494e-12,0.0
1654772339877880888,2288,1654772339875709056,/map,0.248831704259,0.0,1.38888883591,2.15178981404e-12,0.0
1654772339982757897,2289,1654772339981919050,/map,0.248831704259,0.0,1.38888883591,2.08281395603e-12,0.0
1654772340118217936,2290,1654772340114145040,/map,0.248831704259,0.0,1.38888883591,2.01519682018e-12,0.0
1654772340229348632,2291,1654772340228487014,/map,0.248831704259,0.0,1.38888883591,1.94889438788e-12,0.0
1654772340334844257,2292,1654772340332577943,/map,0.248831704259,0.0,1.38888883591,1.88397301232e-12,0.0
1654772340439326680,2293,1654772340438347101,/map,0.248831704259,0.0,1.38888883591,1.82049926349e-12,0.0
1654772340550186344,2294,1654772340548444986,/map,0.248831704259,0.0,1.38888883591,1.75831354685e-12,0.0
1654772340651047129,2295,1654772340649764060,/map,0.248831704259,0.0,1.38888883591,1.6974776619e-12,0.0
1654772340759132400,2296,1654772340753587961,/map,0.248831704259,0.0,1.38888883591,1.63805416713e-12,0.0
1654772340872987615,2297,1654772340872103929,/map,0.248831704259,0.0,1.38888883591,1.57987848064e-12,0.0
1654772341001070226,2298,1654772341000118970,/map,0.248831704259,0.0,1.38888883591,1.52300839041e-12,0.0
1654772341128948348,2299,1654772341127955913,/map,0.248831704259,0.0,1.38888883591,1.46750168441e-12,0.0
1654772341232336674,2300,1654772341230909109,/map,0.248831704259,0.0,1.38888883591,1.41330285149e-12,0.0
1654772341349887710,2301,1654772341348809957,/map,0.248831704259,0.0,1.38888883591,1.36046729438e-12,0.0
1654772341452968037,2302,1654772341452020883,/map,0.248831704259,0.0,1.38888883591,1.30882414281e-12,0.0
1654772341567113409,2303,1654772341565279006,/map,0.248831704259,0.0,1.38888883591,1.25853776185e-12,0.0
1654772341667036078,2304,1654772341666013002,/map,0.248831704259,0.0,1.38888883591,1.20943478756e-12,0.0
1654772341814535458,2305,1654772341813411951,/map,0.248831704259,0.0,1.38888883591,1.16156422588e-12,0.0
1654772341929482817,2306,1654772341928541898,/map,0.248831704259,0.0,1.38888883591,1.11497475749e-12,0.0
1654772342041185958,2307,1654772342039944887,/map,0.248831704259,0.0,1.38888883591,1.06960219761e-12,0.0
1654772342147270563,2308,1654772342146303892,/map,0.248831704259,0.0,1.38888883591,1.0253797594e-12,0.0
1654772342260067055,2309,1654772342258061885,/map,0.248831704259,0.0,1.38888883591,9.82352003562e-13,0.0
1654772342369311148,2310,1654772342368083953,/map,0.248831704259,0.0,1.38888883591,9.40563165547e-13,0.0
1654772342488527965,2311,1654772342487096071,/map,0.248831704259,0.0,1.38888883591,8.9983131623e-13,0.0
1654772342615432180,2312,1654772342612978935,/map,0.248831704259,0.0,1.38888883591,8.60309599168e-13,0.0
1654772342721936601,2313,1654772342720577001,/map,0.248831704259,0.0,1.38888883591,8.21926944908e-13,0.0
1654772342828550193,2314,1654772342825005054,/map,0.248831704259,0.0,1.38888883591,7.84610169804e-13,0.0
1654772342932429532,2315,1654772342931453943,/map,0.248831704259,0.0,1.38888883591,7.48396895671e-13,0.0
1654772343051946025,2316,1654772343049573898,/map,0.248831704259,0.0,1.38888883591,7.13211716248e-13,0.0
1654772343154369544,2317,1654772343150810003,/map,0.248831704259,0.0,1.38888883591,6.79090139157e-13,0.0
1654772343267936948,2318,1654772343266832113,/map,0.248831704259,0.0,1.38888883591,6.459544271e-13,0.0
1654772343371242394,2319,1654772343370245933,/map,0.248831704259,0.0,1.38888883591,6.13837865086e-13,0.0
1654772343475025420,2320,1654772343473710060,/map,0.248831704259,0.0,1.38888883591,5.82773846541e-13,0.0
1654772343588843517,2321,1654772343584511041,/map,0.248831704259,0.0,1.38888883591,5.52682357345e-13,0.0
1654772343712129094,2322,1654772343711236953,/map,0.248831704259,0.0,1.38888883591,5.23481269183e-13,0.0
1654772343840034661,2323,1654772343837748050,/map,0.248831704259,0.0,1.38888883591,4.95199421833e-13,0.0
1654772343940455551,2324,1654772343939510107,/map,0.248831704259,0.0,1.38888883591,4.67865763493e-13,0.0
1654772344061691615,2325,1654772344058707952,/map,0.248831704259,0.0,1.38888883591,4.41395807708e-13,0.0
1654772344170127122,2326,1654772344167694091,/map,0.248831704259,0.0,1.38888883591,4.15816280063e-13,0.0
1654772344274996396,2327,1654772344272080898,/map,0.248831704259,0.0,1.38888883591,3.91153770615e-13,0.0
1654772344389523096,2328,1654772344388290882,/map,0.248831704259,0.0,1.38888883591,3.67321732926e-13,0.0
1654772344492360774,2329,1654772344491331100,/map,0.248831704259,0.0,1.38888883591,3.44344561545e-13,0.0
1654772344599279896,2330,1654772344593262910,/map,0.248831704259,0.0,1.38888883591,3.22133433209e-13,0.0
1654772344732942351,2331,1654772344732031106,/map,0.248831704259,0.0,1.38888883591,3.00710574063e-13,0.0
1654772344831239934,2332,1654772344830368041,/map,0.248831704259,0.0,1.38888883591,2.80098156041e-13,0.0
1654772344940916201,2333,1654772344938342094,/map,0.248831704259,0.0,1.38888883591,2.60205187475e-13,0.0
1654772345048832847,2334,1654772345047902107,/map,0.248831704259,0.0,1.38888883591,2.41051617686e-13,0.0
1654772345159832664,2335,1654772345158915996,/map,0.248831704259,0.0,1.38888883591,2.22544205286e-13,0.0
1654772345273658562,2336,1654772345271388053,/map,0.248831704259,0.0,1.38888883591,2.04813949004e-13,0.0
1654772345399168086,2337,1654772345398129940,/map,0.248831704259,0.0,1.38888883591,1.87767580347e-13,0.0
1654772345511600601,2338,1654772345510265111,/map,0.248831704259,0.0,1.38888883591,1.71309635314e-13,0.0
1654772345629798122,2339,1654772345627509117,/map,0.248831704259,0.0,1.38888883591,1.55568890018e-13,0.0
1654772345754837345,2340,1654772345747322082,/map,0.248831704259,0.0,1.38888883591,1.40449880458e-13,0.0
1654772345862722010,2341,1654772345861648082,/map,0.248831704259,0.0,1.38888883591,1.25968124278e-13,0.0
1654772345982439596,2342,1654772345979497909,/map,0.248831704259,0.0,1.38888883591,1.12025941637e-13,0.0
1654772346104099848,2343,1654772346102358102,/map,0.248831704259,0.0,1.38888883591,9.87498995878e-14,0.0
1654772346251627810,2344,1654772346249742984,/map,0.248831704259,0.0,1.38888883591,8.60422844084e-14,0.0
1654772346354529055,2345,1654772346351649999,/map,0.248831704259,0.0,1.38888883591,7.38031868692e-14,0.0
1654772346485318170,2346,1654772346483311891,/map,0.248831704259,0.0,1.38888883591,6.21569446304e-14,0.0
1654772346635298535,2347,1654772346633841037,/map,0.248831704259,0.0,1.38888883591,5.10036450737e-14,0.0
1654772346759150407,2348,1654772346752175092,/map,0.248831704259,0.0,1.38888883591,4.03543877188e-14,0.0
1654772346863927022,2349,1654772346862982988,/map,0.248831704259,0.0,1.38888883591,3.02202720855e-14,0.0
1654772346997336052,2350,1654772346996139049,/map,0.248831704259,0.0,1.38888883591,2.04991578589e-14,0.0
1654772347110593145,2351,1654772347109822034,/map,0.248831704259,0.0,1.38888883591,1.13131727903e-14,0.0
1654772347228071954,2352,1654772347226141929,/map,0.248831704259,0.0,1.38888883591,2.56017423549e-15,0.0
1654772347349718951,2353,1654772347348304986,/map,0.248831704259,0.0,1.38888883591,-5.75095518286e-15,0.0
1654772347476030789,2354,1654772347474867105,/map,0.248831704259,0.0,1.38888883591,-1.36113341125e-14,0.0
1654772347618875730,2355,1654772347615376949,/map,0.248831704259,0.0,1.38888883591,-2.1125323577e-14,0.0
